{
"type": "FeatureCollection",
"crs": { "type": "name", "properties": { "name": "urn:ogc:def:crs:OGC:1.3:CRS84" } },
                                                                                
"features": [
{ "type": "Feature", "properties": { "Name": "Astor County Library", "LibraryTyp": "Branch", "StreetNumb": "54905", "PrefixType": null, "PrefixDire": null, "StreetName": "Alco", "SuffixType": "RD", "City": "Astor", "ZipCode": "32102", "PhoneNumbe": "352-759-9913" }, "geometry": { "type": "Point", "coordinates": [ -81.535110896121864, 29.154895587552133 ] } },
{ "type": "Feature", "properties": { "Name": "Cooper Memorial Library", "LibraryTyp": "Branch", "StreetNumb": "2525", "PrefixType": null, "PrefixDire": null, "StreetName": "Oakley Seaver", "SuffixType": "DR", "City": "Clermont", "ZipCode": "34711", "PhoneNumbe": "352-536-2275" }, "geometry": { "type": "Point", "coordinates": [ -81.708959301397769, 28.552487317865285 ] } },
{ "type": "Feature", "properties": { "Name": "Fruitland Park Library", "LibraryTyp": "Member", "StreetNumb": "205", "PrefixType": null, "PrefixDire": "W", "StreetName": "Berckman", "SuffixType": "ST", "City": "Fruitland Park", "ZipCode": "34731", "PhoneNumbe": "352-360-6561" }, "geometry": { "type": "Point", "coordinates": [ -81.908730239563894, 28.857508210210039 ] } },
{ "type": "Feature", "properties": { "Name": "Lady Lake Public Library", "LibraryTyp": "Member", "StreetNumb": "225", "PrefixType": null, "PrefixDire": "W", "StreetName": "Guava", "SuffixType": "ST", "City": "Lady Lake", "ZipCode": "32159", "PhoneNumbe": "352-753-2957" }, "geometry": { "type": "Point", "coordinates": [ -81.925217956105882, 28.918322566311446 ] } },
{ "type": "Feature", "properties": { "Name": "Marion Baysinger Memorial Library", "LibraryTyp": "Branch", "StreetNumb": "756", "PrefixType": null, "PrefixDire": "W", "StreetName": "Broad", "SuffixType": "ST", "City": "Groveland", "ZipCode": "34736", "PhoneNumbe": "352-429-5840" }, "geometry": { "type": "Point", "coordinates": [ -81.863570792647934, 28.563293200891625 ] } },
{ "type": "Feature", "properties": { "Name": "Tavares Public Library", "LibraryTyp": "Member", "StreetNumb": "314", "PrefixType": null, "PrefixDire": "N", "StreetName": "New Hampshire", "SuffixType": "AV", "City": "Tavares", "ZipCode": "32778", "PhoneNumbe": "352-742-6204" }, "geometry": { "type": "Point", "coordinates": [ -81.727706878988727, 28.80452200083365 ] } },
{ "type": "Feature", "properties": { "Name": "WT Bland Public Library", "LibraryTyp": "Member", "StreetNumb": "1995", "PrefixType": null, "PrefixDire": "N", "StreetName": "Donnelly", "SuffixType": "ST", "City": "Mt Dora", "ZipCode": "32757", "PhoneNumbe": "352-735-7180" }, "geometry": { "type": "Point", "coordinates": [ -81.645527797653685, 28.813922308040759 ] } },
{ "type": "Feature", "properties": { "Name": "Cagan Crossings Community Library", "LibraryTyp": "Branch", "StreetNumb": "16729", "PrefixType": null, "PrefixDire": null, "StreetName": "Cagan Oaks", "SuffixType": null, "City": "Clermont", "ZipCode": "34714", "PhoneNumbe": "352-243-1840" }, "geometry": { "type": "Point", "coordinates": [ -81.678802498746208, 28.356146896961693 ] } },
{ "type": "Feature", "properties": { "Name": "East Lake County Library", "LibraryTyp": "Branch", "StreetNumb": "31340", "PrefixType": null, "PrefixDire": "S", "StreetName": "CR 437", "SuffixType": null, "City": "Sorrento", "ZipCode": "32776", "PhoneNumbe": "352-383-9980" }, "geometry": { "type": "Point", "coordinates": [ -81.559135530987561, 28.805978591405015 ] } },
{ "type": "Feature", "properties": { "Name": "Helen Lehmann Memorial Library", "LibraryTyp": "Member", "StreetNumb": "17435", "PrefixType": null, "PrefixDire": null, "StreetName": "Fifth", "SuffixType": "ST", "City": "Montverde", "ZipCode": "34756", "PhoneNumbe": "407-469-3838" }, "geometry": { "type": "Point", "coordinates": [ -81.671875463817472, 28.599758523509138 ] } },
{ "type": "Feature", "properties": { "Name": "Leesburg Public Library", "LibraryTyp": "Member", "StreetNumb": "100", "PrefixType": null, "PrefixDire": "E", "StreetName": "Main", "SuffixType": "ST", "City": "Leesburg", "ZipCode": "34748", "PhoneNumbe": "352-728-9790" }, "geometry": { "type": "Point", "coordinates": [ -81.874933319200878, 28.811347055752098 ] } },
{ "type": "Feature", "properties": { "Name": "Paisley County Library", "LibraryTyp": "Branch", "StreetNumb": "24954", "PrefixType": null, "PrefixDire": null, "StreetName": "CR 42", "SuffixType": null, "City": "Paisley", "ZipCode": "32767", "PhoneNumbe": "352-669-1001" }, "geometry": { "type": "Point", "coordinates": [ -81.541778950137541, 28.982940148873691 ] } },
{ "type": "Feature", "properties": { "Name": "Umatilla Public Library", "LibraryTyp": "Member", "StreetNumb": "412", "PrefixType": null, "PrefixDire": null, "StreetName": "Hatfield", "SuffixType": "DR", "City": "Umatilla", "ZipCode": "32784", "PhoneNumbe": "352-669-3284" }, "geometry": { "type": "Point", "coordinates": [ -81.666029122191802, 28.932628199709054 ] } },
{ "type": "Feature", "properties": { "Name": "Marianne Beck Memorial Library", "LibraryTyp": "Member", "StreetNumb": "112", "PrefixType": null, "PrefixDire": "W", "StreetName": "Central", "SuffixType": "AV", "City": "Howey-in-the-Hills", "ZipCode": "34737", "PhoneNumbe": "352-324-0254" }, "geometry": { "type": "Point", "coordinates": [ -81.773572610185539, 28.713841751395908 ] } },
{ "type": "Feature", "properties": { "Name": "Minneola Schoolhouse Library", "LibraryTyp": "Member", "StreetNumb": "100", "PrefixType": null, "PrefixDire": "S", "StreetName": "Main", "SuffixType": "AV", "City": "Minneola", "ZipCode": "34715", "PhoneNumbe": "352-516-4703" }, "geometry": { "type": "Point", "coordinates": [ -81.75220838659051, 28.579089856015518 ] } }
]
}
