{
"type": "FeatureCollection",
"crs": { "type": "name", "properties": { "name": "urn:ogc:def:crs:OGC:1.3:CRS84" } },
                                                                                
"features": [
{ "type": "Feature", "properties": { "NAME": "Accreditation", "JURIS": "County Sheriff", "ADDRESS": "2500 W Colonial Dr", "CITY": "Orlando", "ZIP_CODE": 32804 }, "geometry": { "type": "Point", "coordinates": [ -81.411944358397989, 28.551344792393554 ] } },
{ "type": "Feature", "properties": { "NAME": "Orange County Sheriff (COP)", "JURIS": "County Sheriff", "ADDRESS": "2500 W Colonial Dr", "CITY": "Orlando", "ZIP_CODE": 32804 }, "geometry": { "type": "Point", "coordinates": [ -81.411944983146356, 28.551410875331172 ] } },
{ "type": "Feature", "properties": { "NAME": "Legal Services", "JURIS": "County Sheriff", "ADDRESS": "2500 W Colonial Dr", "CITY": "Orlando", "ZIP_CODE": 32804 }, "geometry": { "type": "Point", "coordinates": [ -81.411945532921706, 28.551224792104641 ] } },
{ "type": "Feature", "properties": { "NAME": "Professional Standards", "JURIS": "County Sheriff", "ADDRESS": "2500 W Colonial Dr", "CITY": "Orlando", "ZIP_CODE": 32804 }, "geometry": { "type": "Point", "coordinates": [ -81.412422065829105, 28.550763463357786 ] } },
{ "type": "Feature", "properties": { "NAME": "Records", "JURIS": "County Sheriff", "ADDRESS": "2500 W Colonial Dr", "CITY": "Orlando", "ZIP_CODE": 32804 }, "geometry": { "type": "Point", "coordinates": [ -81.412421800714384, 28.550695421093536 ] } },
{ "type": "Feature", "properties": { "NAME": "Traffic  Enforcement Unit", "JURIS": "County Sheriff", "ADDRESS": "2500 W Colonial Dr", "CITY": "Orlando", "ZIP_CODE": 32804 }, "geometry": { "type": "Point", "coordinates": [ -81.411946324538434, 28.551167277634132 ] } },
{ "type": "Feature", "properties": { "NAME": "Human Resources", "JURIS": "County Sheriff", "ADDRESS": "2500 W Colonial Dr", "CITY": "Orlando", "ZIP_CODE": 32804 }, "geometry": { "type": "Point", "coordinates": [ -81.412415880302234, 28.550540579209365 ] } },
{ "type": "Feature", "properties": { "NAME": "Accrediation\/Staff Inspection", "JURIS": "County Sheriff", "ADDRESS": "2500 W Colonial Dr", "CITY": "Orlando", "ZIP_CODE": 32804 }, "geometry": { "type": "Point", "coordinates": [ -81.412412967363579, 28.550474888263828 ] } },
{ "type": "Feature", "properties": { "NAME": "Fiscal Management", "JURIS": "County Sheriff", "ADDRESS": "2500 W Colonial Dr", "CITY": "Orlando", "ZIP_CODE": 32804 }, "geometry": { "type": "Point", "coordinates": [ -81.412418860355245, 28.550622694898504 ] } },
{ "type": "Feature", "properties": { "NAME": "DOC Orlando Circuit Office", "JURIS": "State of Florida", "ADDRESS": "400 W Robinson St", "CITY": "Orlando", "ZIP_CODE": 32801 }, "geometry": { "type": "Point", "coordinates": [ -81.384325330454274, 28.544601026998983 ] } },
{ "type": "Feature", "properties": { "NAME": "Florida DEP Field Office", "JURIS": "State of Florida", "ADDRESS": "5882 S Semoran Bv", "CITY": "Orlando", "ZIP_CODE": 32812 }, "geometry": { "type": "Point", "coordinates": [ -81.3125019637001, 28.477948274019884 ] } },
{ "type": "Feature", "properties": { "NAME": "Specialized Patrol", "JURIS": "County Sheriff", "ADDRESS": "2500 W Colonial Dr", "CITY": "Orlando", "ZIP_CODE": 32804 }, "geometry": { "type": "Point", "coordinates": [ -81.411940234711921, 28.551650643902192 ] } },
{ "type": "Feature", "properties": { "NAME": "Uniform Patrol Division", "JURIS": "County Sheriff", "ADDRESS": "2500 W Colonial Dr", "CITY": "Orlando", "ZIP_CODE": 32804 }, "geometry": { "type": "Point", "coordinates": [ -81.411938724492728, 28.55158994879168 ] } },
{ "type": "Feature", "properties": { "NAME": "Homeland Security", "JURIS": "County Sheriff", "ADDRESS": "2500 W Colonial Dr", "CITY": "Orlando", "ZIP_CODE": 32804 }, "geometry": { "type": "Point", "coordinates": [ -81.411938477929652, 28.551526595781944 ] } },
{ "type": "Feature", "properties": { "NAME": "Criminal Investigation Divisio", "JURIS": "County Sheriff", "ADDRESS": "2500 W Colonial Dr", "CITY": "Orlando", "ZIP_CODE": 32804 }, "geometry": { "type": "Point", "coordinates": [ -81.411938261894662, 28.55147028626379 ] } },
{ "type": "Feature", "properties": { "NAME": "Research and Development", "JURIS": "County Sheriff", "ADDRESS": "2500 W Colonial Dr", "CITY": "Orlando", "ZIP_CODE": 32804 }, "geometry": { "type": "Point", "coordinates": [ -81.411943534256324, 28.551285902162878 ] } },
{ "type": "Feature", "properties": { "NAME": "Community Policing", "JURIS": "County Sheriff", "ADDRESS": "2500 W Colonial Dr", "CITY": "Orlando", "ZIP_CODE": 32804 }, "geometry": { "type": "Point", "coordinates": [ -81.411944841717357, 28.551113620520745 ] } },
{ "type": "Feature", "properties": { "NAME": "Material Control & Supply Sect", "JURIS": "County Sheriff", "ADDRESS": "2500 W Colonial Dr", "CITY": "Orlando", "ZIP_CODE": 32804 }, "geometry": { "type": "Point", "coordinates": [ -81.411947291788081, 28.551059648937972 ] } },
{ "type": "Feature", "properties": { "NAME": "Training Facility", "JURIS": "County Sheriff", "ADDRESS": "2500 W Colonial Dr", "CITY": "Orlando", "ZIP_CODE": 32804 }, "geometry": { "type": "Point", "coordinates": [ -81.411940103124635, 28.551714476614851 ] } },
{ "type": "Feature", "properties": { "NAME": "Information Management Service", "JURIS": "County Sheriff", "ADDRESS": "2500 W Colonial Dr", "CITY": "Orlando", "ZIP_CODE": 32804 }, "geometry": { "type": "Point", "coordinates": [ -81.411949726485815, 28.551003328622855 ] } },
{ "type": "Feature", "properties": { "NAME": "Volunteer Enforcement Unit", "JURIS": "County Sheriff", "ADDRESS": "2500 W Colonial Dr", "CITY": "Orlando", "ZIP_CODE": 32804 }, "geometry": { "type": "Point", "coordinates": [ -81.411944202509915, 28.550949378483558 ] } },
{ "type": "Feature", "properties": { "NAME": "Ocoee Police Department", "JURIS": "Ocoee", "ADDRESS": "175 N Bluford Av", "CITY": "Ocoee", "ZIP_CODE": 34761 }, "geometry": { "type": "Point", "coordinates": [ -81.543514118113677, 28.571624427458385 ] } },
{ "type": "Feature", "properties": { "NAME": "Mounted Patrol Stables", "JURIS": "County Sheriff", "ADDRESS": "2350 E Michigan St", "CITY": "Orlando", "ZIP_CODE": 32806 }, "geometry": { "type": "Point", "coordinates": [ -81.352086516643269, 28.511834198353785 ] } },
{ "type": "Feature", "properties": { "NAME": "Juvenile Justice Center", "JURIS": "State of Florida", "ADDRESS": "2000 E Michigan St", "CITY": "Orlando", "ZIP_CODE": 32806 }, "geometry": { "type": "Point", "coordinates": [ -81.354813692992877, 28.512495918990421 ] } },
{ "type": "Feature", "properties": { "NAME": "DJJ Juvenile Detention Center", "JURIS": "State of Florida", "ADDRESS": "2800 S Bumby Av", "CITY": "Orlando", "ZIP_CODE": 32806 }, "geometry": { "type": "Point", "coordinates": [ -81.35243260924662, 28.510106500476873 ] } },
{ "type": "Feature", "properties": { "NAME": "Sector II (East Orange)", "JURIS": "County Sheriff", "ADDRESS": "10244 E Colonial Dr Suite 205", "CITY": "Orlando", "ZIP_CODE": 32825 }, "geometry": { "type": "Point", "coordinates": [ -81.238658259519596, 28.568676650965976 ] } },
{ "type": "Feature", "properties": { "NAME": "Aviation", "JURIS": "County Sheriff", "ADDRESS": "3534 E Amelia St Bldg 196", "CITY": "Orlando", "ZIP_CODE": 32803 }, "geometry": { "type": "Point", "coordinates": [ -81.340441974879894, 28.55028264134252 ] } },
{ "type": "Feature", "properties": { "NAME": "Sector III (West Orange)", "JURIS": "County Sheriff", "ADDRESS": "475 W Story Rd", "CITY": "Ocoee", "ZIP_CODE": 34761 }, "geometry": { "type": "Point", "coordinates": [ -81.554555528105439, 28.557865522024841 ] } },
{ "type": "Feature", "properties": { "NAME": "University of Central Florida", "JURIS": "UCF", "ADDRESS": "4000 Central Florida Bv Bldg #49", "CITY": "Orlando", "ZIP_CODE": 32826 }, "geometry": { "type": "Point", "coordinates": [ -81.20387331854684, 28.595746053247222 ] } },
{ "type": "Feature", "properties": { "NAME": "INS Orlando Sub Office", "JURIS": "State of Florida", "ADDRESS": "9403 Tradeport Dr", "CITY": "Orlando", "ZIP_CODE": 32827 }, "geometry": { "type": "Point", "coordinates": [ -81.333279812559908, 28.429446547885988 ] } },
{ "type": "Feature", "properties": { "NAME": "Sector V", "JURIS": "County Sheriff", "ADDRESS": "6825 Westwood Bv", "CITY": "Orlando", "ZIP_CODE": 32821 }, "geometry": { "type": "Point", "coordinates": [ -81.472686283962148, 28.412510287283695 ] } },
{ "type": "Feature", "properties": { "NAME": "K-9 Unit", "JURIS": "County Sheriff", "ADDRESS": "8600 Valencia College Ln", "CITY": "Orlando", "ZIP_CODE": 32825 }, "geometry": { "type": "Point", "coordinates": [ -81.268823049826679, 28.550308184008291 ] } },
{ "type": "Feature", "properties": { "NAME": "Fleet Management", "JURIS": "County Sheriff", "ADDRESS": "2200 W Colonial Dr", "CITY": "Orlando", "ZIP_CODE": 32804 }, "geometry": { "type": "Point", "coordinates": [ -81.410083157356453, 28.551966590700825 ] } },
{ "type": "Feature", "properties": { "NAME": "Apopka Police Department", "JURIS": "Apopka", "ADDRESS": "112 E 6TH St", "CITY": "Apopka", "ZIP_CODE": 32703 }, "geometry": { "type": "Point", "coordinates": [ -81.508654592494182, 28.670332347716023 ] } },
{ "type": "Feature", "properties": { "NAME": "Maitland Police Department", "JURIS": "Maitland", "ADDRESS": "1776 Independence Ln", "CITY": "Maitland", "ZIP_CODE": 32751 }, "geometry": { "type": "Point", "coordinates": [ -81.364956251543916, 28.62664130667563 ] } },
{ "type": "Feature", "properties": { "NAME": "Center for Truancy (A.C.T.)", "JURIS": "County Sheriff", "ADDRESS": "832 W Central Bv", "CITY": "Orlando", "ZIP_CODE": 32805 }, "geometry": { "type": "Point", "coordinates": [ -81.391892630783531, 28.541400907077715 ] } },
{ "type": "Feature", "properties": { "NAME": "Marine\/Dive Team Unit", "JURIS": "County Sheriff", "ADDRESS": "475 W Story Rd", "CITY": "Ocoee", "ZIP_CODE": 34761 }, "geometry": { "type": "Point", "coordinates": [ -81.554555528105439, 28.557865522024841 ] } },
{ "type": "Feature", "properties": { "NAME": "L.E.V.O. Facility", "JURIS": "County Sheriff", "ADDRESS": "6350 Wadsworth Rd", "CITY": "Orlando", "ZIP_CODE": 32757 }, "geometry": { "type": "Point", "coordinates": [ -81.616787744007496, 28.767370435394959 ] } },
{ "type": "Feature", "properties": { "NAME": "DUI Center", "JURIS": "County Sheriff", "ADDRESS": "2400 W 33RD St", "CITY": "Orlando", "ZIP_CODE": 32839 }, "geometry": { "type": "Point", "coordinates": [ -81.413936052332332, 28.508293254949269 ] } },
{ "type": "Feature", "properties": { "NAME": "Florida Dept of Corrections", "JURIS": "State of Florida", "ADDRESS": "2301 Meeting Pl", "CITY": "Orlando", "ZIP_CODE": 32814 }, "geometry": { "type": "Point", "coordinates": [ -81.331338984874023, 28.573493427036709 ] } },
{ "type": "Feature", "properties": { "NAME": "Florida DOT & Highway Patrol", "JURIS": "State of Florida", "ADDRESS": "133 S Semoran Bv", "CITY": "Orlando", "ZIP_CODE": 32807 }, "geometry": { "type": "Point", "coordinates": [ -81.309687425648036, 28.543137201859526 ] } },
{ "type": "Feature", "properties": { "NAME": "Sector IV (South West)", "JURIS": "County Sheriff", "ADDRESS": "2400 33RD St", "CITY": "Orlando", "ZIP_CODE": 32839 }, "geometry": { "type": "Point", "coordinates": [ -81.41378051867764, 28.508290557454679 ] } },
{ "type": "Feature", "properties": { "NAME": "Florida Mall", "JURIS": "County Sheriff", "ADDRESS": "8001 S Orange Blossom Tl", "CITY": "Orlando", "ZIP_CODE": 32809 }, "geometry": { "type": "Point", "coordinates": [ -81.395511313908742, 28.442513404879502 ] } },
{ "type": "Feature", "properties": { "NAME": "Winter Garden Police Dept", "JURIS": "Winter Garden", "ADDRESS": "251 W Plant St", "CITY": "Winter Garden", "ZIP_CODE": 34787 }, "geometry": { "type": "Point", "coordinates": [ -81.588387791987117, 28.565748697218662 ] } },
{ "type": "Feature", "properties": { "NAME": "Windermere Police Department", "JURIS": "Windermere", "ADDRESS": "620 Main St", "CITY": "Windermere", "ZIP_CODE": 34786 }, "geometry": { "type": "Point", "coordinates": [ -81.534882650052566, 28.49382718571232 ] } },
{ "type": "Feature", "properties": { "NAME": "Rural Crimes", "JURIS": "County Sheriff", "ADDRESS": "1111 N Rock Springs Rd", "CITY": "Apopka", "ZIP_CODE": 32712 }, "geometry": { "type": "Point", "coordinates": [ -81.507691248190099, 28.699903921899988 ] } },
{ "type": "Feature", "properties": { "NAME": "Eatonville Police Department", "JURIS": "Eatonville", "ADDRESS": "11 People St", "CITY": "Eatonville", "ZIP_CODE": 32751 }, "geometry": { "type": "Point", "coordinates": [ -81.376656702651786, 28.618108449014521 ] } },
{ "type": "Feature", "properties": { "NAME": "Court Security & Section Comma", "JURIS": "County Sheriff", "ADDRESS": "425 N Orange Av", "CITY": "Orlando", "ZIP_CODE": 32801 }, "geometry": { "type": "Point", "coordinates": [ -81.378077412469793, 28.54829617888452 ] } },
{ "type": "Feature", "properties": { "NAME": "Florida's Attorney General", "JURIS": "State of Florida", "ADDRESS": "135 W Central Bv", "CITY": "Orlando", "ZIP_CODE": 32801 }, "geometry": { "type": "Point", "coordinates": [ -81.381580976431636, 28.542472378187874 ] } },
{ "type": "Feature", "properties": { "NAME": "Court Services Division", "JURIS": "County Sheriff", "ADDRESS": "425 N Orange Av", "CITY": "Orlando", "ZIP_CODE": 32801 }, "geometry": { "type": "Point", "coordinates": [ -81.378077412469793, 28.54829617888452 ] } },
{ "type": "Feature", "properties": { "NAME": "Sector I (Apopka)", "JURIS": "County Sheriff", "ADDRESS": "1111 N Rock Springs Rd", "CITY": "Apopka", "ZIP_CODE": 32712 }, "geometry": { "type": "Point", "coordinates": [ -81.507691248190099, 28.699903921899988 ] } },
{ "type": "Feature", "properties": { "NAME": "Childrens Safety Village", "JURIS": "County Sheriff", "ADDRESS": "910 Fairvilla Rd", "CITY": "Orlando", "ZIP_CODE": 32808 }, "geometry": { "type": "Point", "coordinates": [ -81.432045857063159, 28.55591238766544 ] } },
{ "type": "Feature", "properties": { "NAME": "Range", "JURIS": "County Sheriff", "ADDRESS": "14500 Wewahootee Rd", "CITY": "Orlando", "ZIP_CODE": 32832 }, "geometry": { "type": "Point", "coordinates": [ -81.172388193571976, 28.417948384899361 ] } },
{ "type": "Feature", "properties": { "NAME": "Sector VI", "JURIS": "County Sheriff", "ADDRESS": "1920 E Buena Vista Dr", "CITY": "Lake Buena Vista", "ZIP_CODE": 32830 }, "geometry": { "type": "Point", "coordinates": [ -81.518214870791923, 28.378965666181248 ] } },
{ "type": "Feature", "properties": { "NAME": "Communication Center", "JURIS": "County Sheriff", "ADDRESS": "6590 Amory Ct", "CITY": "Winter Park", "ZIP_CODE": 32792 }, "geometry": { "type": "Point", "coordinates": [ -81.302381383554561, 28.594501769333121 ] } },
{ "type": "Feature", "properties": { "NAME": "Orlando Police Department", "JURIS": "Orlando", "ADDRESS": "100 S Hughey Av", "CITY": "Orlando", "ZIP_CODE": 32801 }, "geometry": { "type": "Point", "coordinates": [ -81.383584722066558, 28.541594026899958 ] } },
{ "type": "Feature", "properties": { "NAME": "Civil & Criminal Process Secti", "JURIS": "County Sheriff", "ADDRESS": "425 N Orange Av", "CITY": "Orlando", "ZIP_CODE": 32801 }, "geometry": { "type": "Point", "coordinates": [ -81.378079943708883, 28.548187723439813 ] } },
{ "type": "Feature", "properties": { "NAME": "State Attorney 9th Circuit", "JURIS": "State of Florida", "ADDRESS": "415 Orange Av", "CITY": "Orlando", "ZIP_CODE": 32801 }, "geometry": { "type": "Point", "coordinates": [ -81.378628137206178, 28.547881458921641 ] } },
{ "type": "Feature", "properties": { "NAME": "Oakland Police Department", "JURIS": "Oakland", "ADDRESS": "540 E Oakland Av", "CITY": "Oakland", "ZIP_CODE": 34760 }, "geometry": { "type": "Point", "coordinates": [ -81.620923469949417, 28.554122860729549 ] } },
{ "type": "Feature", "properties": { "NAME": "Winter Park Police Department", "JURIS": "Winter Park", "ADDRESS": "500 N Virginia Av", "CITY": "Winter Park", "ZIP_CODE": 32789 }, "geometry": { "type": "Point", "coordinates": [ -81.354503978836846, 28.601231442252701 ] } },
{ "type": "Feature", "properties": { "NAME": "Edgewood Police Department", "JURIS": "Edgewood", "ADDRESS": "5563 S Orange Av", "CITY": "Edgewood", "ZIP_CODE": 32809 }, "geometry": { "type": "Point", "coordinates": [ -81.371086691321935, 28.478340235443476 ] } }
]
}
