{
"type": "FeatureCollection",
"crs": { "type": "name", "properties": { "name": "urn:ogc:def:crs:OGC:1.3:CRS84" } },
                                                                                
"features": [
{ "type": "Feature", "properties": { "sname": "ITF", "lname": "INTERMODAL TRANSIT F", "lon": -81.010526999999996, "lat": 29.230592000000001, "ptype": "no" }, "geometry": { "type": "Point", "coordinates": [ -81.010527, 29.230592 ] } },
{ "type": "Feature", "properties": { "sname": "A1A&BRAD", "lname": "A1A & BRADDOCK", "lon": -81.003856999999996, "lat": 29.218052, "ptype": "st" }, "geometry": { "type": "Point", "coordinates": [ -81.003857, 29.218052 ] } },
{ "type": "Feature", "properties": { "sname": "A1A&REV", "lname": "A1A& REVILO", "lon": -81.003467999999998, "lat": 29.217320999999998, "ptype": "st" }, "geometry": { "type": "Point", "coordinates": [ -81.003468, 29.217321 ] } },
{ "type": "Feature", "properties": { "sname": "A1A& LEN", "lname": "A1A & LENOX", "lon": -81.002955999999998, "lat": 29.216273000000001, "ptype": "st" }, "geometry": { "type": "Point", "coordinates": [ -81.002956, 29.216273 ] } },
{ "type": "Feature", "properties": { "sname": "A1A&RIB", "lname": "A1A & RIBAULT", "lon": -81.002486000000005, "lat": 29.214763999999999, "ptype": "st" }, "geometry": { "type": "Point", "coordinates": [ -81.002486, 29.214764 ] } },
{ "type": "Feature", "properties": { "sname": "A1A&EAST", "lname": "A1A & EASTWOOD", "lon": -81.002200000000002, "lat": 29.213888000000001, "ptype": "st" }, "geometry": { "type": "Point", "coordinates": [ -81.0022, 29.213888 ] } },
{ "type": "Feature", "properties": { "sname": "SIL&A1A", "lname": "SILVER BEACH & A1A S", "lon": -81.001329999999996, "lat": 29.212135, "ptype": "st" }, "geometry": { "type": "Point", "coordinates": [ -81.00133, 29.212135 ] } },
{ "type": "Feature", "properties": { "sname": "A1A&BOST", "lname": "A1A & BOSTWICK OB", "lon": -81.000397000000007, "lat": 29.210643999999998, "ptype": "st" }, "geometry": { "type": "Point", "coordinates": [ -81.000397, 29.210644 ] } },
{ "type": "Feature", "properties": { "sname": "A1A&TEMP", "lname": "A1A & TEMKO PL OB", "lon": -80.999915999999999, "lat": 29.209578, "ptype": "st" }, "geometry": { "type": "Point", "coordinates": [ -80.999916, 29.209578 ] } },
{ "type": "Feature", "properties": { "sname": "A1A&WIST", "lname": "A1A & WISTERIA OB", "lon": -80.999454999999998, "lat": 29.208756000000001, "ptype": "st" }, "geometry": { "type": "Point", "coordinates": [ -80.999455, 29.208756 ] } },
{ "type": "Feature", "properties": { "sname": "A1A&OLDT", "lname": "A1A & OLD TRAIL RD.", "lon": -80.998717999999997, "lat": 29.207301999999999, "ptype": "st" }, "geometry": { "type": "Point", "coordinates": [ -80.998718, 29.207302 ] } },
{ "type": "Feature", "properties": { "sname": "49 A1A", "lname": "49 A1A", "lon": -81.008640999999997, "lat": 29.227502000000001, "ptype": "st" }, "geometry": { "type": "Point", "coordinates": [ -81.008641, 29.227502 ] } },
{ "type": "Feature", "properties": { "sname": "A1A&OD", "lname": "A1A & OCEAN DUNES OB", "lon": -80.997878999999998, "lat": 29.205278, "ptype": "st" }, "geometry": { "type": "Point", "coordinates": [ -80.997879, 29.205278 ] } },
{ "type": "Feature", "properties": { "sname": "A1A&FLAM", "lname": "A1A & FLAMINGO OB", "lon": -80.997181999999995, "lat": 29.204284000000001, "ptype": "st" }, "geometry": { "type": "Point", "coordinates": [ -80.997182, 29.204284 ] } },
{ "type": "Feature", "properties": { "sname": "A1A&PARK", "lname": "A1A & PARK AVE. OB", "lon": -80.995891999999998, "lat": 29.201682000000002, "ptype": "st" }, "geometry": { "type": "Point", "coordinates": [ -80.995892, 29.201682 ] } },
{ "type": "Feature", "properties": { "sname": "2058 SA", "lname": "2058 SOUTH ATLANTIC", "lon": -80.995012000000003, "lat": 29.199911, "ptype": "st" }, "geometry": { "type": "Point", "coordinates": [ -80.995012, 29.199911 ] } },
{ "type": "Feature", "properties": { "sname": "A1A&BROW", "lname": "A1A & BROWING OB", "lon": -80.994468999999995, "lat": 29.198817999999999, "ptype": "st" }, "geometry": { "type": "Point", "coordinates": [ -80.994469, 29.198818 ] } },
{ "type": "Feature", "properties": { "sname": "2200 SA", "lname": "2200 S. ATLANTIC OB", "lon": -80.993691999999996, "lat": 29.196821, "ptype": "st" }, "geometry": { "type": "Point", "coordinates": [ -80.993692, 29.196821 ] } },
{ "type": "Feature", "properties": { "sname": "A1A&MOOR", "lname": "A1A & MOORE OB", "lon": -80.993066999999996, "lat": 29.195981, "ptype": "st" }, "geometry": { "type": "Point", "coordinates": [ -80.993067, 29.195981 ] } },
{ "type": "Feature", "properties": { "sname": "A1A&BONN", "lname": "A1A & BONNER OB", "lon": -80.992535000000004, "lat": 29.194877999999999, "ptype": "st" }, "geometry": { "type": "Point", "coordinates": [ -80.992535, 29.194878 ] } },
{ "type": "Feature", "properties": { "sname": "A1A&MINE", "lname": "A1A & MINERVA OB", "lon": -80.991102999999995, "lat": 29.191554, "ptype": "st" }, "geometry": { "type": "Point", "coordinates": [ -80.991103, 29.191554 ] } },
{ "type": "Feature", "properties": { "sname": "A1A&HARR", "lname": "A1A & HARRISON OB", "lon": -80.990386000000001, "lat": 29.190567999999999, "ptype": "st" }, "geometry": { "type": "Point", "coordinates": [ -80.990386, 29.190568 ] } },
{ "type": "Feature", "properties": { "sname": "MAIN&A1A", "lname": "MAIN ST. & A1A  SB", "lon": -81.008179999999996, "lat": 29.226527000000001, "ptype": "st" }, "geometry": { "type": "Point", "coordinates": [ -81.00818, 29.226527 ] } },
{ "type": "Feature", "properties": { "sname": "A1A&CHES", "lname": "A1A & CHESHIRE OB", "lon": -80.989519999999999, "lat": 29.188832000000001, "ptype": "st" }, "geometry": { "type": "Point", "coordinates": [ -80.98952, 29.188832 ] } },
{ "type": "Feature", "properties": { "sname": "2520 SA", "lname": "2520 S. ATLANTIC OB", "lon": -80.988563999999997, "lat": 29.186927000000001, "ptype": "st" }, "geometry": { "type": "Point", "coordinates": [ -80.988564, 29.186927 ] } },
{ "type": "Feature", "properties": { "sname": "2566 SA", "lname": "2566 S. ATLANTIC OB", "lon": -80.987540999999993, "lat": 29.184902999999998, "ptype": "st" }, "geometry": { "type": "Point", "coordinates": [ -80.987541, 29.184903 ] } },
{ "type": "Feature", "properties": { "sname": "A1A&FLA", "lname": "A1A & FLORIDA SHORES", "lon": -80.985698999999997, "lat": 29.181432999999998, "ptype": "st" }, "geometry": { "type": "Point", "coordinates": [ -80.985699, 29.181433 ] } },
{ "type": "Feature", "properties": { "sname": "2670 ATL", "lname": "2670 S. ATLANTIC OB", "lon": -80.985196999999999, "lat": 29.180555999999999, "ptype": "st" }, "geometry": { "type": "Point", "coordinates": [ -80.985197, 29.180556 ] } },
{ "type": "Feature", "properties": { "sname": "FR PARK", "lname": "FRANK RENDON BEACH P", "lon": -80.985022999999998, "lat": 29.180222000000001, "ptype": "no" }, "geometry": { "type": "Point", "coordinates": [ -80.985023, 29.180222 ] } },
{ "type": "Feature", "properties": { "sname": "A1A&THAM", "lname": "A1A & THAMES OB", "lon": -80.983272999999997, "lat": 29.176897, "ptype": "st" }, "geometry": { "type": "Point", "coordinates": [ -80.983273, 29.176897 ] } },
{ "type": "Feature", "properties": { "sname": "2929 SA", "lname": "2929 S. ATLANTIC OB", "lon": -80.979977000000005, "lat": 29.171447000000001, "ptype": "st" }, "geometry": { "type": "Point", "coordinates": [ -80.979977, 29.171447 ] } },
{ "type": "Feature", "properties": { "sname": "A1A&BELL", "lname": "A1A & BELLEMEADE OB", "lon": -80.978809999999996, "lat": 29.169205999999999, "ptype": "st" }, "geometry": { "type": "Point", "coordinates": [ -80.97881, 29.169206 ] } },
{ "type": "Feature", "properties": { "sname": "3035 SA", "lname": "3035 S. ATLANTIC OB", "lon": -80.978247999999994, "lat": 29.168085000000001, "ptype": "st" }, "geometry": { "type": "Point", "coordinates": [ -80.978248, 29.168085 ] } },
{ "type": "Feature", "properties": { "sname": "HAR&A1A", "lname": "HARVEY & A1A", "lon": -81.007277999999999, "lat": 29.224702000000001, "ptype": "st" }, "geometry": { "type": "Point", "coordinates": [ -81.007278, 29.224702 ] } },
{ "type": "Feature", "properties": { "sname": "3066 S A", "lname": "3066 S. ATLANTIC OB", "lon": -80.977573000000007, "lat": 29.166685000000001, "ptype": "st" }, "geometry": { "type": "Point", "coordinates": [ -80.977573, 29.166685 ] } },
{ "type": "Feature", "properties": { "sname": "A1A&VAN", "lname": "A1A & VAN AV. OB", "lon": -80.976681999999997, "lat": 29.165284, "ptype": "st" }, "geometry": { "type": "Point", "coordinates": [ -80.976682, 29.165284 ] } },
{ "type": "Feature", "properties": { "sname": "3135 SA", "lname": "3135 S. ATLANTIC OB", "lon": -80.975730999999996, "lat": 29.163620999999999, "ptype": "st" }, "geometry": { "type": "Point", "coordinates": [ -80.975731, 29.163621 ] } },
{ "type": "Feature", "properties": { "sname": "3180 SA", "lname": "3180 S. ATLANTIC OB", "lon": -80.975036000000003, "lat": 29.162002999999999, "ptype": "st" }, "geometry": { "type": "Point", "coordinates": [ -80.975036, 29.162003 ] } },
{ "type": "Feature", "properties": { "sname": "CAS & SA", "lname": "CASCADE TERRACE & S.", "lon": -80.97381, "lat": 29.159559000000002, "ptype": "st" }, "geometry": { "type": "Point", "coordinates": [ -80.97381, 29.159559 ] } },
{ "type": "Feature", "properties": { "sname": "A1A&SIMP", "lname": "A1A & SIMPSON OB", "lon": -80.972140999999993, "lat": 29.156644, "ptype": "st" }, "geometry": { "type": "Point", "coordinates": [ -80.972141, 29.156644 ] } },
{ "type": "Feature", "properties": { "sname": "A1A&SEAW", "lname": "A1A & SEAWAY OB", "lon": -80.969684999999998, "lat": 29.152279, "ptype": "st" }, "geometry": { "type": "Point", "coordinates": [ -80.969685, 29.152279 ] } },
{ "type": "Feature", "properties": { "sname": "A1A&DUNL", "lname": "A1A & DUNLAWTON OB", "lon": -80.969164000000006, "lat": 29.151266, "ptype": "no" }, "geometry": { "type": "Point", "coordinates": [ -80.969164, 29.151266 ] } },
{ "type": "Feature", "properties": { "sname": "DUN&PEN", "lname": "DUNLAWTON & PENINSUL", "lon": -80.971003999999994, "lat": 29.15043, "ptype": "st" }, "geometry": { "type": "Point", "coordinates": [ -80.971004, 29.15043 ] } },
{ "type": "Feature", "properties": { "sname": "DUN&HP", "lname": "DUNLAWTON & HARBOUR", "lon": -80.979956999999999, "lat": 29.146246000000001, "ptype": "st" }, "geometry": { "type": "Point", "coordinates": [ -80.979957, 29.146246 ] } },
{ "type": "Feature", "properties": { "sname": "KEM&A1A", "lname": "KEMP & A1A", "lon": -81.006561000000005, "lat": 29.223319, "ptype": "st" }, "geometry": { "type": "Point", "coordinates": [ -81.006561, 29.223319 ] } },
{ "type": "Feature", "properties": { "sname": "DUNL&1", "lname": "DUNLAWTON & US 1 WB", "lon": -80.988179000000002, "lat": 29.143198000000002, "ptype": "no" }, "geometry": { "type": "Point", "coordinates": [ -80.988179, 29.143198 ] } },
{ "type": "Feature", "properties": { "sname": "ORAN DUN", "lname": "ORANGE AV  DUNLAWTON", "lon": -80.991176999999993, "lat": 29.143383, "ptype": "no" }, "geometry": { "type": "Point", "coordinates": [ -80.991177, 29.143383 ] } },
{ "type": "Feature", "properties": { "sname": "5TH&A1A", "lname": "5TH AV. & A1A", "lon": -81.006213000000002, "lat": 29.222605999999999, "ptype": "st" }, "geometry": { "type": "Point", "coordinates": [ -81.006213, 29.222606 ] } },
{ "type": "Feature", "properties": { "sname": "A1A&ISB", "lname": "A1A & INT'L SPEEDWAY", "lon": -81.005618999999996, "lat": 29.221467000000001, "ptype": "st" }, "geometry": { "type": "Point", "coordinates": [ -81.005619, 29.221467 ] } },
{ "type": "Feature", "properties": { "sname": "A1A&VER", "lname": "A1A & VERMONT", "lon": -81.005065999999999, "lat": 29.220410000000001, "ptype": "st" }, "geometry": { "type": "Point", "coordinates": [ -81.005066, 29.22041 ] } },
{ "type": "Feature", "properties": { "sname": "A1A&GOOD", "lname": "A1A & GOODALL", "lon": -81.004287000000005, "lat": 29.218902, "ptype": "st" }, "geometry": { "type": "Point", "coordinates": [ -81.004287, 29.218902 ] } },
{ "type": "Feature", "properties": { "sname": "SIM&A1A", "lname": "SIMPSON ST. & A1A IB", "lon": -80.972048000000001, "lat": 29.156599, "ptype": "st" }, "geometry": { "type": "Point", "coordinates": [ -80.972048, 29.156599 ] } },
{ "type": "Feature", "properties": { "sname": "CAS&A1A", "lname": "CASCADE TERRACE & A1", "lon": -80.973766999999995, "lat": 29.159527000000001, "ptype": "st" }, "geometry": { "type": "Point", "coordinates": [ -80.973767, 29.159527 ] } },
{ "type": "Feature", "properties": { "sname": "3181 SA", "lname": "3181 S. ATLANTIC IB", "lon": -80.974698000000004, "lat": 29.161235000000001, "ptype": "st" }, "geometry": { "type": "Point", "coordinates": [ -80.974698, 29.161235 ] } },
{ "type": "Feature", "properties": { "sname": "3137 AT", "lname": "3137 S. ATLANTIC IB", "lon": -80.975474000000006, "lat": 29.163309000000002, "ptype": "st" }, "geometry": { "type": "Point", "coordinates": [ -80.975474, 29.163309 ] } },
{ "type": "Feature", "properties": { "sname": "3060 SAT", "lname": "3060 S. ATLANTIC IB", "lon": -80.977571999999995, "lat": 29.166855999999999, "ptype": "st" }, "geometry": { "type": "Point", "coordinates": [ -80.977572, 29.166856 ] } },
{ "type": "Feature", "properties": { "sname": "3033 AT", "lname": "3033 S. ATLANTIC IB", "lon": -80.977941000000001, "lat": 29.167570000000001, "ptype": "st" }, "geometry": { "type": "Point", "coordinates": [ -80.977941, 29.16757 ] } },
{ "type": "Feature", "properties": { "sname": "BEL&A1A", "lname": "BELLEMEAD DR. & A1A", "lon": -80.978820999999996, "lat": 29.169269, "ptype": "st" }, "geometry": { "type": "Point", "coordinates": [ -80.978821, 29.169269 ] } },
{ "type": "Feature", "properties": { "sname": "2947 ATL", "lname": "2947 S. ATLANTIC IB", "lon": -80.979720999999998, "lat": 29.171022000000001, "ptype": "st" }, "geometry": { "type": "Point", "coordinates": [ -80.979721, 29.171022 ] } },
{ "type": "Feature", "properties": { "sname": "THA&A1A", "lname": "THAMES & A1A IB", "lon": -80.983191000000005, "lat": 29.176797000000001, "ptype": "st" }, "geometry": { "type": "Point", "coordinates": [ -80.983191, 29.176797 ] } },
{ "type": "Feature", "properties": { "sname": "2711 SA", "lname": "2711 S. ATLANTIC IB", "lon": -80.984367000000006, "lat": 29.179390000000001, "ptype": "st" }, "geometry": { "type": "Point", "coordinates": [ -80.984367, 29.17939 ] } },
{ "type": "Feature", "properties": { "sname": "1 & HER", "lname": "U.S. 1 & HERBERT IB", "lon": -80.988647999999998, "lat": 29.144959, "ptype": "st" }, "geometry": { "type": "Point", "coordinates": [ -80.988648, 29.144959 ] } },
{ "type": "Feature", "properties": { "sname": "FR RN PK", "lname": "FRANK RENDON BEACH P", "lon": -80.985084000000001, "lat": 29.180447999999998, "ptype": "no" }, "geometry": { "type": "Point", "coordinates": [ -80.985084, 29.180448 ] } },
{ "type": "Feature", "properties": { "sname": "2665 ATL", "lname": "2665 S. ATLANTIC IB", "lon": -80.985349999999997, "lat": 29.180935999999999, "ptype": "st" }, "geometry": { "type": "Point", "coordinates": [ -80.98535, 29.180936 ] } },
{ "type": "Feature", "properties": { "sname": "FLA&A1A", "lname": "FLORIDA SHORES & A1A", "lon": -80.985954000000007, "lat": 29.181939, "ptype": "st" }, "geometry": { "type": "Point", "coordinates": [ -80.985954, 29.181939 ] } },
{ "type": "Feature", "properties": { "sname": "2571 AT", "lname": "2571 S. ATLANTIC IB", "lon": -80.987489999999994, "lat": 29.184867000000001, "ptype": "st" }, "geometry": { "type": "Point", "coordinates": [ -80.98749, 29.184867 ] } },
{ "type": "Feature", "properties": { "sname": "2518 AT", "lname": "2518 S. ATLANTIC IB", "lon": -80.988686999999999, "lat": 29.187242999999999, "ptype": "st" }, "geometry": { "type": "Point", "coordinates": [ -80.988687, 29.187243 ] } },
{ "type": "Feature", "properties": { "sname": "DUNDEE", "lname": "DUNDEE & A1A IB", "lon": -80.989341999999994, "lat": 29.188625999999999, "ptype": "st" }, "geometry": { "type": "Point", "coordinates": [ -80.989342, 29.188626 ] } },
{ "type": "Feature", "properties": { "sname": "CHES&A1A", "lname": "CHESHIRE RD. & A1A I", "lon": -80.989791999999994, "lat": 29.189465999999999, "ptype": "st" }, "geometry": { "type": "Point", "coordinates": [ -80.989792, 29.189466 ] } },
{ "type": "Feature", "properties": { "sname": "MIN&A1A", "lname": "MINERVA RD. & A1A IB", "lon": -80.991122000000004, "lat": 29.192159, "ptype": "st" }, "geometry": { "type": "Point", "coordinates": [ -80.991122, 29.192159 ] } },
{ "type": "Feature", "properties": { "sname": "2225 ATL", "lname": "2225 S. ATLANTIC IB", "lon": -80.992278999999996, "lat": 29.194462999999999, "ptype": "st" }, "geometry": { "type": "Point", "coordinates": [ -80.992279, 29.194463 ] } },
{ "type": "Feature", "properties": { "sname": "MOOR&A1A", "lname": "MOORE AV. & A1A IB", "lon": -80.992985000000004, "lat": 29.195926, "ptype": "st" }, "geometry": { "type": "Point", "coordinates": [ -80.992985, 29.195926 ] } },
{ "type": "Feature", "properties": { "sname": "DUN & 1", "lname": "DUNLAWTON & U.S.1 17", "lon": -80.987142000000006, "lat": 29.143232000000001, "ptype": "no" }, "geometry": { "type": "Point", "coordinates": [ -80.987142, 29.143232 ] } },
{ "type": "Feature", "properties": { "sname": "2155 ATL", "lname": "2155 S. ATLANTIC IB", "lon": -80.993610000000004, "lat": 29.197154999999999, "ptype": "st" }, "geometry": { "type": "Point", "coordinates": [ -80.99361, 29.197155 ] } },
{ "type": "Feature", "properties": { "sname": "BRO&A1A", "lname": "BROWNING AV & A1A IB", "lon": -80.994387000000003, "lat": 29.198709000000001, "ptype": "st" }, "geometry": { "type": "Point", "coordinates": [ -80.994387, 29.198709 ] } },
{ "type": "Feature", "properties": { "sname": "SUN&A1A", "lname": "SUNRISE BLVD. & A1A", "lon": -80.995216999999997, "lat": 29.200381, "ptype": "st" }, "geometry": { "type": "Point", "coordinates": [ -80.995217, 29.200381 ] } },
{ "type": "Feature", "properties": { "sname": "PAR&A1A", "lname": "PARK AV. & A1A IB", "lon": -80.995902000000001, "lat": 29.201789999999999, "ptype": "st" }, "geometry": { "type": "Point", "coordinates": [ -80.995902, 29.20179 ] } },
{ "type": "Feature", "properties": { "sname": "FL & AT", "lname": "FLAMINGO & A1A IB", "lon": -80.997213000000002, "lat": 29.204436999999999, "ptype": "st" }, "geometry": { "type": "Point", "coordinates": [ -80.997213, 29.204437 ] } },
{ "type": "Feature", "properties": { "sname": "ODUN&A1A", "lname": "OCEAN DUNES & A1A IB", "lon": -80.998154999999997, "lat": 29.206308, "ptype": "st" }, "geometry": { "type": "Point", "coordinates": [ -80.998155, 29.206308 ] } },
{ "type": "Feature", "properties": { "sname": "OLTR&A1A", "lname": "OLD TRAIL & A1A IB", "lon": -80.998523000000006, "lat": 29.207211000000001, "ptype": "st" }, "geometry": { "type": "Point", "coordinates": [ -80.998523, 29.207211 ] } },
{ "type": "Feature", "properties": { "sname": "POI&A1A", "lname": "POINSETTA RD. & A1A", "lon": -80.999260000000007, "lat": 29.208485, "ptype": "st" }, "geometry": { "type": "Point", "coordinates": [ -80.99926, 29.208485 ] } },
{ "type": "Feature", "properties": { "sname": "WIS&A1A", "lname": "WISTERIA & A1A IB", "lon": -80.999537000000004, "lat": 29.208991000000001, "ptype": "st" }, "geometry": { "type": "Point", "coordinates": [ -80.999537, 29.208991 ] } },
{ "type": "Feature", "properties": { "sname": "BOST&A1A", "lname": "BOSTWICK & A1A IB", "lon": -81.000591999999997, "lat": 29.211105, "ptype": "st" }, "geometry": { "type": "Point", "coordinates": [ -81.000592, 29.211105 ] } },
{ "type": "Feature", "properties": { "sname": "HA & DUN", "lname": "HALIFAX & DUNLAWTON", "lon": -80.985405, "lat": 29.143644999999999, "ptype": "st" }, "geometry": { "type": "Point", "coordinates": [ -80.985405, 29.143645 ] } },
{ "type": "Feature", "properties": { "sname": "A1A SIL", "lname": "SOUTH ATLANTIC  SILV", "lon": -81.001390999999998, "lat": 29.212325, "ptype": "st" }, "geometry": { "type": "Point", "coordinates": [ -81.001391, 29.212325 ] } },
{ "type": "Feature", "properties": { "sname": "PHOE&A1A", "lname": "PHOENIX & A1A  NB", "lon": -81.002098000000004, "lat": 29.213698000000001, "ptype": "st" }, "geometry": { "type": "Point", "coordinates": [ -81.002098, 29.213698 ] } },
{ "type": "Feature", "properties": { "sname": "EAST&A1A", "lname": "EASTWOOD & A1A", "lon": -81.002210000000005, "lat": 29.214041999999999, "ptype": "st" }, "geometry": { "type": "Point", "coordinates": [ -81.00221, 29.214042 ] } },
{ "type": "Feature", "properties": { "sname": "RIB&A1A", "lname": "RIBAULT & A1A  NB", "lon": -81.002556999999996, "lat": 29.215125, "ptype": "st" }, "geometry": { "type": "Point", "coordinates": [ -81.002557, 29.215125 ] } },
{ "type": "Feature", "properties": { "sname": "LEN&A1A", "lname": "LENOX & A1A NB", "lon": -81.002883999999995, "lat": 29.216182, "ptype": "st" }, "geometry": { "type": "Point", "coordinates": [ -81.002884, 29.216182 ] } },
{ "type": "Feature", "properties": { "sname": "SUNSP&SA", "lname": "SUNSPASH & S. ATLANT", "lon": -81.003150000000005, "lat": 29.216815, "ptype": "st" }, "geometry": { "type": "Point", "coordinates": [ -81.00315, 29.216815 ] } },
{ "type": "Feature", "properties": { "sname": "REV&A1A", "lname": "REVILO & A1A NB", "lon": -81.003559999999993, "lat": 29.217563999999999, "ptype": "st" }, "geometry": { "type": "Point", "coordinates": [ -81.00356, 29.217564 ] } },
{ "type": "Feature", "properties": { "sname": "VER&A1A", "lname": "VERMONT & A1A  NB", "lon": -81.005035000000007, "lat": 29.220419, "ptype": "st" }, "geometry": { "type": "Point", "coordinates": [ -81.005035, 29.220419 ] } },
{ "type": "Feature", "properties": { "sname": "ISB&A1A", "lname": "INT'L SPEEDWAY & A1A", "lon": -81.005792999999997, "lat": 29.221892, "ptype": "st" }, "geometry": { "type": "Point", "coordinates": [ -81.005793, 29.221892 ] } },
{ "type": "Feature", "properties": { "sname": "A1A&KEMP", "lname": "A1A&KEMP  NB", "lon": -81.006961000000004, "lat": 29.224169, "ptype": "st" }, "geometry": { "type": "Point", "coordinates": [ -81.006961, 29.224169 ] } },
{ "type": "Feature", "properties": { "sname": "HAR & DU", "lname": "HARBOUR POINT & DUNL", "lon": -80.979484999999997, "lat": 29.146408000000001, "ptype": "st" }, "geometry": { "type": "Point", "coordinates": [ -80.979485, 29.146408 ] } },
{ "type": "Feature", "properties": { "sname": "A1A&HAR", "lname": "A1A&HARVEY", "lon": -81.007647000000006, "lat": 29.225712999999999, "ptype": "st" }, "geometry": { "type": "Point", "coordinates": [ -81.007647, 29.225713 ] } },
{ "type": "Feature", "properties": { "sname": "A1A&MAIN", "lname": "A1A & MAIN NB", "lon": -81.008270999999993, "lat": 29.226942000000001, "ptype": "st" }, "geometry": { "type": "Point", "coordinates": [ -81.008271, 29.226942 ] } },
{ "type": "Feature", "properties": { "sname": "PEN & DU", "lname": "S. PENINSULA & DUNLA", "lon": -80.971097, "lat": 29.150285, "ptype": "st" }, "geometry": { "type": "Point", "coordinates": [ -80.971097, 29.150285 ] } },
{ "type": "Feature", "properties": { "sname": "DUNL&A1A", "lname": "DUNLAWTON & A1A NB", "lon": -80.969132999999999, "lat": 29.151274999999998, "ptype": "no" }, "geometry": { "type": "Point", "coordinates": [ -80.969133, 29.151275 ] } },
{ "type": "Feature", "properties": { "sname": "SEAW&A1A", "lname": "SEAWAY & A1A IB", "lon": -80.969684999999998, "lat": 29.152369, "ptype": "st" }, "geometry": { "type": "Point", "coordinates": [ -80.969685, 29.152369 ] } },
{ "type": "Feature", "properties": { "sname": "BR&A1A", "lname": "BROAD AV. & A1A IB", "lon": -80.970786000000004, "lat": 29.154484, "ptype": "st" }, "geometry": { "type": "Point", "coordinates": [ -80.970786, 29.154484 ] } },
{ "type": "Feature", "properties": { "sname": "3061 A1A", "lname": "3066 S. ATLANTIC OB", "lon": -80.977603000000002, "lat": 29.166837999999998, "ptype": "st" }, "geometry": { "type": "Point", "coordinates": [ -80.977603, 29.166838 ] } },
{ "type": "Feature", "properties": { "sname": "3138 SA", "lname": "3138 S. ATLANTIC OB", "lon": -80.975403, "lat": 29.163077999999999, "ptype": "st" }, "geometry": { "type": "Point", "coordinates": [ -80.975403, 29.163078 ] } },
{ "type": "Feature", "properties": { "sname": "3178 S A", "lname": "3178 S. ATLANTIC OB", "lon": -80.974329999999995, "lat": 29.160485000000001, "ptype": "st" }, "geometry": { "type": "Point", "coordinates": [ -80.97433, 29.160485 ] } },
{ "type": "Feature", "properties": { "sname": "KEMP&A1A", "lname": "KEMP & A1A IB", "lon": -81.006602999999998, "lat": 29.223237999999998, "ptype": "st" }, "geometry": { "type": "Point", "coordinates": [ -81.006603, 29.223238 ] } },
{ "type": "Feature", "properties": { "sname": "DUN&HALI", "lname": "DUNLAWTON & HALIFAX", "lon": -80.985271999999995, "lat": 29.143761999999999, "ptype": "st" }, "geometry": { "type": "Point", "coordinates": [ -80.985272, 29.143762 ] } }
]
}
