{
"type": "FeatureCollection",
"crs": { "type": "name", "properties": { "name": "urn:ogc:def:crs:OGC:1.3:CRS84" } },
                                                                                
"features": [
{ "type": "Feature", "properties": { "sname": "DP LAKES", "lname": "DUPONT LAKES", "lon": -81.189526999999998, "lat": 28.924516000000001, "ptype": "no" }, "geometry": { "type": "Point", "coordinates": [ -81.189527, 28.924516 ] } },
{ "type": "Feature", "properties": { "sname": "DEL C H", "lname": "DELTONA CITY HALL", "lon": -81.223410000000001, "lat": 28.928682999999999, "ptype": "no" }, "geometry": { "type": "Point", "coordinates": [ -81.22341, 28.928683 ] } },
{ "type": "Feature", "properties": { "sname": "SAX P&R", "lname": "SAXON AT PARK & RIDE", "lon": -81.275261999999998, "lat": 28.911128000000001, "ptype": "no" }, "geometry": { "type": "Point", "coordinates": [ -81.275262, 28.911128 ] } },
{ "type": "Feature", "properties": { "sname": "KOHL'S", "lname": "KOHLS ORANGE CITY IB", "lon": -81.284794000000005, "lat": 28.916574000000001, "ptype": "no" }, "geometry": { "type": "Point", "coordinates": [ -81.284794, 28.916574 ] } },
{ "type": "Feature", "properties": { "sname": "SAXON MP", "lname": "SAXON AT MARKET PLAC", "lon": -81.294740000000004, "lat": 28.911593, "ptype": "no" }, "geometry": { "type": "Point", "coordinates": [ -81.29474, 28.911593 ] } },
{ "type": "Feature", "properties": { "sname": "SUNRAIL", "lname": "DEBARY SUNRAIL STATI", "lon": -81.323004999999995, "lat": 28.856335999999999, "ptype": "no" }, "geometry": { "type": "Point", "coordinates": [ -81.323005, 28.856336 ] } }
]
}
