{
"type": "FeatureCollection",
"crs": { "type": "name", "properties": { "name": "urn:ogc:def:crs:OGC:1.3:CRS84" } },
                                                                                
"features": [
{ "type": "Feature", "properties": { "sname": "MKT PL", "lname": "MARKET PLACE  BUS LO", "lon": -81.293643000000003, "lat": 28.911024999999999, "ptype": "no" }, "geometry": { "type": "Point", "coordinates": [ -81.293643, 28.911025 ] } },
{ "type": "Feature", "properties": { "sname": "VOL RHI", "lname": "VOLUSIA  RHODE ISLAN", "lon": -81.298833999999999, "lat": 28.934498999999999, "ptype": "no" }, "geometry": { "type": "Point", "coordinates": [ -81.298834, 28.934499 ] } },
{ "type": "Feature", "properties": { "sname": "VOL&INDU", "lname": "VOLUSIA & S. INDUSTR", "lon": -81.298896999999997, "lat": 28.934987, "ptype": "st" }, "geometry": { "type": "Point", "coordinates": [ -81.298897, 28.934987 ] } },
{ "type": "Feature", "properties": { "sname": "VOL OHIO", "lname": "VOLUSIA  OHIO  NB", "lon": -81.298863999999995, "lat": 28.939685000000001, "ptype": "st" }, "geometry": { "type": "Point", "coordinates": [ -81.298864, 28.939685 ] } },
{ "type": "Feature", "properties": { "sname": "VOL&BLSP", "lname": "VOLUSIA & BLUE SPRIN", "lon": -81.298850000000002, "lat": 28.943687000000001, "ptype": "st" }, "geometry": { "type": "Point", "coordinates": [ -81.29885, 28.943687 ] } },
{ "type": "Feature", "properties": { "sname": "VOL&BANA", "lname": "VOLUSIA & BANANA NB", "lon": -81.298852999999994, "lat": 28.945530000000002, "ptype": "st" }, "geometry": { "type": "Point", "coordinates": [ -81.298853, 28.94553 ] } },
{ "type": "Feature", "properties": { "sname": "VOL&CHER", "lname": "VOLUSIA & CHEROKEE N", "lon": -81.298857999999996, "lat": 28.947977999999999, "ptype": "st" }, "geometry": { "type": "Point", "coordinates": [ -81.298858, 28.947978 ] } },
{ "type": "Feature", "properties": { "sname": "VOL GRAV", "lname": "VOLUSIA GRAVES NB", "lon": -81.298747000000006, "lat": 28.949052999999999, "ptype": "st" }, "geometry": { "type": "Point", "coordinates": [ -81.298747, 28.949053 ] } },
{ "type": "Feature", "properties": { "sname": "VOL FREN", "lname": "VOLUSIA   FRENCH NB", "lon": -81.298824999999994, "lat": 28.952721, "ptype": "no" }, "geometry": { "type": "Point", "coordinates": [ -81.298825, 28.952721 ] } },
{ "type": "Feature", "properties": { "sname": "VOL&LEE", "lname": "VOLUSIA & LEE AV.", "lon": -81.298811999999998, "lat": 28.957003, "ptype": "st" }, "geometry": { "type": "Point", "coordinates": [ -81.298812, 28.957003 ] } },
{ "type": "Feature", "properties": { "sname": "VOL&WIS", "lname": "VOLUSIA & WISCONSIN", "lon": -81.298805999999999, "lat": 28.959848999999998, "ptype": "st" }, "geometry": { "type": "Point", "coordinates": [ -81.298806, 28.959849 ] } },
{ "type": "Feature", "properties": { "sname": "ENT&SAX", "lname": "ENTERPRISE & SAXON N", "lon": -81.292489000000003, "lat": 28.912769999999998, "ptype": "st" }, "geometry": { "type": "Point", "coordinates": [ -81.292489, 28.91277 ] } },
{ "type": "Feature", "properties": { "sname": "VOL&ST.L", "lname": "VOLUSIA & ST. LAWREN", "lon": -81.29862, "lat": 28.964827, "ptype": "st" }, "geometry": { "type": "Point", "coordinates": [ -81.29862, 28.964827 ] } },
{ "type": "Feature", "properties": { "sname": "VOL&SHER", "lname": "VOLUSIA & SHERMAN ST", "lon": -81.298759000000004, "lat": 28.968312999999998, "ptype": "st" }, "geometry": { "type": "Point", "coordinates": [ -81.298759, 28.968313 ] } },
{ "type": "Feature", "properties": { "sname": "WOOD&FIR", "lname": "WOODLAND & FIREHOUSE", "lon": -81.299272999999999, "lat": 28.980868999999998, "ptype": "st" }, "geometry": { "type": "Point", "coordinates": [ -81.299273, 28.980869 ] } },
{ "type": "Feature", "properties": { "sname": "WVSC", "lname": "WEST VOLUSIA SHOPPIN", "lon": -81.299368000000001, "lat": 28.982631000000001, "ptype": "st" }, "geometry": { "type": "Point", "coordinates": [ -81.299368, 28.982631 ] } },
{ "type": "Feature", "properties": { "sname": "WOO&ORAN", "lname": "WOODLAND & ORANGE CA", "lon": -81.299610000000001, "lat": 28.986027, "ptype": "no" }, "geometry": { "type": "Point", "coordinates": [ -81.29961, 28.986027 ] } },
{ "type": "Feature", "properties": { "sname": "2180 WOO", "lname": "2180 WOODLAND AVE. N", "lon": -81.301019999999994, "lat": 28.989557000000001, "ptype": "st" }, "geometry": { "type": "Point", "coordinates": [ -81.30102, 28.989557 ] } },
{ "type": "Feature", "properties": { "sname": "WOO&DEER", "lname": "WOODLAND & DEERFOOT", "lon": -81.301987999999994, "lat": 28.991823, "ptype": "st" }, "geometry": { "type": "Point", "coordinates": [ -81.301988, 28.991823 ] } },
{ "type": "Feature", "properties": { "sname": "WOO&DODG", "lname": "WOODLAND & DODGE AV.", "lon": -81.302374, "lat": 28.995823999999999, "ptype": "st" }, "geometry": { "type": "Point", "coordinates": [ -81.302374, 28.995824 ] } },
{ "type": "Feature", "properties": { "sname": "WOOD TAY", "lname": "WOODLAND  TAYLOR NB", "lon": -81.302412000000004, "lat": 28.999663000000002, "ptype": "st" }, "geometry": { "type": "Point", "coordinates": [ -81.302412, 28.999663 ] } },
{ "type": "Feature", "properties": { "sname": "WOO&CHIP", "lname": "WOODLAND & CHIPOLA N", "lon": -81.302549999999997, "lat": 29.002400000000002, "ptype": "st" }, "geometry": { "type": "Point", "coordinates": [ -81.30255, 29.0024 ] } },
{ "type": "Feature", "properties": { "sname": "TAR OC", "lname": "TARGET ORANGE CITY", "lon": -81.293659000000005, "lat": 28.914594000000001, "ptype": "st" }, "geometry": { "type": "Point", "coordinates": [ -81.293659, 28.914594 ] } },
{ "type": "Feature", "properties": { "sname": "WOO&AND", "lname": "WOODLAND & ANDOVER N", "lon": -81.302615000000003, "lat": 29.004676, "ptype": "st" }, "geometry": { "type": "Point", "coordinates": [ -81.302615, 29.004676 ] } },
{ "type": "Feature", "properties": { "sname": "WOOD NH", "lname": "WOODLAND  NEW HAMPSH", "lon": -81.302649000000002, "lat": 29.006591, "ptype": "st" }, "geometry": { "type": "Point", "coordinates": [ -81.302649, 29.006591 ] } },
{ "type": "Feature", "properties": { "sname": "WOO&VER", "lname": "WOODLAND & VERMONT N", "lon": -81.302693000000005, "lat": 29.008369999999999, "ptype": "st" }, "geometry": { "type": "Point", "coordinates": [ -81.302693, 29.00837 ] } },
{ "type": "Feature", "properties": { "sname": "WOO&OAK", "lname": "WOODLAND & OAK NB", "lon": -81.302739000000003, "lat": 29.010736999999999, "ptype": "st" }, "geometry": { "type": "Point", "coordinates": [ -81.302739, 29.010737 ] } },
{ "type": "Feature", "properties": { "sname": "WOO&VOLU", "lname": "WOODLAND & VOLUSIA N", "lon": -81.302994999999996, "lat": 29.016355000000001, "ptype": "st" }, "geometry": { "type": "Point", "coordinates": [ -81.302995, 29.016355 ] } },
{ "type": "Feature", "properties": { "sname": "WOO&WINN", "lname": "WOODLAND & WINNEMISS", "lon": -81.303027999999998, "lat": 29.017872000000001, "ptype": "st" }, "geometry": { "type": "Point", "coordinates": [ -81.303028, 29.017872 ] } },
{ "type": "Feature", "properties": { "sname": "D ITF", "lname": "DELAND INTERMODAL TR", "lon": -81.302072999999993, "lat": 29.022632999999999, "ptype": "no" }, "geometry": { "type": "Point", "coordinates": [ -81.302073, 29.022633 ] } },
{ "type": "Feature", "properties": { "sname": "HOW BRIN", "lname": "E. HOWRY  BRINKLEY E", "lon": -81.300053000000005, "lat": 29.026264000000001, "ptype": "st" }, "geometry": { "type": "Point", "coordinates": [ -81.300053, 29.026264 ] } },
{ "type": "Feature", "properties": { "sname": "AMEL HOW", "lname": "AMELIA  HOWRY EB", "lon": -81.299014999999997, "lat": 29.027153999999999, "ptype": "st" }, "geometry": { "type": "Point", "coordinates": [ -81.299015, 29.027154 ] } },
{ "type": "Feature", "properties": { "sname": "AME NEW", "lname": "AMELIA . NEW YORK AV", "lon": -81.299220000000005, "lat": 29.029095000000002, "ptype": "st" }, "geometry": { "type": "Point", "coordinates": [ -81.29922, 29.029095 ] } },
{ "type": "Feature", "properties": { "sname": "ENT&HSTR", "lname": "ENTERPRISE & HARLEY", "lon": -81.295088000000007, "lat": 28.917346999999999, "ptype": "st" }, "geometry": { "type": "Point", "coordinates": [ -81.295088, 28.917347 ] } },
{ "type": "Feature", "properties": { "sname": "RICH&ALA", "lname": "RICH & ALABAMA OB", "lon": -81.300301000000005, "lat": 29.030042000000002, "ptype": "st" }, "geometry": { "type": "Point", "coordinates": [ -81.300301, 29.030042 ] } },
{ "type": "Feature", "properties": { "sname": "10THST&1", "lname": "10TH STREET &  US 1", "lon": -81.039899000000005, "lat": 29.242481000000002, "ptype": "st" }, "geometry": { "type": "Point", "coordinates": [ -81.039899, 29.242481 ] } },
{ "type": "Feature", "properties": { "sname": "TCK", "lname": "THOMAS C. KELLY ADMI", "lon": -81.304393000000005, "lat": 29.029992, "ptype": "no" }, "geometry": { "type": "Point", "coordinates": [ -81.304393, 29.029992 ] } },
{ "type": "Feature", "properties": { "sname": "WIS WOO", "lname": "WISCONSIN  WOODLAND", "lon": -81.304323999999994, "lat": 29.031735000000001, "ptype": "st" }, "geometry": { "type": "Point", "coordinates": [ -81.304324, 29.031735 ] } },
{ "type": "Feature", "properties": { "sname": "WOO WISC", "lname": "WOODLAND  WISCONSIN", "lon": -81.303371999999996, "lat": 29.032260000000001, "ptype": "st" }, "geometry": { "type": "Point", "coordinates": [ -81.303372, 29.03226 ] } },
{ "type": "Feature", "properties": { "sname": "WOO MINN", "lname": "WOODLAND  MINNESOTA", "lon": -81.303579999999997, "lat": 29.036079000000001, "ptype": "st" }, "geometry": { "type": "Point", "coordinates": [ -81.30358, 29.036079 ] } },
{ "type": "Feature", "properties": { "sname": "STETSON", "lname": "STETSON UNIVERSITY E", "lon": -81.303676999999993, "lat": 29.038267000000001, "ptype": "st" }, "geometry": { "type": "Point", "coordinates": [ -81.303677, 29.038267 ] } },
{ "type": "Feature", "properties": { "sname": "WOOOAKD", "lname": "WOODLAND OAKDALE EB", "lon": -81.303786000000002, "lat": 29.040659000000002, "ptype": "st" }, "geometry": { "type": "Point", "coordinates": [ -81.303786, 29.040659 ] } },
{ "type": "Feature", "properties": { "sname": "WOOD PLY", "lname": "WOODLAND  PLYMOUTH E", "lon": -81.304477000000006, "lat": 29.042771999999999, "ptype": "st" }, "geometry": { "type": "Point", "coordinates": [ -81.304477, 29.042772 ] } },
{ "type": "Feature", "properties": { "sname": "PLY&ORAN", "lname": "PLYMOUTH & N. ORANGE", "lon": -81.314763999999997, "lat": 29.042694000000001, "ptype": "st" }, "geometry": { "type": "Point", "coordinates": [ -81.314764, 29.042694 ] } },
{ "type": "Feature", "properties": { "sname": "D FL HOS", "lname": "DELAND FLORIDA HOSPI", "lon": -81.316907999999998, "lat": 29.042681999999999, "ptype": "no" }, "geometry": { "type": "Point", "coordinates": [ -81.316908, 29.042682 ] } },
{ "type": "Feature", "properties": { "sname": "OCVILLAS", "lname": "ENTERPRISE & ORANGE", "lon": -81.295365000000004, "lat": 28.917735, "ptype": "st" }, "geometry": { "type": "Point", "coordinates": [ -81.295365, 28.917735 ] } },
{ "type": "Feature", "properties": { "sname": "ISB 15A", "lname": "INTL SPEEDWAY  15A W", "lon": -81.323614000000006, "lat": 29.056986999999999, "ptype": "no" }, "geometry": { "type": "Point", "coordinates": [ -81.323614, 29.056987 ] } },
{ "type": "Feature", "properties": { "sname": "STON ISB", "lname": "STONE  INT'L SPEEDWA", "lon": -81.316038000000006, "lat": 29.054433, "ptype": "st" }, "geometry": { "type": "Point", "coordinates": [ -81.316038, 29.054433 ] } },
{ "type": "Feature", "properties": { "sname": "WOO ISB", "lname": "WOODLAND  INTL SPEED", "lon": -81.305708999999993, "lat": 29.054583999999998, "ptype": "st" }, "geometry": { "type": "Point", "coordinates": [ -81.305709, 29.054584 ] } },
{ "type": "Feature", "properties": { "sname": "17-92&92", "lname": "US 17-92 & US 92 NB", "lon": -81.304152000000002, "lat": 29.055949999999999, "ptype": "no" }, "geometry": { "type": "Point", "coordinates": [ -81.304152, 29.05595 ] } },
{ "type": "Feature", "properties": { "sname": "WALM DEL", "lname": "WALMART DELAND", "lon": -81.304398000000006, "lat": 29.061703000000001, "ptype": "no" }, "geometry": { "type": "Point", "coordinates": [ -81.304398, 29.061703 ] } },
{ "type": "Feature", "properties": { "sname": "ENT&TREE", "lname": "ENTERPRISE & TREEMON", "lon": -81.296082999999996, "lat": 28.918882, "ptype": "st" }, "geometry": { "type": "Point", "coordinates": [ -81.296083, 28.918882 ] } },
{ "type": "Feature", "properties": { "sname": "VOL&ROB", "lname": "VOLUSIA & E. ROBERTS", "lon": -81.298992999999996, "lat": 28.925554999999999, "ptype": "st" }, "geometry": { "type": "Point", "coordinates": [ -81.298993, 28.925555 ] } },
{ "type": "Feature", "properties": { "sname": "VOL&GAR", "lname": "VOLUSIA & GARDENIA D", "lon": -81.298917000000003, "lat": 28.92859, "ptype": "st" }, "geometry": { "type": "Point", "coordinates": [ -81.298917, 28.92859 ] } },
{ "type": "Feature", "properties": { "sname": "VOL&STRA", "lname": "VOLUSIA & STRAWBERRY", "lon": -81.298912000000001, "lat": 28.931716000000002, "ptype": "st" }, "geometry": { "type": "Point", "coordinates": [ -81.298912, 28.931716 ] } }
]
}
