{
"type": "FeatureCollection",
"crs": { "type": "name", "properties": { "name": "urn:ogc:def:crs:OGC:1.3:CRS84" } },
                                                                                
"features": [
{ "type": "Feature", "properties": { "Name": "Eustis FD 22", "Owner": "City", "Status": "Existing", "StaffType": "Staffed", "LifeSuppor": "BLS", "StreetNumb": "100", "PrefixDire": "W", "PrefixType": null, "StreetName": "Norton", "SuffixType": "AV", "SuffixDire": null, "Building": null, "UnitType": null, "UnitNumber": "<Null>", "City": "Eustis", "ZIPCode": "32726", "PhoneNumbe": "352-357-6585", "ElectricPr": "Progress Energy", "StationTyp": "City" }, "geometry": { "type": "Point", "coordinates": [ -81.68674868144511, 28.845307786425298 ] } },
{ "type": "Feature", "properties": { "Name": "Leesburg FD 61", "Owner": "City", "Status": "Existing", "StaffType": "Staffed", "LifeSuppor": "ALS", "StreetNumb": "201", "PrefixDire": "S", "PrefixType": null, "StreetName": "Canal", "SuffixType": "ST", "SuffixDire": null, "Building": null, "UnitType": null, "UnitNumber": "<Null>", "City": "Leesburg", "ZIPCode": "34788", "PhoneNumbe": "352-728-9780", "ElectricPr": null, "StationTyp": "City" }, "geometry": { "type": "Point", "coordinates": [ -81.87386376027554, 28.809956185273816 ] } },
{ "type": "Feature", "properties": { "Name": "Leesburg FD 62", "Owner": "City", "Status": "Existing", "StaffType": "Staffed", "LifeSuppor": "ALS", "StreetNumb": "2014", "PrefixDire": "W", "PrefixType": null, "StreetName": "Griffin", "SuffixType": "RD", "SuffixDire": null, "Building": null, "UnitType": null, "UnitNumber": "<Null>", "City": "Leesburg", "ZIPCode": "34788", "PhoneNumbe": "352-728-9780", "ElectricPr": "Leesburg Electric", "StationTyp": "City" }, "geometry": { "type": "Point", "coordinates": [ -81.89530516601873, 28.828953098285151 ] } },
{ "type": "Feature", "properties": { "Name": "Montverde FD 85", "Owner": "City", "Status": "Existing", "StaffType": "Staffed", "LifeSuppor": "BLS", "StreetNumb": "17105", "PrefixDire": null, "PrefixType": null, "StreetName": "Porter", "SuffixType": "ST", "SuffixDire": null, "Building": null, "UnitType": null, "UnitNumber": "<Null>", "City": "Montverde", "ZIPCode": "34756", "PhoneNumbe": "407-469-3466", "ElectricPr": "Progress Energy", "StationTyp": "City Volunteer" }, "geometry": { "type": "Point", "coordinates": [ -81.67178440982002, 28.599343322502943 ] } },
{ "type": "Feature", "properties": { "Name": "Fruitland Park FD 56", "Owner": "City", "Status": "Existing", "StaffType": "Staffed", "LifeSuppor": "BLS", "StreetNumb": "506", "PrefixDire": "W", "PrefixType": null, "StreetName": "Berckman", "SuffixType": "ST", "SuffixDire": null, "Building": null, "UnitType": null, "UnitNumber": "<Null>", "City": "Fruitland Park", "ZIPCode": "34731", "PhoneNumbe": "352-360-6727", "ElectricPr": "Leesburg Electric", "StationTyp": "City Volunteer" }, "geometry": { "type": "Point", "coordinates": [ -81.912796969989202, 28.858746557054562 ] } },
{ "type": "Feature", "properties": { "Name": "Minneola FD 87", "Owner": "City", "Status": "Existing", "StaffType": "Staffed", "LifeSuppor": "ALS", "StreetNumb": "811", "PrefixDire": "S", "PrefixType": null, "StreetName": "Galena", "SuffixType": "AV", "SuffixDire": null, "Building": null, "UnitType": null, "UnitNumber": "<Null>", "City": "Minneola", "ZIPCode": "34755", "PhoneNumbe": "352-394-6811", "ElectricPr": null, "StationTyp": "City" }, "geometry": { "type": "Point", "coordinates": [ -81.748172580915792, 28.570577271778728 ] } },
{ "type": "Feature", "properties": { "Name": "Mascotte FD 91", "Owner": "City", "Status": "Existing", "StaffType": "Staffed", "LifeSuppor": "ALS", "StreetNumb": "529", "PrefixDire": "E", "PrefixType": null, "StreetName": "East Myers", "SuffixType": "BV", "SuffixDire": null, "Building": null, "UnitType": null, "UnitNumber": "<Null>", "City": "Mascotte", "ZIPCode": "34753", "PhoneNumbe": "352-429-4766", "ElectricPr": "Progress Energy", "StationTyp": "City" }, "geometry": { "type": "Point", "coordinates": [ -81.881063259486353, 28.573113787240811 ] } },
{ "type": "Feature", "properties": { "Name": "Groveland FD 95", "Owner": "City", "Status": "Existing", "StaffType": "Staffed", "LifeSuppor": "ALS", "StreetNumb": "408", "PrefixDire": "W", "PrefixType": null, "StreetName": "Orange", "SuffixType": "ST", "SuffixDire": null, "Building": null, "UnitType": null, "UnitNumber": "<Null>", "City": "Groveland", "ZIPCode": "34736", "PhoneNumbe": "352-429-1209", "ElectricPr": "Progress Energy", "StationTyp": "City" }, "geometry": { "type": "Point", "coordinates": [ -81.859601857142692, 28.56150125605631 ] } },
{ "type": "Feature", "properties": { "Name": "Groveland FD 94", "Owner": "City", "Status": "Existing", "StaffType": "Staffed", "LifeSuppor": "ALS", "StreetNumb": "193", "PrefixDire": null, "PrefixType": null, "StreetName": "Cherry Valley", "SuffixType": "TL", "SuffixDire": null, "Building": null, "UnitType": null, "UnitNumber": "<Null>", "City": "Groveland", "ZIPCode": null, "PhoneNumbe": "352-429-1209", "ElectricPr": null, "StationTyp": "City" }, "geometry": { "type": "Point", "coordinates": [ -81.798094535904738, 28.600355083036824 ] } },
{ "type": "Feature", "properties": { "Name": "LCFR 39", "Owner": "County", "Status": "Existing", "StaffType": "Staffed", "LifeSuppor": "ALS", "StreetNumb": "31431", "PrefixDire": null, "PrefixType": null, "StreetName": "Walton Heath", "SuffixType": "AV", "SuffixDire": null, "Building": null, "UnitType": null, "UnitNumber": "<Null>", "City": "Sorrento", "ZIPCode": "32776", "PhoneNumbe": "352-343-9458", "ElectricPr": null, "StationTyp": "County" }, "geometry": { "type": "Point", "coordinates": [ -81.536209042764568, 28.807456344044969 ] } },
{ "type": "Feature", "properties": { "Name": "LCFR 14", "Owner": "County", "Status": "Existing", "StaffType": "Staffed", "LifeSuppor": "ALS", "StreetNumb": "42700", "PrefixDire": null, "PrefixType": null, "StreetName": "SR 19", "SuffixType": null, "SuffixDire": null, "Building": null, "UnitType": null, "UnitNumber": "<Null>", "City": "Altoona", "ZIPCode": "32702", "PhoneNumbe": "352-343-9458", "ElectricPr": null, "StationTyp": "County" }, "geometry": { "type": "Point", "coordinates": [ -81.64672686003945, 28.970446929175157 ] } },
{ "type": "Feature", "properties": { "Name": "LCFR 19\/BC 20", "Owner": "County", "Status": "Existing", "StaffType": "Bat20", "LifeSuppor": "None", "StreetNumb": "38205", "PrefixDire": null, "PrefixType": null, "StreetName": "SR 19", "SuffixType": "ST", "SuffixDire": null, "Building": null, "UnitType": null, "UnitNumber": "<Null>", "City": "Umatilla", "ZIPCode": "32784", "PhoneNumbe": "352-343-9458", "ElectricPr": null, "StationTyp": "County Support" }, "geometry": { "type": "Point", "coordinates": [ -81.673217390748093, 28.913985533423443 ] } },
{ "type": "Feature", "properties": { "Name": "LCFR 21", "Owner": "County", "Status": "Existing", "StaffType": "Staffed", "LifeSuppor": "ALS", "StreetNumb": "25100", "PrefixDire": null, "PrefixType": null, "StreetName": "CR 44A", "SuffixType": null, "SuffixDire": null, "Building": null, "UnitType": null, "UnitNumber": "<Null>", "City": "Eustis", "ZIPCode": "32726", "PhoneNumbe": "352-343-9458", "ElectricPr": null, "StationTyp": "County" }, "geometry": { "type": "Point", "coordinates": [ -81.540976695539413, 28.876392259992869 ] } },
{ "type": "Feature", "properties": { "Name": "LCFR 13", "Owner": "County", "Status": "Existing", "StaffType": "Staffed", "LifeSuppor": "ALS", "StreetNumb": "25250", "PrefixDire": null, "PrefixType": null, "StreetName": "CR 42", "SuffixType": null, "SuffixDire": null, "Building": null, "UnitType": null, "UnitNumber": "<Null>", "City": "Paisley", "ZIPCode": "32767", "PhoneNumbe": "352-343-9458", "ElectricPr": null, "StationTyp": "County" }, "geometry": { "type": "Point", "coordinates": [ -81.537493597080044, 28.996746962841723 ] } },
{ "type": "Feature", "properties": { "Name": "LCFR 15", "Owner": "County", "Status": "Existing", "StaffType": "Staffed", "LifeSuppor": "ALS", "StreetNumb": "40601", "PrefixDire": null, "PrefixType": null, "StreetName": "Palm", "SuffixType": "DR", "SuffixDire": null, "Building": null, "UnitType": null, "UnitNumber": "<Null>", "City": "Eustis", "ZIPCode": "32726", "PhoneNumbe": "352-343-9458", "ElectricPr": null, "StationTyp": "County" }, "geometry": { "type": "Point", "coordinates": [ -81.430494468931428, 28.939440788054931 ] } },
{ "type": "Feature", "properties": { "Name": "LCFR 27", "Owner": "County", "Status": "Existing", "StaffType": "Staffed", "LifeSuppor": "ALS", "StreetNumb": "19212", "PrefixDire": null, "PrefixType": null, "StreetName": "SR 44", "SuffixType": null, "SuffixDire": null, "Building": null, "UnitType": null, "UnitNumber": "<Null>", "City": "Eustis", "ZIPCode": "32726", "PhoneNumbe": "352-343-9458", "ElectricPr": null, "StationTyp": "County" }, "geometry": { "type": "Point", "coordinates": [ -81.633269677731278, 28.847397485697115 ] } },
{ "type": "Feature", "properties": { "Name": "LCFR 109", "Owner": "County", "Status": "Existing", "StaffType": "Staffed", "LifeSuppor": "ALS", "StreetNumb": "11630", "PrefixDire": null, "PrefixType": null, "StreetName": "Lakeshore", "SuffixType": "DR", "SuffixDire": null, "Building": null, "UnitType": null, "UnitNumber": "<Null>", "City": "Clermont", "ZIPCode": "34711", "PhoneNumbe": "352-343-9458", "ElectricPr": null, "StationTyp": "County" }, "geometry": { "type": "Point", "coordinates": [ -81.762932817598582, 28.516011061115474 ] } },
{ "type": "Feature", "properties": { "Name": "LCFR 110", "Owner": "County", "Status": "Existing", "StaffType": "Staffed", "LifeSuppor": "BLS", "StreetNumb": "6234", "PrefixDire": null, "PrefixType": null, "StreetName": "CR 561", "SuffixType": null, "SuffixDire": null, "Building": null, "UnitType": null, "UnitNumber": "<Null>", "City": "Clermont", "ZIPCode": "34711", "PhoneNumbe": "352-343-9458", "ElectricPr": null, "StationTyp": "County" }, "geometry": { "type": "Point", "coordinates": [ -81.802275509804389, 28.438001782937196 ] } },
{ "type": "Feature", "properties": { "Name": "LCFR 77", "Owner": "County", "Status": "Existing", "StaffType": "Staffed", "LifeSuppor": "BLS", "StreetNumb": "13431", "PrefixDire": null, "PrefixType": null, "StreetName": "Ohio", "SuffixType": "ST", "SuffixDire": null, "Building": null, "UnitType": null, "UnitNumber": "<Null>", "City": "Astatula", "ZIPCode": "34705", "PhoneNumbe": "352-343-9458", "ElectricPr": "Sumter Electric Cooperative", "StationTyp": "County" }, "geometry": { "type": "Point", "coordinates": [ -81.733813701591743, 28.709587246110413 ] } },
{ "type": "Feature", "properties": { "Name": "LCFR 76", "Owner": "County", "Status": "Existing", "StaffType": "Staffed", "LifeSuppor": "ALS", "StreetNumb": "8819", "PrefixDire": null, "PrefixType": null, "StreetName": "SR 48", "SuffixType": null, "SuffixDire": null, "Building": null, "UnitType": null, "UnitNumber": "<Null>", "City": "Yalaha", "ZIPCode": "34797", "PhoneNumbe": "352-343-9458", "ElectricPr": null, "StationTyp": "County" }, "geometry": { "type": "Point", "coordinates": [ -81.807745626720134, 28.74310615730273 ] } },
{ "type": "Feature", "properties": { "Name": "LCFR 82", "Owner": "County", "Status": "Existing", "StaffType": "Staffed", "LifeSuppor": "ALS", "StreetNumb": "24939", "PrefixDire": null, "PrefixType": null, "StreetName": "US Hwy 27", "SuffixType": null, "SuffixDire": null, "Building": null, "UnitType": null, "UnitNumber": "<Null>", "City": "Leesburg", "ZIPCode": "34748", "PhoneNumbe": "352-343-9458", "ElectricPr": null, "StationTyp": "County" }, "geometry": { "type": "Point", "coordinates": [ -81.860472449770128, 28.710730852317592 ] } },
{ "type": "Feature", "properties": { "Name": "LCFR 52", "Owner": "County", "Status": "Existing", "StaffType": "Staffed", "LifeSuppor": "BLS", "StreetNumb": "306", "PrefixDire": "W", "PrefixType": null, "StreetName": "Hermosa", "SuffixType": "ST", "SuffixDire": null, "Building": null, "UnitType": null, "UnitNumber": "<Null>", "City": "Lady Lake", "ZIPCode": "32159", "PhoneNumbe": "352-343-9458", "ElectricPr": "Progress Energy", "StationTyp": "County" }, "geometry": { "type": "Point", "coordinates": [ -81.925569601374349, 28.919545941121534 ] } },
{ "type": "Feature", "properties": { "Name": "LCFR 71", "Owner": "County", "Status": "Existing", "StaffType": "Staffed", "LifeSuppor": "ALS", "StreetNumb": "11305", "PrefixDire": null, "PrefixType": null, "StreetName": "Park", "SuffixType": "AV", "SuffixDire": null, "Building": null, "UnitType": null, "UnitNumber": "<Null>", "City": "Leesburg", "ZIPCode": "34788", "PhoneNumbe": "352-343-9458", "ElectricPr": null, "StationTyp": "County" }, "geometry": { "type": "Point", "coordinates": [ -81.76929510964338, 28.841547317251955 ] } },
{ "type": "Feature", "properties": { "Name": "LCFR 111", "Owner": "County", "Status": "Existing", "StaffType": "Staffed", "LifeSuppor": "BLS", "StreetNumb": "8805", "PrefixDire": null, "PrefixType": null, "StreetName": "Bay Lake", "SuffixType": "RD", "SuffixDire": null, "Building": null, "UnitType": null, "UnitNumber": "<Null>", "City": "Groveland", "ZIPCode": "34736", "PhoneNumbe": "352-343-9458", "ElectricPr": null, "StationTyp": "County" }, "geometry": { "type": "Point", "coordinates": [ -81.905736231413755, 28.474722884257297 ] } },
{ "type": "Feature", "properties": { "Name": "LCFR 112", "Owner": "County", "Status": "Existing", "StaffType": "Staffed", "LifeSuppor": "ALS", "StreetNumb": "16240", "PrefixDire": null, "PrefixType": null, "StreetName": "CR 474", "SuffixType": null, "SuffixDire": null, "Building": null, "UnitType": null, "UnitNumber": "<Null>", "City": "Clermont", "ZIPCode": "34714", "PhoneNumbe": "352-343-9458", "ElectricPr": null, "StationTyp": "County" }, "geometry": { "type": "Point", "coordinates": [ -81.685545856037734, 28.369581201344001 ] } },
{ "type": "Feature", "properties": { "Name": "LCFR 72", "Owner": "County", "Status": "Existing", "StaffType": "Staffed", "LifeSuppor": "ALS", "StreetNumb": "12340", "PrefixDire": null, "PrefixType": null, "StreetName": "CR 44", "SuffixType": null, "SuffixDire": null, "Building": null, "UnitType": null, "UnitNumber": "<Null>", "City": "Grand Island", "ZIPCode": "32735", "PhoneNumbe": "352-343-9458", "ElectricPr": null, "StationTyp": "County" }, "geometry": { "type": "Point", "coordinates": [ -81.750934837557352, 28.874393625395179 ] } },
{ "type": "Feature", "properties": { "Name": "LCFR 10", "Owner": "County", "Status": "Existing", "StaffType": "Staffed", "LifeSuppor": "ALS", "StreetNumb": "23023", "PrefixDire": null, "PrefixType": null, "StreetName": "SR 40", "SuffixType": null, "SuffixDire": null, "Building": null, "UnitType": null, "UnitNumber": "<Null>", "City": "Astor", "ZIPCode": "32102", "PhoneNumbe": "352-343-9458", "ElectricPr": null, "StationTyp": "County" }, "geometry": { "type": "Point", "coordinates": [ -81.558434214929051, 29.1581518630312 ] } },
{ "type": "Feature", "properties": { "Name": "LCFR 53", "Owner": "County", "Status": "Existing", "StaffType": "Staffed", "LifeSuppor": "ALS", "StreetNumb": "2505", "PrefixDire": null, "PrefixType": null, "StreetName": "Spring Lake", "SuffixType": "RD", "SuffixDire": null, "Building": null, "UnitType": null, "UnitNumber": "<Null>", "City": "Fruitland Park", "ZIPCode": "34731", "PhoneNumbe": "352-343-9458", "ElectricPr": null, "StationTyp": "County" }, "geometry": { "type": "Point", "coordinates": [ -81.911679126614402, 28.876341519179842 ] } },
{ "type": "Feature", "properties": { "Name": "LCFR 54", "Owner": "County", "Status": "Existing", "StaffType": "Staffed", "LifeSuppor": "BLS", "StreetNumb": "6200", "PrefixDire": null, "PrefixType": null, "StreetName": "Lake Griffin", "SuffixType": "RD", "SuffixDire": null, "Building": null, "UnitType": null, "UnitNumber": "<Null>", "City": "Lady Lake", "ZIPCode": "32159", "PhoneNumbe": "352-343-9458", "ElectricPr": null, "StationTyp": "County" }, "geometry": { "type": "Point", "coordinates": [ -81.852011420069871, 28.932830981361477 ] } },
{ "type": "Feature", "properties": { "Name": "LCFR 20", "Owner": "County", "Status": "Existing", "StaffType": "Reserve", "LifeSuppor": "BLS", "StreetNumb": "37711", "PrefixDire": null, "PrefixType": null, "StreetName": "SR 19", "SuffixType": null, "SuffixDire": null, "Building": null, "UnitType": null, "UnitNumber": "<Null>", "City": "Umatilla", "ZIPCode": "32784", "PhoneNumbe": "352-343-9458", "ElectricPr": null, "StationTyp": "BC 20" }, "geometry": { "type": "Point", "coordinates": [ -81.687650536565855, 28.89776900124734 ] } },
{ "type": "Feature", "properties": { "Name": "LCFR 11", "Owner": "County", "Status": "Existing", "StaffType": "Staffed", "LifeSuppor": "BLS", "StreetNumb": "47544", "PrefixDire": null, "PrefixType": null, "StreetName": "SR 19", "SuffixType": null, "SuffixDire": null, "Building": null, "UnitType": null, "UnitNumber": "<Null>", "City": "Altoona", "ZIPCode": "32702", "PhoneNumbe": "352-343-9458", "ElectricPr": null, "StationTyp": "County" }, "geometry": { "type": "Point", "coordinates": [ -81.639614610247961, 29.041610186500066 ] } },
{ "type": "Feature", "properties": { "Name": "LCFR 70", "Owner": "County", "Status": "Existing", "StaffType": "Support", "LifeSuppor": "BLS", "StreetNumb": "531", "PrefixDire": null, "PrefixType": null, "StreetName": "Sunnyside", "SuffixType": "DR", "SuffixDire": null, "Building": null, "UnitType": null, "UnitNumber": "<Null>", "City": "Leesburg", "ZIPCode": "34748", "PhoneNumbe": "352-343-9458", "ElectricPr": null, "StationTyp": "Training" }, "geometry": { "type": "Point", "coordinates": [ -81.835774775194821, 28.807680212000822 ] } },
{ "type": "Feature", "properties": { "Name": "LCFR 59", "Owner": "County", "Status": "Existing", "StaffType": "Staffed", "LifeSuppor": "BLS", "StreetNumb": "1201", "PrefixDire": null, "PrefixType": null, "StreetName": "Lewis", "SuffixType": "RD", "SuffixDire": null, "Building": null, "UnitType": null, "UnitNumber": "<Null>", "City": "Leesburg", "ZIPCode": "34788", "PhoneNumbe": "352-343-9458", "ElectricPr": null, "StationTyp": "County" }, "geometry": { "type": "Point", "coordinates": [ -81.93320974861264, 28.829078839844463 ] } },
{ "type": "Feature", "properties": { "Name": "Leesburg FD 64", "Owner": "City", "Status": "Existing", "StaffType": "Staffed", "LifeSuppor": "ALS", "StreetNumb": "3714", "PrefixDire": null, "PrefixType": null, "StreetName": "Rogers Industrial Park", "SuffixType": "RD", "SuffixDire": null, "Building": null, "UnitType": null, "UnitNumber": "<Null>", "City": "Leesburg", "ZIPCode": null, "PhoneNumbe": "352-728-9780", "ElectricPr": null, "StationTyp": "City" }, "geometry": { "type": "Point", "coordinates": [ -81.892437602488101, 28.7410491831854 ] } },
{ "type": "Feature", "properties": { "Name": "Leesburg FD 63", "Owner": "City", "Status": "Existing", "StaffType": "Staffed", "LifeSuppor": "ALS", "StreetNumb": "9400", "PrefixDire": null, "PrefixType": null, "StreetName": "Veterans", "SuffixType": "RD", "SuffixDire": null, "Building": null, "UnitType": null, "UnitNumber": "<Null>", "City": "Leesburg", "ZIPCode": "34748", "PhoneNumbe": "352-728-9780", "ElectricPr": null, "StationTyp": "City" }, "geometry": { "type": "Point", "coordinates": [ -81.802445629659701, 28.825833254865632 ] } },
{ "type": "Feature", "properties": { "Name": "Clermont FD 101", "Owner": "City", "Status": "Existing", "StaffType": "Staffed", "LifeSuppor": "ALS", "StreetNumb": "439", "PrefixDire": "W", "PrefixType": null, "StreetName": "Highway 50", "SuffixType": null, "SuffixDire": null, "Building": null, "UnitType": null, "UnitNumber": "<Null>", "City": "Clermont", "ZIPCode": "34711", "PhoneNumbe": "352-394-7662", "ElectricPr": null, "StationTyp": "City" }, "geometry": { "type": "Point", "coordinates": [ -81.762312610303027, 28.55095480224956 ] } },
{ "type": "Feature", "properties": { "Name": "Clermont FD Support", "Owner": "City", "Status": "Existing", "StaffType": "Reserve", "LifeSuppor": "None", "StreetNumb": "882", "PrefixDire": "W", "PrefixType": null, "StreetName": "Desoto", "SuffixType": "ST", "SuffixDire": null, "Building": null, "UnitType": null, "UnitNumber": "<Null>", "City": "Clermont", "ZIPCode": null, "PhoneNumbe": "352-394-7662", "ElectricPr": null, "StationTyp": "City Support" }, "geometry": { "type": "Point", "coordinates": [ -81.770115511970857, 28.554531338349868 ] } },
{ "type": "Feature", "properties": { "Name": "Clermont FD 102", "Owner": "City", "Status": "Existing", "StaffType": "Staffed", "LifeSuppor": "ALS", "StreetNumb": "2200", "PrefixDire": null, "PrefixType": null, "StreetName": "Hartwood Marsh", "SuffixType": "RD", "SuffixDire": null, "Building": null, "UnitType": null, "UnitNumber": "<Null>", "City": "Clermont", "ZIPCode": "34711", "PhoneNumbe": "352-394-7662", "ElectricPr": null, "StationTyp": "City" }, "geometry": { "type": "Point", "coordinates": [ -81.715237612118074, 28.500074901671429 ] } },
{ "type": "Feature", "properties": { "Name": "Clermont FD 103", "Owner": "City", "Status": "Existing", "StaffType": "Staffed", "LifeSuppor": "ALS", "StreetNumb": "2180", "PrefixDire": null, "PrefixType": null, "StreetName": "Legends", "SuffixType": "WY", "SuffixDire": null, "Building": null, "UnitType": null, "UnitNumber": "<Null>", "City": "Clermont", "ZIPCode": null, "PhoneNumbe": "352-394-7662", "ElectricPr": null, "StationTyp": "City" }, "geometry": { "type": "Point", "coordinates": [ -81.715634978674885, 28.548034193730238 ] } },
{ "type": "Feature", "properties": { "Name": "LCFR 83", "Owner": "County", "Status": "Existing", "StaffType": "Staffed", "LifeSuppor": "ALS", "StreetNumb": "15303", "PrefixDire": null, "PrefixType": null, "StreetName": "Ferndale Community", "SuffixType": "RD", "SuffixDire": null, "Building": null, "UnitType": null, "UnitNumber": "<Null>", "City": "Minneola", "ZIPCode": "34715", "PhoneNumbe": "352-343-9458", "ElectricPr": null, "StationTyp": "County" }, "geometry": { "type": "Point", "coordinates": [ -81.701181057623188, 28.623782123239174 ] } },
{ "type": "Feature", "properties": { "Name": "Mt Dora FD 34", "Owner": "City", "Status": "Existing", "StaffType": "Staffed", "LifeSuppor": "ALS", "StreetNumb": "1300", "PrefixDire": "N", "PrefixType": null, "StreetName": "Donnelly", "SuffixType": "ST", "SuffixDire": null, "Building": null, "UnitType": null, "UnitNumber": "<Null>", "City": "Mount Dora", "ZIPCode": "32757", "PhoneNumbe": "352 735-7140", "ElectricPr": null, "StationTyp": "City" }, "geometry": { "type": "Point", "coordinates": [ -81.644369692414813, 28.808237663390365 ] } },
{ "type": "Feature", "properties": { "Name": "LCFR 78", "Owner": "County", "Status": "Existing", "StaffType": "Staffed", "LifeSuppor": "ALS", "StreetNumb": "16345", "PrefixDire": null, "PrefixType": null, "StreetName": "CR 448", "SuffixType": null, "SuffixDire": null, "Building": null, "UnitType": null, "UnitNumber": "<Null>", "City": "Mount Dora", "ZIPCode": "32757", "PhoneNumbe": "352-343-9458", "ElectricPr": null, "StationTyp": "County" }, "geometry": { "type": "Point", "coordinates": [ -81.68559668442262, 28.747659837070344 ] } },
{ "type": "Feature", "properties": { "Name": "Tavares FD 28", "Owner": "City", "Status": "Existing", "StaffType": "Staffed", "LifeSuppor": "BLS", "StreetNumb": "424", "PrefixDire": "E", "PrefixType": null, "StreetName": "Alfred", "SuffixType": "ST", "SuffixDire": null, "Building": null, "UnitType": null, "UnitNumber": "<Null>", "City": "Tavares", "ZIPCode": "32778", "PhoneNumbe": "352 742-6474", "ElectricPr": null, "StationTyp": "City" }, "geometry": { "type": "Point", "coordinates": [ -81.723445949548719, 28.803719872979311 ] } },
{ "type": "Feature", "properties": { "Name": "Umatilla FD 17", "Owner": "City", "Status": "Existing", "StaffType": "Staffed", "LifeSuppor": "BLS", "StreetNumb": "1", "PrefixDire": null, "PrefixType": null, "StreetName": "Casssdy", "SuffixType": "ST", "SuffixDire": null, "Building": null, "UnitType": null, "UnitNumber": "<Null>", "City": "Umatilla", "ZIPCode": "32784", "PhoneNumbe": "352 669-1711", "ElectricPr": null, "StationTyp": "City Volunteer" }, "geometry": { "type": "Point", "coordinates": [ -81.667485092696595, 28.926625411403062 ] } },
{ "type": "Feature", "properties": { "Name": "Villages FD 43", "Owner": "City", "Status": "Existing", "StaffType": "Staffed", "LifeSuppor": "ALS", "StreetNumb": "1419", "PrefixDire": null, "PrefixType": null, "StreetName": "Paradise", "SuffixType": "DR", "SuffixDire": null, "Building": null, "UnitType": null, "UnitNumber": "<Null>", "City": "Lady Lake", "ZIPCode": "32159", "PhoneNumbe": "352-751-3520", "ElectricPr": null, "StationTyp": "City" }, "geometry": { "type": "Point", "coordinates": [ -81.951346743801722, 28.948467543597371 ] } },
{ "type": "Feature", "properties": { "Name": "BC 90", "Owner": "County", "Status": "Existing", "StaffType": "Bat90", "LifeSuppor": "None", "StreetNumb": "609", "PrefixDire": null, "PrefixType": null, "StreetName": "Disston", "SuffixType": "AV", "SuffixDire": null, "Building": null, "UnitType": null, "UnitNumber": "<Null>", "City": "Minneola", "ZIPCode": "34715", "PhoneNumbe": "352-343-9458", "ElectricPr": null, "StationTyp": "BC90" }, "geometry": { "type": "Point", "coordinates": [ -81.749734261282413, 28.572695498760506 ] } },
{ "type": "Feature", "properties": { "Name": "LCFR 90", "Owner": "County", "Status": "Temporary", "StaffType": "Staffed", "LifeSuppor": "ALS", "StreetNumb": "13341", "PrefixDire": null, "PrefixType": null, "StreetName": "Hartle Ave", "SuffixType": null, "SuffixDire": null, "Building": null, "UnitType": null, "UnitNumber": "<Null>", "City": "Clermont", "ZIPCode": "34711", "PhoneNumbe": "352-343-9458", "ElectricPr": null, "StationTyp": "County" }, "geometry": { "type": "Point", "coordinates": [ -81.686795996927657, 28.538563824811902 ] } },
{ "type": "Feature", "properties": { "Name": "Mt Dora FD 35", "Owner": "City", "Status": "Existing", "StaffType": "Staffed", "LifeSuppor": "ALS", "StreetNumb": "4300", "PrefixDire": "N", "PrefixType": null, "StreetName": "Hwy 19A", "SuffixType": null, "SuffixDire": null, "Building": null, "UnitType": null, "UnitNumber": "<Null>", "City": "Mount Dora", "ZIPCode": "32757", "PhoneNumbe": "352-735-7140", "ElectricPr": "Mount Dora", "StationTyp": "City" }, "geometry": { "type": "Point", "coordinates": [ -81.682390829114823, 28.815353192215859 ] } },
{ "type": "Feature", "properties": { "Name": "Tavares FD 29", "Owner": "City", "Status": "Existing", "StaffType": "Staffed", "LifeSuppor": "ALS", "StreetNumb": "1720", "PrefixDire": null, "PrefixType": null, "StreetName": "Lane Park Cutoff", "SuffixType": "RD", "SuffixDire": null, "Building": null, "UnitType": null, "UnitNumber": "<Null>", "City": "Tavares", "ZIPCode": "32778", "PhoneNumbe": "352-742-6303", "ElectricPr": null, "StationTyp": "City" }, "geometry": { "type": "Point", "coordinates": [ -81.745626377756935, 28.772370051194269 ] } },
{ "type": "Feature", "properties": { "Name": "Eustis FD 23", "Owner": "City", "Status": "Existing", "StaffType": "Staffed", "LifeSuppor": "BLS", "StreetNumb": "1800", "PrefixDire": null, "PrefixType": null, "StreetName": "Hicks Ditch", "SuffixType": "RD", "SuffixDire": null, "Building": null, "UnitType": null, "UnitNumber": null, "City": "EUSTIS", "ZIPCode": "32726", "PhoneNumbe": null, "ElectricPr": null, "StationTyp": null }, "geometry": { "type": "Point", "coordinates": [ -81.671377167260857, 28.872397956617444 ] } }
]
}
