{
"type": "FeatureCollection",
"crs": { "type": "name", "properties": { "name": "urn:ogc:def:crs:OGC:1.3:CRS84" } },
                                                                                
"features": [
{ "type": "Feature", "properties": { "NAME": "GREATER REFUGE CHURCH OF OUR LORD", "ADDRESS": "316 S ADELLE AVE", "CITYNAME": "DELAND", "STATE": "FL", "ZIP": 32720, "PHONE": "386- 734-2001", "THEME": "CHURCH", "SOURCE": "PAO", "CRITFACIL": "N" }, "geometry": { "type": "Point", "coordinates": [ 556484.482, 1705107.792 ] } },
{ "type": "Feature", "properties": { "NAME": "CHURCH OF GOD", "ADDRESS": "330 S THOMPSON ST", "CITYNAME": "DELAND", "STATE": "FL", "ZIP": 32720, "PHONE": "386- 738-4134", "THEME": "CHURCH", "SOURCE": "PAO", "CRITFACIL": "N" }, "geometry": { "type": "Point", "coordinates": [ 556862.42, 1704920.303 ] } },
{ "type": "Feature", "properties": { "NAME": "CHURCH OF CHRIST", "ADDRESS": "403 S SPRING GARDEN AVE", "CITYNAME": "DELAND", "STATE": "FL", "ZIP": 32720, "PHONE": "386- 734-8363", "THEME": "CHURCH", "SOURCE": "PAO", "CRITFACIL": "N" }, "geometry": { "type": "Point", "coordinates": [ 552781.327, 1704446.653 ] } },
{ "type": "Feature", "properties": { "NAME": "HOUSE OF GOD & SAINTS IN CHRIST CHURCH", "ADDRESS": "440 S CLARA AVE", "CITYNAME": "DELAND", "STATE": "FL", "ZIP": 32720, "PHONE": "386- 822-4344", "THEME": "CHURCH", "SOURCE": "PAO", "CRITFACIL": "N" }, "geometry": { "type": "Point", "coordinates": [ 557839.754999999888241, 1704116.363 ] } },
{ "type": "Feature", "properties": { "NAME": "ST ANNIS PRIMITIVE BAPTIST CHURCH", "ADDRESS": "502 S ORANGE AVE", "CITYNAME": "DELAND", "STATE": "FL", "ZIP": 32720, "PHONE": "386- 734-3364", "THEME": "CHURCH", "SOURCE": "PAO", "CRITFACIL": "N" }, "geometry": { "type": "Point", "coordinates": [ 555829.294, 1703604.50399999972 ] } },
{ "type": "Feature", "properties": { "NAME": "HART'S TEMPLE CHURCH OF GOD", "ADDRESS": "543 S ADELLE AVE", "CITYNAME": "DELAND", "STATE": "FL", "ZIP": 32720, "PHONE": "386- 736-4966", "THEME": "CHURCH", "SOURCE": "PAO", "CRITFACIL": "N" }, "geometry": { "type": "Point", "coordinates": [ 556698.426, 1703451.88 ] } },
{ "type": "Feature", "properties": { "NAME": "THE TEMPLE OF GOD CHURCH", "ADDRESS": "820 S ADELLE AVE", "CITYNAME": "DELAND", "STATE": "FL", "ZIP": 32720, "PHONE": "386-748-9254", "THEME": "CHURCH", "SOURCE": "PAO", "CRITFACIL": "N" }, "geometry": { "type": "Point", "coordinates": [ 556590.562, 1701777.328 ] } },
{ "type": "Feature", "properties": { "NAME": "ANTIOCH UNITED FREE WILL BAPTIST CHURCH", "ADDRESS": "301 W BERESFORD AVE", "CITYNAME": "DELAND", "STATE": "FL", "ZIP": 32720, "PHONE": "386- 738-5055", "THEME": "CHURCH", "SOURCE": "PAO", "CRITFACIL": "N" }, "geometry": { "type": "Point", "coordinates": [ 557930.038, 1701470.721 ] } },
{ "type": "Feature", "properties": { "NAME": "MACEDONIA BAPTIST CHURCH", "ADDRESS": "514 W BERESFORD AVE", "CITYNAME": "DELAND", "STATE": "FL", "ZIP": 32720, "PHONE": "386- 736-3891", "THEME": "CHURCH", "SOURCE": "PAO", "CRITFACIL": "N" }, "geometry": { "type": "Point", "coordinates": [ 556420.591, 1701302.356 ] } },
{ "type": "Feature", "properties": { "NAME": "DAYSPRING COMMUNITY CHURCH", "ADDRESS": "902 S SPRING GARDEN AVE", "CITYNAME": "DELAND", "STATE": "FL", "ZIP": 32763, "PHONE": "386- 775-0940", "THEME": "CHURCH", "SOURCE": "PAO", "CRITFACIL": "N" }, "geometry": { "type": "Point", "coordinates": [ 552521.523, 1701180.008 ] } },
{ "type": "Feature", "properties": { "NAME": "FRIENDSHIP BAPTIST CHURCH", "ADDRESS": "921 S PARSONS AVE", "CITYNAME": "DELAND", "STATE": "FL", "ZIP": 32720, "PHONE": "386- 738-1059", "THEME": "CHURCH", "SOURCE": "PAO", "CRITFACIL": "N" }, "geometry": { "type": "Point", "coordinates": [ 557764.251999999862164, 1701125.928 ] } },
{ "type": "Feature", "properties": { "NAME": "KINGDOM HALL JEHOVAHS WITNESS", "ADDRESS": "713 W CINCINNATI AVE", "CITYNAME": "DELAND", "STATE": "FL", "ZIP": 32720, "PHONE": "386- 734-0204", "THEME": "CHURCH", "SOURCE": "PAO", "CRITFACIL": "N" }, "geometry": { "type": "Point", "coordinates": [ 554894.898, 1699916.46099999966 ] } },
{ "type": "Feature", "properties": { "NAME": "CHURCH OF CHRIST", "ADDRESS": "1113 S THOMPSON ST", "CITYNAME": "DELAND", "STATE": "FL", "ZIP": 32720, "PHONE": "386- 734-8363", "THEME": "CHURCH", "SOURCE": "PAO", "CRITFACIL": "N" }, "geometry": { "type": "Point", "coordinates": [ 557084.788, 1699785.51199999987 ] } },
{ "type": "Feature", "properties": { "NAME": "TRIUMPH CHURCH", "ADDRESS": "1121 S ADELLE AVE", "CITYNAME": "DELAND", "STATE": "FL", "ZIP": 32720, "PHONE": null, "THEME": "CHURCH", "SOURCE": "PAO", "CRITFACIL": "N" }, "geometry": { "type": "Point", "coordinates": [ 556752.745, 1699757.751 ] } },
{ "type": "Feature", "properties": { "NAME": "MOUNT CALVARY FREE WILL BAPTIST CHURCH", "ADDRESS": "710 W CINCINNATI AVE", "CITYNAME": "DELAND", "STATE": "FL", "ZIP": 32720, "PHONE": "386- 736-1251", "THEME": "CHURCH", "SOURCE": "PAO", "CRITFACIL": "N" }, "geometry": { "type": "Point", "coordinates": [ 554964.411, 1699523.04199999967 ] } },
{ "type": "Feature", "properties": { "NAME": "PALM TREE MISSIONARY BAPTIST CHURCH", "ADDRESS": "1275  KEITH AVE", "CITYNAME": "DELAND", "STATE": "FL", "ZIP": 32720, "PHONE": "386- 717-1623", "THEME": "CHURCH", "SOURCE": "PAO", "CRITFACIL": "N" }, "geometry": { "type": "Point", "coordinates": [ 553884.45, 1698820.18 ] } },
{ "type": "Feature", "properties": { "NAME": "PRAISE CHAPEL", "ADDRESS": "1320 S SR 15A", "CITYNAME": "DELAND", "STATE": "FL", "ZIP": 32720, "PHONE": "386- 943-3786", "THEME": "CHURCH", "SOURCE": "PAO", "CRITFACIL": "N" }, "geometry": { "type": "Point", "coordinates": [ 554586.756, 1698474.802 ] } },
{ "type": "Feature", "properties": { "NAME": "JOYFUL HOLINESS CHURCH OF GOD", "ADDRESS": "1404 S DELAWARE AVE", "CITYNAME": "DELAND", "STATE": "FL", "ZIP": 32720, "PHONE": "386- 734-9634", "THEME": "CHURCH", "SOURCE": "PAO", "CRITFACIL": "N" }, "geometry": { "type": "Point", "coordinates": [ 557454.688, 1697755.818 ] } },
{ "type": "Feature", "properties": { "NAME": "LIGHTHOUSE CHRISTIAN CHURCH", "ADDRESS": "1525 S SR 15A", "CITYNAME": "DELAND", "STATE": "FL", "ZIP": 32720, "PHONE": "386- 734-4631", "THEME": "CHURCH", "SOURCE": "PAO", "CRITFACIL": "N" }, "geometry": { "type": "Point", "coordinates": [ 555685.514, 1697270.753 ] } },
{ "type": "Feature", "properties": { "NAME": "ST PAUL MISSIONARY BAPTIST CHURCH", "ADDRESS": "600  JACKSON ST", "CITYNAME": "LAKE HELEN  FL", "STATE": "FL", "ZIP": 32744, "PHONE": "386- 228-2300", "THEME": "CHURCH", "SOURCE": "PAO", "CRITFACIL": "N" }, "geometry": { "type": "Point", "coordinates": [ 578611.757, 1694061.837 ] } },
{ "type": "Feature", "properties": { "NAME": "MT ZION MISSIONARY BAPTIST CHURCH", "ADDRESS": "282  CHURCH ST", "CITYNAME": "LAKE HELEN", "STATE": "FL", "ZIP": 32744, "PHONE": "386- 228-2212", "THEME": "CHURCH", "SOURCE": "PAO", "CRITFACIL": "N" }, "geometry": { "type": "Point", "coordinates": [ 577286.379, 1689554.803 ] } },
{ "type": "Feature", "properties": { "NAME": "LAKE HELEN CHURCH OF GOD", "ADDRESS": "395  CHURCH ST", "CITYNAME": "LAKE HELEN", "STATE": "FL", "ZIP": 32744, "PHONE": "386- 228-3099", "THEME": "CHURCH", "SOURCE": "PAO", "CRITFACIL": "N" }, "geometry": { "type": "Point", "coordinates": [ 577446.549, 1688887.15799999982 ] } },
{ "type": "Feature", "properties": { "NAME": "MT OLIVE AME CHURCH", "ADDRESS": "683 W OHIO AVE", "CITYNAME": "LAKE HELEN", "STATE": "FL", "ZIP": 32744, "PHONE": "386- 228-3538", "THEME": "CHURCH", "SOURCE": "PAO", "CRITFACIL": "N" }, "geometry": { "type": "Point", "coordinates": [ 578207.674, 1688072.868 ] } },
{ "type": "Feature", "properties": { "NAME": "IMMANUEL REFORMED PRESBYTERIAN CHURCH", "ADDRESS": "811 ORANGE CAMP RD", "CITYNAME": "DELAND", "STATE": "FL", "ZIP": 32724, "PHONE": "386- 738-1811", "THEME": "CHURCH", "SOURCE": "PAO", "CRITFACIL": "N" }, "geometry": { "type": "Point", "coordinates": [ 564612.229999999864958, 1690505.715 ] } },
{ "type": "Feature", "properties": { "NAME": "OPEN BIBLE BAPTIST CHURCH", "ADDRESS": "2801 GRAYSON ST", "CITYNAME": "ORANGE CITY", "STATE": "FL", "ZIP": 32763, "PHONE": "386- 775-4320", "THEME": "CHURCH", "SOURCE": "PAO", "CRITFACIL": "N" }, "geometry": { "type": "Point", "coordinates": [ 562438.08, 1686419.16 ] } },
{ "type": "Feature", "properties": { "NAME": "OPEN DOOR CHRISTIAN CHURCH", "ADDRESS": "1700 S CLARA AVE", "CITYNAME": "DELAND", "STATE": "FL", "ZIP": 32720, "PHONE": "386- 734-8200", "THEME": "CHURCH", "SOURCE": "PAO", "CRITFACIL": "N" }, "geometry": { "type": "Point", "coordinates": [ 557685.056, 1695640.466 ] } },
{ "type": "Feature", "properties": { "NAME": "THE NEW CHURCH", "ADDRESS": "145 N EUCLID AVE", "CITYNAME": "LAKE HELEN", "STATE": "FL", "ZIP": 32744, "PHONE": "386- 212-9909", "THEME": "CHURCH", "SOURCE": "PAO", "CRITFACIL": "N" }, "geometry": { "type": "Point", "coordinates": [ 581449.698, 1691088.597 ] } },
{ "type": "Feature", "properties": { "NAME": "BLAKE MEMORIAL BAPTIST CHURCH", "ADDRESS": "134 N EUCLID AVE", "CITYNAME": "LAKE HELEN", "STATE": "FL", "ZIP": 32744, "PHONE": "386- 228-2151", "THEME": "CHURCH", "SOURCE": "PAO", "CRITFACIL": "N" }, "geometry": { "type": "Point", "coordinates": [ 581304.384999999892898, 1691036.016 ] } },
{ "type": "Feature", "properties": { "NAME": "LAKE HELEN UNITED METHODIST CHURCH", "ADDRESS": "121 W DELAWARE AVE", "CITYNAME": "LAKE HELEN", "STATE": "FL", "ZIP": 32744, "PHONE": "386- 228-2345", "THEME": "CHURCH", "SOURCE": "PAO", "CRITFACIL": "N" }, "geometry": { "type": "Point", "coordinates": [ 581931.048, 1689773.276 ] } },
{ "type": "Feature", "properties": { "NAME": "CENTRAL FELLOWSHIP BAPTIST CHURCH", "ADDRESS": "626 E KICKLIGHTER RD", "CITYNAME": "LAKE HELEN", "STATE": "FL", "ZIP": 32744, "PHONE": "386- 228-2803", "THEME": "CHURCH", "SOURCE": "PAO", "CRITFACIL": "N" }, "geometry": { "type": "Point", "coordinates": [ 584912.020999999833293, 1685946.26399999973 ] } },
{ "type": "Feature", "properties": { "NAME": "SPRUCE CREEK JEHOVAH'S WITNESSES", "ADDRESS": "740 N CR 415", "CITYNAME": "NEW SMYRNA BEACH", "STATE": "FL", "ZIP": 32168, "PHONE": "386- 428-7770", "THEME": "CHURCH", "SOURCE": "PAO", "CRITFACIL": "N" }, "geometry": { "type": "Point", "coordinates": [ 634078.216, 1716407.573 ] } },
{ "type": "Feature", "properties": { "NAME": "SPACE COAST BAPTIST CHURCH", "ADDRESS": "223 N SAMSULA DR", "CITYNAME": "NEW SMYRNA BEACH", "STATE": "FL", "ZIP": 32168, "PHONE": "386- 847-4910", "THEME": "CHURCH", "SOURCE": "PAO", "CRITFACIL": "N" }, "geometry": { "type": "Point", "coordinates": [ 640197.604, 1703671.075 ] } },
{ "type": "Feature", "properties": { "NAME": "ATLANTIC COAST COMMUNITY CHURCH", "ADDRESS": "1212  CONRAD DR", "CITYNAME": "NEW SMYRNA BEACH", "STATE": "FL", "ZIP": 32168, "PHONE": "386- 427-4023", "THEME": "CHURCH", "SOURCE": "PAO", "CRITFACIL": "N" }, "geometry": { "type": "Point", "coordinates": [ 669464.914000000106171, 1718377.357 ] } },
{ "type": "Feature", "properties": { "NAME": "SEVENTH DAY ADVENTIST CHURCH & SCHOOL", "ADDRESS": "1910  PIONEER TRL", "CITYNAME": "NEW SMYRNA BEACH", "STATE": "FL", "ZIP": 32168, "PHONE": "386- 423-4301", "THEME": "CHURCH", "SOURCE": "PAO", "CRITFACIL": "N" }, "geometry": { "type": "Point", "coordinates": [ 673030.885, 1703950.05399999977 ] } },
{ "type": "Feature", "properties": { "NAME": "CHURCH OF GOD", "ADDRESS": "190  WALLACE RD", "CITYNAME": "NEW SMYRNA BEACH", "STATE": "FL", "ZIP": 32168, "PHONE": "386- 428-2837", "THEME": "CHURCH", "SOURCE": "PAO", "CRITFACIL": "N" }, "geometry": { "type": "Point", "coordinates": [ 673823.270999999833293, 1702553.313 ] } },
{ "type": "Feature", "properties": { "NAME": "GLENCOE BAPTIST CHURCH", "ADDRESS": "196 N GLENCOE RD", "CITYNAME": "NEW SMYRNA BEACH", "STATE": "FL", "ZIP": 32168, "PHONE": "386- 428-3959", "THEME": "CHURCH", "SOURCE": "PAO", "CRITFACIL": "N" }, "geometry": { "type": "Point", "coordinates": [ 665348.101999999838881, 1701942.636 ] } },
{ "type": "Feature", "properties": { "NAME": "CROSSROADS CHRISTIAN CHURCH", "ADDRESS": "3838 SR 44", "CITYNAME": "NEW SMYRNA BEACH", "STATE": "FL", "ZIP": 32168, "PHONE": "386- 427-3312", "THEME": "CHURCH", "SOURCE": "PAO", "CRITFACIL": "N" }, "geometry": { "type": "Point", "coordinates": [ 636343.318, 1699910.974 ] } },
{ "type": "Feature", "properties": { "NAME": "CENTRAL CHURCH OF CHRIST", "ADDRESS": "2119  SR 44", "CITYNAME": "NEW SMYRNA BEACH", "STATE": "FL", "ZIP": 32168, "PHONE": "386- 427-8585", "THEME": "CHURCH", "SOURCE": "PAO", "CRITFACIL": "N" }, "geometry": { "type": "Point", "coordinates": [ 670830.077, 1701292.735 ] } },
{ "type": "Feature", "properties": { "NAME": "NEW SMYRNA CHURCH OF GOD", "ADDRESS": "2080  PAIGE AVE", "CITYNAME": "NEW SMYRNA BEACH", "STATE": "FL", "ZIP": 32168, "PHONE": "386- 427-7766", "THEME": "CHURCH", "SOURCE": "PAO", "CRITFACIL": "N" }, "geometry": { "type": "Point", "coordinates": [ 672317.001, 1699322.95799999987 ] } },
{ "type": "Feature", "properties": { "NAME": "KINGDOM HALL OF JEHOVAHS WITNESS", "ADDRESS": "175 SUGAR MILL DR", "CITYNAME": "NEW SMYRNA BEACH", "STATE": "FL", "ZIP": 32168, "PHONE": "386- 427-7991", "THEME": "CHURCH", "SOURCE": "PAO", "CRITFACIL": "N" }, "geometry": { "type": "Point", "coordinates": [ 662880.993999999831431, 1701931.68 ] } },
{ "type": "Feature", "properties": { "NAME": "CORONADO COMMUNITY UNITED METHODIST CHURCH", "ADDRESS": "201 S PENINSULA AVE", "CITYNAME": "NEW SMYRNA BEACH  FL", "STATE": "FL", "ZIP": 32169, "PHONE": "386- 428-6252", "THEME": "CHURCH", "SOURCE": "PAO", "CRITFACIL": "N" }, "geometry": { "type": "Point", "coordinates": [ 687326.58, 1709762.681 ] } },
{ "type": "Feature", "properties": { "NAME": "NEW SMYRNA BIBLE CHAPEL", "ADDRESS": "101 HESTER ST", "CITYNAME": "NEW SMYRNA BEACH", "STATE": "FL", "ZIP": 32168, "PHONE": "386- 423-1936", "THEME": "CHURCH", "SOURCE": "PAO", "CRITFACIL": "N" }, "geometry": { "type": "Point", "coordinates": [ 676755.575999999768101, 1712427.722 ] } },
{ "type": "Feature", "properties": { "NAME": "TRINITY EVANGELICAL LUTHERN CHURCH", "ADDRESS": "485 TURNBULL BAY RD", "CITYNAME": "NEW SMYRNA BEACH", "STATE": "FL", "ZIP": 32168, "PHONE": "386- 428-4307", "THEME": "CHURCH", "SOURCE": "PAO", "CRITFACIL": "N" }, "geometry": { "type": "Point", "coordinates": [ 676012.416999999899417, 1711069.33299999987 ] } },
{ "type": "Feature", "properties": { "NAME": "CHURCH OF JESUS CHRIST OF LATTER DAY SAINTS", "ADDRESS": "2  FAIRGREEN AVE", "CITYNAME": "NEW SMYRNA BEACH", "STATE": "FL", "ZIP": 32168, "PHONE": "386- 428-6254", "THEME": "CHURCH", "SOURCE": "PAO", "CRITFACIL": "N" }, "geometry": { "type": "Point", "coordinates": [ 675472.834, 1710446.38199999975 ] } },
{ "type": "Feature", "properties": { "NAME": "SMYRNA FREE WILL BAPTIST CHURCH", "ADDRESS": "847 TURNBULL ST", "CITYNAME": "NEW SMYRNA BEACH", "STATE": "FL", "ZIP": 32168, "PHONE": "386- 428-4741", "THEME": "CHURCH", "SOURCE": "PAO", "CRITFACIL": "N" }, "geometry": { "type": "Point", "coordinates": [ 677103.077, 1709872.67499999981 ] } },
{ "type": "Feature", "properties": { "NAME": "NEW SMYRNA BEACHSIDE BAPTISTCHURCH INC", "ADDRESS": "629 S PINE ST", "CITYNAME": "NEW SMYRNA BEACH  FL", "STATE": "FL", "ZIP": 32169, "PHONE": "386- 428-4452", "THEME": "CHURCH", "SOURCE": "PAO", "CRITFACIL": "N" }, "geometry": { "type": "Point", "coordinates": [ 688005.313, 1707786.82 ] } },
{ "type": "Feature", "properties": { "NAME": "FIRST CHURCH OF CHRIST SCIENTIST", "ADDRESS": "640  BALL ST", "CITYNAME": "NEW SMYRNA BEACH", "STATE": "FL", "ZIP": 32168, "PHONE": "386- 428-8276", "THEME": "CHURCH", "SOURCE": "PAO", "CRITFACIL": "N" }, "geometry": { "type": "Point", "coordinates": [ 678658.314, 1708646.674 ] } },
{ "type": "Feature", "properties": { "NAME": "REFUGE CHURCH OF OUR LORD", "ADDRESS": "623 N DUSS ST", "CITYNAME": "NEW SMYRNA BEACH", "STATE": "FL", "ZIP": 32168, "PHONE": "386- 409-8627", "THEME": "CHURCH", "SOURCE": "PAO", "CRITFACIL": "N" }, "geometry": { "type": "Point", "coordinates": [ 676863.556, 1707341.6 ] } },
{ "type": "Feature", "properties": { "NAME": "REDEMPTORIST FATHERS", "ADDRESS": "318 N RIVERSIDE DR", "CITYNAME": "NEW SMYRNA BEACH", "STATE": "FL", "ZIP": 32168, "PHONE": "386- 428-6481", "THEME": "CHURCH", "SOURCE": "PAO", "CRITFACIL": "N" }, "geometry": { "type": "Point", "coordinates": [ 680662.254, 1706713.384 ] } },
{ "type": "Feature", "properties": { "NAME": "OAK GROVE CHURCH OF APOSTOLIC FAITH", "ADDRESS": "441 SHELDON ST", "CITYNAME": "NEW SMYRNA BEACH", "STATE": "FL", "ZIP": 32168, "PHONE": "386- 427-3775", "THEME": "CHURCH", "SOURCE": "PAO", "CRITFACIL": "N" }, "geometry": { "type": "Point", "coordinates": [ 677832.973, 1706571.931 ] } },
{ "type": "Feature", "properties": { "NAME": "NEW MT ZION CHURCH", "ADDRESS": "901  ENTERPRISE AVE", "CITYNAME": "NEW SMYRNA BEACH", "STATE": "FL", "ZIP": 32168, "PHONE": null, "THEME": "CHURCH", "SOURCE": "PAO", "CRITFACIL": "N" }, "geometry": { "type": "Point", "coordinates": [ 676976.753999999840744, 1706235.547 ] } },
{ "type": "Feature", "properties": { "NAME": "UNITED CHURCH OF CHRIST", "ADDRESS": "203 WASHINGTON ST", "CITYNAME": "NEW SMYRNA BEACH", "STATE": "FL", "ZIP": 32168, "PHONE": "386- 428-2352", "THEME": "CHURCH", "SOURCE": "PAO", "CRITFACIL": "N" }, "geometry": { "type": "Point", "coordinates": [ 680224.710999999893829, 1706154.606 ] } },
{ "type": "Feature", "properties": { "NAME": "FIRST BAPTIST CHURCH NEW SMYRNA BEACH", "ADDRESS": "214  SAMS AVE", "CITYNAME": "NEW SMYRNA BEACH", "STATE": "FL", "ZIP": 32168, "PHONE": "386- 428-2921", "THEME": "CHURCH", "SOURCE": "PAO", "CRITFACIL": "N" }, "geometry": { "type": "Point", "coordinates": [ 680650.841, 1706189.542 ] } },
{ "type": "Feature", "properties": { "NAME": "MT OLIVE PRIMITIVE BAPTIST CHURCH", "ADDRESS": "410 N MYRTLE AVE", "CITYNAME": "NEW SMYRNA BEACH", "STATE": "FL", "ZIP": 32168, "PHONE": "386- 423-4695", "THEME": "CHURCH", "SOURCE": "PAO", "CRITFACIL": "N" }, "geometry": { "type": "Point", "coordinates": [ 677645.281, 1705908.065 ] } },
{ "type": "Feature", "properties": { "NAME": "NEW BETHEL BAPTIST CHURCH", "ADDRESS": "1407  ENTERPRISE AVE", "CITYNAME": "NEW SMYRNA BEACH", "STATE": "FL", "ZIP": 32168, "PHONE": "386- 427-8889", "THEME": "CHURCH", "SOURCE": "PAO", "CRITFACIL": "N" }, "geometry": { "type": "Point", "coordinates": [ 675676.284, 1705856.926 ] } },
{ "type": "Feature", "properties": { "NAME": "MT CALVARY MISSIONARY BAPTIST CHURCH", "ADDRESS": "569 WASHINGTON ST", "CITYNAME": "NEW SMYRNA BEACH", "STATE": "FL", "ZIP": 32168, "PHONE": "386- 428-2519", "THEME": "CHURCH", "SOURCE": "PAO", "CRITFACIL": "N" }, "geometry": { "type": "Point", "coordinates": [ 678434.369, 1705355.306 ] } },
{ "type": "Feature", "properties": { "NAME": "NEW HOPE BAPTIST CHURCH", "ADDRESS": "311 N MYRTLE AVE", "CITYNAME": "NEW SMYRNA BEACH", "STATE": "FL", "ZIP": 32168, "PHONE": "386- 427-7044", "THEME": "CHURCH", "SOURCE": "PAO", "CRITFACIL": "N" }, "geometry": { "type": "Point", "coordinates": [ 678069.090999999898486, 1705303.444 ] } },
{ "type": "Feature", "properties": { "NAME": "HEART OF WORSHIP COMMUNITY CHURCH", "ADDRESS": "403  WEST ST", "CITYNAME": "NEW SMYRNA BEACH", "STATE": "FL", "ZIP": 32168, "PHONE": null, "THEME": "CHURCH", "SOURCE": "PAO", "CRITFACIL": "N" }, "geometry": { "type": "Point", "coordinates": [ 674625.992, 1705156.511 ] } },
{ "type": "Feature", "properties": { "NAME": "APOSTOLIC FAITH TEMPLE", "ADDRESS": "300  MILFORD PL", "CITYNAME": "NEW SMYRNA BEACH", "STATE": "FL", "ZIP": 32168, "PHONE": "386- 426-5677", "THEME": "CHURCH", "SOURCE": "PAO", "CRITFACIL": "N" }, "geometry": { "type": "Point", "coordinates": [ 677089.129, 1705035.798 ] } },
{ "type": "Feature", "properties": { "NAME": "PLEASANT GROVE BAPTIST CHURCH", "ADDRESS": "214 N MYRTLE AVE", "CITYNAME": "NEW SMYRNA BEACH", "STATE": "FL", "ZIP": 32168, "PHONE": "386- 426-0118", "THEME": "CHURCH", "SOURCE": "PAO", "CRITFACIL": "N" }, "geometry": { "type": "Point", "coordinates": [ 678087.611, 1704880.681 ] } },
{ "type": "Feature", "properties": { "NAME": "FIRST UNITED METHODIST CHURCH", "ADDRESS": "310 DOUGLAS ST", "CITYNAME": "NEW SMYRNA BEACH", "STATE": "FL", "ZIP": 32168, "PHONE": "386- 428-4371", "THEME": "CHURCH", "SOURCE": "PAO", "CRITFACIL": "N" }, "geometry": { "type": "Point", "coordinates": [ 680822.764, 1704700.875 ] } },
{ "type": "Feature", "properties": { "NAME": "FIRST CHURCH OF THE NAZARENE", "ADDRESS": "201 S ORANGE ST", "CITYNAME": "NEW SMYRNA BEACH", "STATE": "FL", "ZIP": 32168, "PHONE": "386- 427-1466", "THEME": "CHURCH", "SOURCE": "PAO", "CRITFACIL": "N" }, "geometry": { "type": "Point", "coordinates": [ 680241.431, 1704652.007 ] } },
{ "type": "Feature", "properties": { "NAME": "FIRST PRESBYTERIAN CHURCH", "ADDRESS": "509 MAGNOLIA ST", "CITYNAME": "NEW SMYRNA BEACH", "STATE": "FL", "ZIP": 32168, "PHONE": "386- 428-2397", "THEME": "CHURCH", "SOURCE": "PAO", "CRITFACIL": "N" }, "geometry": { "type": "Point", "coordinates": [ 681753.49, 1703981.057 ] } },
{ "type": "Feature", "properties": { "NAME": "ONE ACCORD CHRISTIAN MINISTRIES", "ADDRESS": "715 MAGNOLIA ST", "CITYNAME": "NEW SMYRNA BEACH", "STATE": "FL", "ZIP": 32168, "PHONE": "386- 409-9494", "THEME": "CHURCH", "SOURCE": "PAO", "CRITFACIL": "N" }, "geometry": { "type": "Point", "coordinates": [ 682001.313, 1703265.276 ] } },
{ "type": "Feature", "properties": { "NAME": "CHRIST COMMUNITY CHURCH", "ADDRESS": "1210  MISSION DR", "CITYNAME": "NEW SMYRNA BEACH", "STATE": "FL", "ZIP": 32168, "PHONE": "386- 426-8738", "THEME": "CHURCH", "SOURCE": "PAO", "CRITFACIL": "N" }, "geometry": { "type": "Point", "coordinates": [ 676957.119, 1699542.673 ] } },
{ "type": "Feature", "properties": { "NAME": "ST PAULS EPISCOPAL CHURCH", "ADDRESS": "1650  LIVE OAK ST", "CITYNAME": "NEW SMYRNA BEACH", "STATE": "FL", "ZIP": 32168, "PHONE": "386- 428-8733", "THEME": "CHURCH", "SOURCE": "PAO", "CRITFACIL": "N" }, "geometry": { "type": "Point", "coordinates": [ 683082.251, 1698614.458 ] } },
{ "type": "Feature", "properties": { "NAME": "OUR LADY STAR OF THE SEA CATHOLIC CHURCH", "ADDRESS": "4000 S ATLANTIC AVE", "CITYNAME": "NEW SMYRNA BEACH", "STATE": "FL", "ZIP": 32169, "PHONE": "386- 427-4530", "THEME": "CHURCH", "SOURCE": "PAO", "CRITFACIL": "N" }, "geometry": { "type": "Point", "coordinates": [ 695248.028, 1698386.487 ] } },
{ "type": "Feature", "properties": { "NAME": "ST PETER THE FISHERMAN CHURCH", "ADDRESS": "4220  SAXON DR", "CITYNAME": "NEW SMYRNA BEACH", "STATE": "FL", "ZIP": 32169, "PHONE": "386- 428-7383", "THEME": "CHURCH", "SOURCE": "PAO", "CRITFACIL": "N" }, "geometry": { "type": "Point", "coordinates": [ 695548.875, 1695547.778 ] } },
{ "type": "Feature", "properties": { "NAME": "EDGEWATER UNITED METHODIST CHURCH", "ADDRESS": "211 N RIDGEWOOD AVE", "CITYNAME": "EDGEWATER", "STATE": "FL", "ZIP": 32764, "PHONE": "386- 428-6552", "THEME": "CHURCH", "SOURCE": "PAO", "CRITFACIL": "N" }, "geometry": { "type": "Point", "coordinates": [ 685319.937, 1694311.583 ] } },
{ "type": "Feature", "properties": { "NAME": "FIRST BAPTIST CHURCH OF EDGEWATER", "ADDRESS": "130 E PARK AVE", "CITYNAME": "EDGEWATER", "STATE": "FL", "ZIP": 32132, "PHONE": "386- 428-5212", "THEME": "CHURCH", "SOURCE": "PAO", "CRITFACIL": "N" }, "geometry": { "type": "Point", "coordinates": [ 686319.231, 1693430.811 ] } },
{ "type": "Feature", "properties": { "NAME": "UNION CHURCH", "ADDRESS": "500 S RIDGEWOOD AVE", "CITYNAME": "EDGEWATER", "STATE": "FL", "ZIP": 32132, "PHONE": "386- 428-6327", "THEME": "CHURCH", "SOURCE": "PAO", "CRITFACIL": "N" }, "geometry": { "type": "Point", "coordinates": [ 686361.398, 1691676.126 ] } },
{ "type": "Feature", "properties": { "NAME": "GRACE COMMUNITY CHURCH", "ADDRESS": "1100  JOSEPHINE ST", "CITYNAME": "NEW SMYRNA BEACH", "STATE": "FL", "ZIP": 32168, "PHONE": "386- 428-7319", "THEME": "CHURCH", "SOURCE": "PAO", "CRITFACIL": "N" }, "geometry": { "type": "Point", "coordinates": [ 677789.697, 1696806.44799999986 ] } },
{ "type": "Feature", "properties": { "NAME": "EDGEWATER ALLIANCE CHURCH", "ADDRESS": "310 N RIDGEWOOD AVE", "CITYNAME": "EDGEWATER", "STATE": "FL", "ZIP": 32132, "PHONE": "386- 427-0385", "THEME": "CHURCH", "SOURCE": "PAO", "CRITFACIL": "N" }, "geometry": { "type": "Point", "coordinates": [ 684618.139, 1695163.60399999982 ] } },
{ "type": "Feature", "properties": { "NAME": "KINGDOM HALL JEHOVAHS WITNESS", "ADDRESS": "1500 E MINNESOTA AVE", "CITYNAME": "ORANGE CITY", "STATE": "FL", "ZIP": 32763, "PHONE": "386- 775-3412", "THEME": "CHURCH", "SOURCE": "PAO", "CRITFACIL": "N" }, "geometry": { "type": "Point", "coordinates": [ 564908.382, 1684932.644 ] } },
{ "type": "Feature", "properties": { "NAME": "ORANGE CITY UNITED METHODIST CHURCH", "ADDRESS": "396 E UNIVERSITY AVE", "CITYNAME": "ORANGE CITY", "STATE": "FL", "ZIP": 32763, "PHONE": "386- 775-3068", "THEME": "CHURCH", "SOURCE": "PAO", "CRITFACIL": "N" }, "geometry": { "type": "Point", "coordinates": [ 561803.349, 1678337.942 ] } },
{ "type": "Feature", "properties": { "NAME": "LIVING WATER FREE METHODIST CHURCH", "ADDRESS": "1595 E GRAVES AVE", "CITYNAME": "ORANGE CITY", "STATE": "FL", "ZIP": 32763, "PHONE": "386- 775-4001", "THEME": "CHURCH", "SOURCE": "PAO", "CRITFACIL": "N" }, "geometry": { "type": "Point", "coordinates": [ 567113.784, 1677840.20299999975 ] } },
{ "type": "Feature", "properties": { "NAME": "ST JUDE'S EPISCOPAL CHURCH", "ADDRESS": "815 E GRAVES AVE", "CITYNAME": "ORANGE CITY", "STATE": "FL", "ZIP": 32763, "PHONE": "386- 775-6200", "THEME": "CHURCH", "SOURCE": "PAO", "CRITFACIL": "N" }, "geometry": { "type": "Point", "coordinates": [ 563674.927, 1677983.43399999989 ] } },
{ "type": "Feature", "properties": { "NAME": "FIRST BAPTIST CHURCH OF ORANGE CITY", "ADDRESS": "975 E GRAVES AVE", "CITYNAME": "ORANGE CITY", "STATE": "FL", "ZIP": 32763, "PHONE": "386- 775-4846", "THEME": "CHURCH", "SOURCE": "PAO", "CRITFACIL": "N" }, "geometry": { "type": "Point", "coordinates": [ 564065.904, 1677975.65 ] } },
{ "type": "Feature", "properties": { "NAME": "VOLUSIA COUNTY BAPTIST CHURCH", "ADDRESS": "261 S ORANGE AVE", "CITYNAME": "ORANGE CITY", "STATE": "FL", "ZIP": 32763, "PHONE": "386- 774-0181", "THEME": "CHURCH", "SOURCE": "PAO", "CRITFACIL": "N" }, "geometry": { "type": "Point", "coordinates": [ 562249.987999999779277, 1677418.81299999985 ] } },
{ "type": "Feature", "properties": { "NAME": "MT ZION AME CHURCH", "ADDRESS": "450 S HOLLY AVE", "CITYNAME": "ORANGE CITY", "STATE": "FL", "ZIP": 32763, "PHONE": null, "THEME": "CHURCH", "SOURCE": "PAO", "CRITFACIL": "N" }, "geometry": { "type": "Point", "coordinates": [ 560971.177, 1676114.12399999984 ] } },
{ "type": "Feature", "properties": { "NAME": "MT BARRIAN PRIMITIVE BAPTIST CHURCH", "ADDRESS": "229 E BLUE SPRINGS AVE", "CITYNAME": "ORANGE CITY", "STATE": "FL", "ZIP": 32763, "PHONE": "386- 851-0611", "THEME": "CHURCH", "SOURCE": "PAO", "CRITFACIL": "N" }, "geometry": { "type": "Point", "coordinates": [ 561270.928, 1675841.058 ] } },
{ "type": "Feature", "properties": { "NAME": "HOUSE OF GOD SAINTS IN CHRIST", "ADDRESS": "607 S THORPE AVE", "CITYNAME": "ORANGE CITY", "STATE": "FL", "ZIP": 32763, "PHONE": null, "THEME": "CHURCH", "SOURCE": "PAO", "CRITFACIL": "N" }, "geometry": { "type": "Point", "coordinates": [ 561810.81, 1675557.37499999977 ] } },
{ "type": "Feature", "properties": { "NAME": "FIRST CONGREGATIONAL CHURCH", "ADDRESS": "201 W UNIVERSITY AVE", "CITYNAME": "ORANGE CITY", "STATE": "FL", "ZIP": 32763, "PHONE": "386- 775-2462", "THEME": "CHURCH", "SOURCE": "PAO", "CRITFACIL": "N" }, "geometry": { "type": "Point", "coordinates": [ 560215.286, 1678515.64899999974 ] } },
{ "type": "Feature", "properties": { "NAME": "EMMAUS LUTHERAN CHURCH", "ADDRESS": "2500 S VOLUSIA AVE", "CITYNAME": "ORANGE CITY", "STATE": "FL", "ZIP": 32763, "PHONE": "386- 775-9676", "THEME": "CHURCH", "SOURCE": "PAO", "CRITFACIL": "N" }, "geometry": { "type": "Point", "coordinates": [ 560054.565, 1666274.244 ] } },
{ "type": "Feature", "properties": { "NAME": "SEVENTH DAY ADVENTIST CHURCH", "ADDRESS": "2535 S VOLUSIA AVE", "CITYNAME": "ORANGE CITY", "STATE": "FL", "ZIP": 32763, "PHONE": "386- 775-3722", "THEME": "CHURCH", "SOURCE": "PAO", "CRITFACIL": "N" }, "geometry": { "type": "Point", "coordinates": [ 559431.453, 1665868.043 ] } },
{ "type": "Feature", "properties": { "NAME": "FIRST PRESBYTERIAN CHURCH", "ADDRESS": "267 E HIGHBANKS RD", "CITYNAME": "DEBARY", "STATE": "FL", "ZIP": 32713, "PHONE": "386- 668-4495", "THEME": "CHURCH", "SOURCE": "PAO", "CRITFACIL": "N" }, "geometry": { "type": "Point", "coordinates": [ 563377.002, 1656310.327 ] } },
{ "type": "Feature", "properties": { "NAME": "DELTONA ALLIANCE CHURCH", "ADDRESS": "921  DELTONA BLVD", "CITYNAME": "DELTONA", "STATE": "FL", "ZIP": 32725, "PHONE": "386- 574-6046", "THEME": "CHURCH", "SOURCE": "PAO", "CRITFACIL": "N" }, "geometry": { "type": "Point", "coordinates": [ 567900.691000000108033, 1655651.007 ] } },
{ "type": "Feature", "properties": { "NAME": "ST ANNS CATHOLIC CHURCH", "ADDRESS": "26  DOGWOOD TRL", "CITYNAME": "DEBARY", "STATE": "FL", "ZIP": 32713, "PHONE": "386- 668-8270", "THEME": "CHURCH", "SOURCE": "PAO", "CRITFACIL": "N" }, "geometry": { "type": "Point", "coordinates": [ 557753.64899999986, 1659352.75299999979 ] } },
{ "type": "Feature", "properties": { "NAME": "COMMUNITY UNITED METHODIST CHURCH", "ADDRESS": "41 W HIGHBANKS RD", "CITYNAME": "DEBARY", "STATE": "FL", "ZIP": 32713, "PHONE": "386- 668-4805", "THEME": "CHURCH", "SOURCE": "PAO", "CRITFACIL": "N" }, "geometry": { "type": "Point", "coordinates": [ 555629.741999999852851, 1656345.96499999985 ] } },
{ "type": "Feature", "properties": { "NAME": "FIRST BAPTIST CHURCH OF DEBARY", "ADDRESS": "32 S SHELL RD", "CITYNAME": "DEBARY", "STATE": "FL", "ZIP": 32713, "PHONE": "386- 668-6881", "THEME": "CHURCH", "SOURCE": "PAO", "CRITFACIL": "N" }, "geometry": { "type": "Point", "coordinates": [ 555891.143, 1655267.703 ] } },
{ "type": "Feature", "properties": { "NAME": "JUBILEE WORSHIP CENTER", "ADDRESS": "3186  YORKSHIRE DR", "CITYNAME": "DELTONA", "STATE": "FL", "ZIP": 32738, "PHONE": "386- 532-9080", "THEME": "CHURCH", "SOURCE": "PAO", "CRITFACIL": "N" }, "geometry": { "type": "Point", "coordinates": [ 588322.834, 1679099.46099999989 ] } },
{ "type": "Feature", "properties": { "NAME": "DELTONA SEVENTH DAY ADVENTIST CHURCH", "ADDRESS": "1717 CATALINA BLVD", "CITYNAME": "DELTONA", "STATE": "FL", "ZIP": 32738, "PHONE": "386- 789-7800", "THEME": "CHURCH", "SOURCE": "PAO", "CRITFACIL": "N" }, "geometry": { "type": "Point", "coordinates": [ 584478.791999999899417, 1676763.832 ] } },
{ "type": "Feature", "properties": { "NAME": "NEW HOPE BAPTIST CHURCH", "ADDRESS": "2855  LAKE HELEN OSTEEN RD", "CITYNAME": "DELTONA", "STATE": "FL", "ZIP": 32738, "PHONE": "386- 532-8291", "THEME": "CHURCH", "SOURCE": "PAO", "CRITFACIL": "N" }, "geometry": { "type": "Point", "coordinates": [ 590743.168, 1675824.55 ] } },
{ "type": "Feature", "properties": { "NAME": "CORNERSTONE CHRISTIAN CHURCH", "ADDRESS": "2813 HOWLAND BLVD", "CITYNAME": "DELTONA", "STATE": "FL", "ZIP": 32725, "PHONE": "386- 532-5100", "THEME": "CHURCH", "SOURCE": "PAO", "CRITFACIL": "N" }, "geometry": { "type": "Point", "coordinates": [ 584538.373, 1675322.91 ] } },
{ "type": "Feature", "properties": { "NAME": "SOUTHERN CASS SPIRIT CAMP MEETING ASSOCIATION", "ADDRESS": "1325  STEVENS ST", "CITYNAME": "CASSADAGA", "STATE": "FL", "ZIP": 32706, "PHONE": "386- 228-3171", "THEME": "CHURCH", "SOURCE": "PAO", "CRITFACIL": "N" }, "geometry": { "type": "Point", "coordinates": [ 580435.721, 1682964.706 ] } },
{ "type": "Feature", "properties": { "NAME": "GRACE BAPTIST CHURCH", "ADDRESS": "3170 HOWLAND BLVD", "CITYNAME": "DELTONA", "STATE": "FL", "ZIP": 32725, "PHONE": "386- 789-1007", "THEME": "CHURCH", "SOURCE": "PAO", "CRITFACIL": "N" }, "geometry": { "type": "Point", "coordinates": [ 578100.289000000106171, 1677605.182 ] } },
{ "type": "Feature", "properties": { "NAME": "DELTONA LAKES CONGREGATION JEHOVAHS WITNESS", "ADDRESS": "3124 HOWLAND BLVD", "CITYNAME": "DELTONA", "STATE": "FL", "ZIP": 32725, "PHONE": "386- 789-7772", "THEME": "CHURCH", "SOURCE": "PAO", "CRITFACIL": "N" }, "geometry": { "type": "Point", "coordinates": [ 578910.31, 1677517.50499999966 ] } },
{ "type": "Feature", "properties": { "NAME": "FAITH BIBLE CHURCH", "ADDRESS": "3015 HOWLAND BLVD", "CITYNAME": "DELTONA", "STATE": "FL", "ZIP": 32725, "PHONE": "386- 789-0552", "THEME": "CHURCH", "SOURCE": "PAO", "CRITFACIL": "N" }, "geometry": { "type": "Point", "coordinates": [ 581134.178, 1677004.767 ] } },
{ "type": "Feature", "properties": { "NAME": "SPANISH IGLESIA BAUTISTA EL CALVARIO", "ADDRESS": "1310 RED FOX RUN", "CITYNAME": "DELTONA", "STATE": "FL", "ZIP": 32725, "PHONE": "386- 789-6177", "THEME": "CHURCH", "SOURCE": "PAO", "CRITFACIL": "N" }, "geometry": { "type": "Point", "coordinates": [ 579258.939, 1676935.337 ] } },
{ "type": "Feature", "properties": { "NAME": "FOUR TOWNS COMMUNITY CHURCH", "ADDRESS": "181 WOLF PACK RUN", "CITYNAME": "DELTONA", "STATE": "FL", "ZIP": 32725, "PHONE": "386- 532-5546", "THEME": "CHURCH", "SOURCE": "PAO", "CRITFACIL": "N" }, "geometry": { "type": "Point", "coordinates": [ 578024.558999999891967, 1675862.274 ] } },
{ "type": "Feature", "properties": { "NAME": "DELTONA LAKES BAPTIST CHURCH", "ADDRESS": "2886  ELKCAM BLVD", "CITYNAME": "DELTONA", "STATE": "FL", "ZIP": 32738, "PHONE": "386- 789-2400", "THEME": "CHURCH", "SOURCE": "PAO", "CRITFACIL": "N" }, "geometry": { "type": "Point", "coordinates": [ 597007.722, 1671267.71499999985 ] } },
{ "type": "Feature", "properties": { "NAME": "DELTONA PRESBYTERIAN CHURCH", "ADDRESS": "2300  HOWLAND BLVD", "CITYNAME": "DELTONA", "STATE": "FL", "ZIP": 32738, "PHONE": "386- 789-3200", "THEME": "CHURCH", "SOURCE": "PAO", "CRITFACIL": "N" }, "geometry": { "type": "Point", "coordinates": [ 593808.097999999881722, 1670506.6 ] } },
{ "type": "Feature", "properties": { "NAME": "ST CLARE CATHOLIC CHURCH", "ADDRESS": "2961 DAY RD", "CITYNAME": "DELTONA", "STATE": "FL", "ZIP": 32738, "PHONE": "386- 789-9990", "THEME": "CHURCH", "SOURCE": "PAO", "CRITFACIL": "N" }, "geometry": { "type": "Point", "coordinates": [ 598169.25, 1668165.25 ] } },
{ "type": "Feature", "properties": { "NAME": "LOS PENTECOSTALES DE DELTONA", "ADDRESS": "2000  HOWLAND BLVD", "CITYNAME": "DELTONA", "STATE": "FL", "ZIP": 32738, "PHONE": "386- 789-6004", "THEME": "CHURCH", "SOURCE": "PAO", "CRITFACIL": "N" }, "geometry": { "type": "Point", "coordinates": [ 597289.563, 1667466.333 ] } },
{ "type": "Feature", "properties": { "NAME": "TEMPLE SHALOM OF DELTONA", "ADDRESS": "1785  ELKCAM BLVD", "CITYNAME": "DELTONA", "STATE": "FL", "ZIP": 32725, "PHONE": "386- 789-2202", "THEME": "CHURCH", "SOURCE": "PAO", "CRITFACIL": "N" }, "geometry": { "type": "Point", "coordinates": [ 585051.058999999891967, 1666207.73899999983 ] } },
{ "type": "Feature", "properties": { "NAME": "LUTHERAN CHURCH OF PROVIDENCE", "ADDRESS": "1696  PROVIDENCE BLVD", "CITYNAME": "DELTONA", "STATE": "FL", "ZIP": 32725, "PHONE": "386- 789-3300", "THEME": "CHURCH", "SOURCE": "PAO", "CRITFACIL": "N" }, "geometry": { "type": "Point", "coordinates": [ 583743.973, 1662585.825 ] } },
{ "type": "Feature", "properties": { "NAME": "FIRST CHURCH OF CHRIST SCIENTIST", "ADDRESS": "988  ELKCAM BLVD", "CITYNAME": "DELTONA", "STATE": "FL", "ZIP": 32725, "PHONE": "386- 789-2424", "THEME": "CHURCH", "SOURCE": "PAO", "CRITFACIL": "N" }, "geometry": { "type": "Point", "coordinates": [ 576931.341, 1669398.778 ] } },
{ "type": "Feature", "properties": { "NAME": "TRINITY ASSEMBLY OF GOD", "ADDRESS": "875  ELKCAM BLVD", "CITYNAME": "DELTONA", "STATE": "FL", "ZIP": 32725, "PHONE": "386- 789-4515", "THEME": "CHURCH", "SOURCE": "PAO", "CRITFACIL": "N" }, "geometry": { "type": "Point", "coordinates": [ 575199.528, 1669013.313 ] } },
{ "type": "Feature", "properties": { "NAME": "DELTONA CHURCH OF THE NAZARENE", "ADDRESS": "1420 COURTLAND BLVD", "CITYNAME": "DELTONA", "STATE": "FL", "ZIP": 32738, "PHONE": "(407) 574-7828", "THEME": "CHURCH", "SOURCE": "PAO", "CRITFACIL": "N" }, "geometry": { "type": "Point", "coordinates": [ 601677.858, 1661369.76 ] } },
{ "type": "Feature", "properties": { "NAME": "GOOD SHEPHERD EVANGELIST LUTHERAN", "ADDRESS": "751 HOWLAND BLVD", "CITYNAME": "DELTONA", "STATE": "FL", "ZIP": 32738, "PHONE": "386- 321-7510", "THEME": "CHURCH", "SOURCE": "PAO", "CRITFACIL": "N" }, "geometry": { "type": "Point", "coordinates": [ 603006.198, 1653978.089 ] } },
{ "type": "Feature", "properties": { "NAME": "DELTONA COMMUNITY CHURCH OF GOD", "ADDRESS": "3045 MALLARD DR", "CITYNAME": "DELTONA", "STATE": "FL", "ZIP": 32738, "PHONE": "386- 848-0505", "THEME": "CHURCH", "SOURCE": "PAO", "CRITFACIL": "N" }, "geometry": { "type": "Point", "coordinates": [ 598760.344, 1653043.098 ] } },
{ "type": "Feature", "properties": { "NAME": "FT SMITH BLVD BAPTIST CHURCH", "ADDRESS": "229 FORT SMITH BLVD", "CITYNAME": "DELTONA", "STATE": "FL", "ZIP": 32738, "PHONE": "(407) 323-0442", "THEME": "CHURCH", "SOURCE": "PAO", "CRITFACIL": "N" }, "geometry": { "type": "Point", "coordinates": [ 600316.317, 1652423.903 ] } },
{ "type": "Feature", "properties": { "NAME": "DELTONA UNITED CHURCH OFCHRIST", "ADDRESS": "1649  PROVIDENCE BLVD", "CITYNAME": "DELTONA", "STATE": "FL", "ZIP": 32725, "PHONE": "386- 574-1821", "THEME": "CHURCH", "SOURCE": "PAO", "CRITFACIL": "N" }, "geometry": { "type": "Point", "coordinates": [ 583364.825999999884516, 1661063.424 ] } },
{ "type": "Feature", "properties": { "NAME": "IGLESIA DE DIOS PENTECOSTAL", "ADDRESS": "840 FORT SMITH BLVD", "CITYNAME": "DELTONA", "STATE": "FL", "ZIP": 32738, "PHONE": "386-259-9125", "THEME": "CHURCH", "SOURCE": "PAO", "CRITFACIL": "N" }, "geometry": { "type": "Point", "coordinates": [ 589184.591, 1654559.84299999988 ] } },
{ "type": "Feature", "properties": { "NAME": "KINGDOM HALL OFJEHOVAH'S WITNESSES", "ADDRESS": "717 FORT SMITH BLVD", "CITYNAME": "DELTONA", "STATE": "FL", "ZIP": 32738, "PHONE": "386- 574-5444", "THEME": "CHURCH", "SOURCE": "PAO", "CRITFACIL": "N" }, "geometry": { "type": "Point", "coordinates": [ 589940.862999999895692, 1652909.155 ] } },
{ "type": "Feature", "properties": { "NAME": "IGLESIA HISPANA NAZARENO OF DELTONA", "ADDRESS": "600 FORT SMITH BLVD", "CITYNAME": "DELTONA", "STATE": "FL", "ZIP": 32738, "PHONE": "386- 860-5595", "THEME": "CHURCH", "SOURCE": "PAO", "CRITFACIL": "N" }, "geometry": { "type": "Point", "coordinates": [ 592007.973, 1652203.37799999979 ] } },
{ "type": "Feature", "properties": { "NAME": "OUR LADY OF THE LAKES CATHOLIC CHURCH", "ADDRESS": "1310  MAXIMILIAN ST", "CITYNAME": "DELTONA", "STATE": "FL", "ZIP": 32725, "PHONE": "386- 574-4620", "THEME": "CHURCH", "SOURCE": "PAO", "CRITFACIL": "N" }, "geometry": { "type": "Point", "coordinates": [ 580092.57, 1659099.43799999985 ] } },
{ "type": "Feature", "properties": { "NAME": "DELTONA CHRISTIAN CHURCH", "ADDRESS": "960 E NORMANDY BLVD", "CITYNAME": "DELTONA", "STATE": "FL", "ZIP": 32725, "PHONE": "386- 574-2431", "THEME": "CHURCH", "SOURCE": "PAO", "CRITFACIL": "N" }, "geometry": { "type": "Point", "coordinates": [ 576258.554, 1657989.35299999989 ] } },
{ "type": "Feature", "properties": { "NAME": "PINE RIDGE FELLOWSHIP", "ADDRESS": "1045 E NORMANDY BLVD", "CITYNAME": "DELTONA", "STATE": "FL", "ZIP": 32725, "PHONE": "386- 574-1391", "THEME": "CHURCH", "SOURCE": "PAO", "CRITFACIL": "N" }, "geometry": { "type": "Point", "coordinates": [ 577251.991, 1656691.348 ] } },
{ "type": "Feature", "properties": { "NAME": "DELTONA CHURCH OF CHRIST", "ADDRESS": "1301 PROVIDENCE BLVD", "CITYNAME": "DELTONA", "STATE": "FL", "ZIP": 32725, "PHONE": "386- 574-4641", "THEME": "CHURCH", "SOURCE": "PAO", "CRITFACIL": "N" }, "geometry": { "type": "Point", "coordinates": [ 579754.381, 1654311.82299999986 ] } },
{ "type": "Feature", "properties": { "NAME": "FIRST BAPTIST CHURCH DELTONA", "ADDRESS": "1200 PROVIDENCE BLVD", "CITYNAME": "DELTONA", "STATE": "FL", "ZIP": 32725, "PHONE": "386- 574-1911", "THEME": "CHURCH", "SOURCE": "PAO", "CRITFACIL": "N" }, "geometry": { "type": "Point", "coordinates": [ 578418.208000000100583, 1653098.98299999977 ] } },
{ "type": "Feature", "properties": { "NAME": "INDIAN RIVER BAPTIST CHURCH", "ADDRESS": "1708 S RIDGEWOOD AVE", "CITYNAME": "EDGEWATER", "STATE": "FL", "ZIP": 32132, "PHONE": "386- 427-7449", "THEME": "CHURCH", "SOURCE": "PAO", "CRITFACIL": "N" }, "geometry": { "type": "Point", "coordinates": [ 688771.375, 1687215.5 ] } },
{ "type": "Feature", "properties": { "NAME": "FRIENDSHIP BAPTIST CHURCH", "ADDRESS": "2108 HIBISCUS DR", "CITYNAME": "EDGEWATER", "STATE": "FL", "ZIP": 32141, "PHONE": "386- 423-4846", "THEME": "CHURCH", "SOURCE": "PAO", "CRITFACIL": "N" }, "geometry": { "type": "Point", "coordinates": [ 688085.883, 1683022.292 ] } },
{ "type": "Feature", "properties": { "NAME": "ST GERARD MISSION", "ADDRESS": "3171 S RIDGEWOOD AVE", "CITYNAME": "EDGEWATER", "STATE": "FL", "ZIP": 32141, "PHONE": "386- 428-6930", "THEME": "CHURCH", "SOURCE": "PAO", "CRITFACIL": "N" }, "geometry": { "type": "Point", "coordinates": [ 694351.966, 1676389.444 ] } },
{ "type": "Feature", "properties": { "NAME": "BELLA VISTA BAPTIST CHURCH", "ADDRESS": "3232 S RIDGEWOOD AVE", "CITYNAME": "EDGEWATER", "STATE": "FL", "ZIP": 32141, "PHONE": "386- 428-4747", "THEME": "CHURCH", "SOURCE": "PAO", "CRITFACIL": "N" }, "geometry": { "type": "Point", "coordinates": [ 693331.698, 1676017.571 ] } },
{ "type": "Feature", "properties": { "NAME": "CHURCH OF GOD OF EDGEWATER", "ADDRESS": "3420  WASHINGTON AVE", "CITYNAME": "EDGEWATER", "STATE": "FL", "ZIP": 32141, "PHONE": "386- 427-7115", "THEME": "CHURCH", "SOURCE": "PAO", "CRITFACIL": "N" }, "geometry": { "type": "Point", "coordinates": [ 693386.797, 1674683.60699999984 ] } },
{ "type": "Feature", "properties": { "NAME": "KINGDOM HALL JEHOVAH'S WITNESS", "ADDRESS": "750 N US HWY 1", "CITYNAME": "OAK HILL", "STATE": "FL", "ZIP": 32759, "PHONE": "386- 345-0606", "THEME": "CHURCH", "SOURCE": "PAO", "CRITFACIL": "N" }, "geometry": { "type": "Point", "coordinates": [ 699969.422999999835156, 1659122.035 ] } },
{ "type": "Feature", "properties": { "NAME": "FIRST CHURCH OF THE NAZARENE OAK HILL", "ADDRESS": "480 N US HWY 1", "CITYNAME": "OAK HILL", "STATE": "FL", "ZIP": 32759, "PHONE": "386- 345-1600", "THEME": "CHURCH", "SOURCE": "PAO", "CRITFACIL": "N" }, "geometry": { "type": "Point", "coordinates": [ 701686.629999999888241, 1654805.015 ] } },
{ "type": "Feature", "properties": { "NAME": "TEMPLE BAPTIST CHURCH", "ADDRESS": "730  LEXINGTON AVE", "CITYNAME": "ENTERPRISE", "STATE": "FL", "ZIP": 32725, "PHONE": "386- 668-9171", "THEME": "CHURCH", "SOURCE": "PAO", "CRITFACIL": "N" }, "geometry": { "type": "Point", "coordinates": [ 571070.43, 1650912.42299999972 ] } },
{ "type": "Feature", "properties": { "NAME": "ALL SAINTS EPISCOPAL CHURCH", "ADDRESS": "155 CLARK ST", "CITYNAME": "ENTERPRISE", "STATE": "FL", "ZIP": 32725, "PHONE": "386- 668-4108", "THEME": "CHURCH", "SOURCE": "PAO", "CRITFACIL": "N" }, "geometry": { "type": "Point", "coordinates": [ 570536.281999999890104, 1649165.54 ] } },
{ "type": "Feature", "properties": { "NAME": "DEBARY CONGREGATION JEHOVAH'S WITNESSES", "ADDRESS": "202 DIRKSEN DR", "CITYNAME": "DEBARY", "STATE": "FL", "ZIP": 32713, "PHONE": "386- 668-0887", "THEME": "CHURCH", "SOURCE": "PAO", "CRITFACIL": "N" }, "geometry": { "type": "Point", "coordinates": [ 560734.378, 1648682.57 ] } },
{ "type": "Feature", "properties": { "NAME": "FAITH COMMUNITY CHURCH", "ADDRESS": "138 DIRKSEN DR", "CITYNAME": "DEBARY", "STATE": "FL", "ZIP": 32713, "PHONE": "386- 753-1070", "THEME": "CHURCH", "SOURCE": "PAO", "CRITFACIL": "N" }, "geometry": { "type": "Point", "coordinates": [ 559939.334, 1648581.53599999985 ] } },
{ "type": "Feature", "properties": { "NAME": "FELLOWSHIP BAPTIST CHURCH", "ADDRESS": "114 COURTLAND BLVD", "CITYNAME": "DELTONA", "STATE": "FL", "ZIP": 32738, "PHONE": "(407) 323-6110", "THEME": "CHURCH", "SOURCE": "PAO", "CRITFACIL": "N" }, "geometry": { "type": "Point", "coordinates": [ 596782.771, 1645332.167 ] } },
{ "type": "Feature", "properties": { "NAME": "LA PRIMERA INGLESIA BAUTISTA HISPANA", "ADDRESS": "1651 DOYLE RD", "CITYNAME": "DELTONA", "STATE": "FL", "ZIP": 32725, "PHONE": "386- 574-5846", "THEME": "CHURCH", "SOURCE": "PAO", "CRITFACIL": "N" }, "geometry": { "type": "Point", "coordinates": [ 583385.55, 1649337.954 ] } },
{ "type": "Feature", "properties": { "NAME": "IGLESIA CHRISTIANA DE DELTONA", "ADDRESS": "1596 ENTERPRISE OSTEEN RD", "CITYNAME": "ENTERPRISE", "STATE": "FL", "ZIP": 32725, "PHONE": "386- 860-5404", "THEME": "CHURCH", "SOURCE": "PAO", "CRITFACIL": "N" }, "geometry": { "type": "Point", "coordinates": [ 582899.737, 1644920.993 ] } },
{ "type": "Feature", "properties": { "NAME": "RIVER OF LIFE CHURCH", "ADDRESS": "740  LEXINGTON AVE", "CITYNAME": "ENTERPRISE", "STATE": "FL", "ZIP": 32725, "PHONE": "386- 789-2800", "THEME": "CHURCH", "SOURCE": "PAO", "CRITFACIL": "N" }, "geometry": { "type": "Point", "coordinates": [ 571329.994, 1650921.98199999961 ] } },
{ "type": "Feature", "properties": { "NAME": "PUERTA DEL CIELO ASSEMBLY OF GOD", "ADDRESS": "950  DOYLE RD", "CITYNAME": "DELTONA", "STATE": "FL", "ZIP": 32725, "PHONE": "386- 574-0599", "THEME": "CHURCH", "SOURCE": "PAO", "CRITFACIL": "N" }, "geometry": { "type": "Point", "coordinates": [ 576021.601, 1649234.703 ] } },
{ "type": "Feature", "properties": { "NAME": "BARNETT MEMORIAL UNITED METHODIST CHURCH", "ADDRESS": "715  DEBARY AVE", "CITYNAME": "ENTERPRISE", "STATE": "FL", "ZIP": 32725, "PHONE": "386- 668-2013", "THEME": "CHURCH", "SOURCE": "PAO", "CRITFACIL": "N" }, "geometry": { "type": "Point", "coordinates": [ 571317.807, 1648769.947 ] } },
{ "type": "Feature", "properties": { "NAME": "RIVER OF LIFE CHURCH", "ADDRESS": "130 GARFIELD RD", "CITYNAME": "ENTERPRISE", "STATE": "FL", "ZIP": 32725, "PHONE": "386-860-1234", "THEME": "CHURCH", "SOURCE": "PAO", "CRITFACIL": "N" }, "geometry": { "type": "Point", "coordinates": [ 581245.683, 1647355.082 ] } },
{ "type": "Feature", "properties": { "NAME": "CHRIST WESLEYAN CHURCH", "ADDRESS": "90 GARFIELD RD", "CITYNAME": "DELTONA", "STATE": "FL", "ZIP": 32725, "PHONE": "386- 860-0233", "THEME": "CHURCH", "SOURCE": "PAO", "CRITFACIL": "N" }, "geometry": { "type": "Point", "coordinates": [ 581747.852, 1646731.34299999988 ] } },
{ "type": "Feature", "properties": { "NAME": "CALVARY MISSIONARY BAPTIST CHURCH", "ADDRESS": "671 N SR 415", "CITYNAME": "OSTEEN", "STATE": "FL", "ZIP": 32764, "PHONE": "(407) 323-9949", "THEME": "CHURCH", "SOURCE": "PAO", "CRITFACIL": "N" }, "geometry": { "type": "Point", "coordinates": [ 604367.284, 1646876.78 ] } },
{ "type": "Feature", "properties": { "NAME": "ST JAMES MISSIONARY BAPTIST CHURCH", "ADDRESS": "530 ST MARY ST", "CITYNAME": "OSTEEN", "STATE": "FL", "ZIP": 32764, "PHONE": "(407) 321-4444", "THEME": "CHURCH", "SOURCE": "PAO", "CRITFACIL": "N" }, "geometry": { "type": "Point", "coordinates": [ 603591.368, 1644736.091 ] } },
{ "type": "Feature", "properties": { "NAME": "ST MARYS AME CHURCH", "ADDRESS": "500 ST MARY ST", "CITYNAME": "OSTEEN", "STATE": "FL", "ZIP": 32764, "PHONE": "(407) 322-4079", "THEME": "CHURCH", "SOURCE": "PAO", "CRITFACIL": "N" }, "geometry": { "type": "Point", "coordinates": [ 603599.747, 1644398.18899999978 ] } },
{ "type": "Feature", "properties": { "NAME": "BAPTIST CHURCH", "ADDRESS": "321 N SR 415", "CITYNAME": "OSTEEN", "STATE": "FL", "ZIP": 32764, "PHONE": "386- 323-6132", "THEME": "CHURCH", "SOURCE": "PAO", "CRITFACIL": "N" }, "geometry": { "type": "Point", "coordinates": [ 604419.889, 1641895.493 ] } },
{ "type": "Feature", "properties": { "NAME": "MACEDONIA BAPTIST CHURCH", "ADDRESS": "534 OSTEEN MAYTOWN RD (CR 4164)", "CITYNAME": "OSTEEN", "STATE": "FL", "ZIP": 32764, "PHONE": "(407) 321-1070", "THEME": "CHURCH", "SOURCE": "PAO", "CRITFACIL": "N" }, "geometry": { "type": "Point", "coordinates": [ 608303.7, 1640425.53899999987 ] } },
{ "type": "Feature", "properties": { "NAME": "GLORIOUS UNITED PENTECOSTAL CHURCH OF GOD", "ADDRESS": "541 CR 4164", "CITYNAME": "OSTEEN", "STATE": "FL", "ZIP": 32764, "PHONE": "386- 322-9500", "THEME": "CHURCH", "SOURCE": "PAO", "CRITFACIL": "N" }, "geometry": { "type": "Point", "coordinates": [ 608446.991, 1640219.819 ] } },
{ "type": "Feature", "properties": { "NAME": "OSTEEN UNITED METHODIST CHURCH", "ADDRESS": "179 CARPENTER AVE", "CITYNAME": "OSTEEN", "STATE": "FL", "ZIP": 32764, "PHONE": "(407) 302-2801", "THEME": "CHURCH", "SOURCE": "PAO", "CRITFACIL": "N" }, "geometry": { "type": "Point", "coordinates": [ 604665.416999999899417, 1639568.971 ] } },
{ "type": "Feature", "properties": { "NAME": "FULL GOSPEL CHRISTIAN CENTER", "ADDRESS": "159 N GAINES ST", "CITYNAME": "OAK HILL", "STATE": "FL", "ZIP": 32759, "PHONE": "386- 345-0096", "THEME": "CHURCH", "SOURCE": "PAO", "CRITFACIL": "N" }, "geometry": { "type": "Point", "coordinates": [ 705108.717, 1648032.941 ] } },
{ "type": "Feature", "properties": { "NAME": "FIRST BAPTIST CHURCH OAK HILL", "ADDRESS": "192 E HALIFAX AVE", "CITYNAME": "OAK HILL", "STATE": "FL", "ZIP": 32759, "PHONE": "386- 345-3326", "THEME": "CHURCH", "SOURCE": "PAO", "CRITFACIL": "N" }, "geometry": { "type": "Point", "coordinates": [ 704978.426, 1647019.778 ] } },
{ "type": "Feature", "properties": { "NAME": "SHADY GROVE CHURCH OF GOD", "ADDRESS": "220 S GAINES ST", "CITYNAME": "OAK HILL", "STATE": "FL", "ZIP": 32759, "PHONE": "386- 345-1810", "THEME": "CHURCH", "SOURCE": "PAO", "CRITFACIL": "N" }, "geometry": { "type": "Point", "coordinates": [ 704911.708000000100583, 1645258.063 ] } },
{ "type": "Feature", "properties": { "NAME": "MACEDONIA AME CHURCH", "ADDRESS": "222  CUMMINGS ST", "CITYNAME": "OAK HILL", "STATE": "FL", "ZIP": 32759, "PHONE": "386- 345-4243", "THEME": "CHURCH", "SOURCE": "PAO", "CRITFACIL": "N" }, "geometry": { "type": "Point", "coordinates": [ 701804.431, 1644977.586 ] } },
{ "type": "Feature", "properties": { "NAME": "ST MARTHA MISSIONARY BAPTIST CHURCH", "ADDRESS": "270  FLAMINGO RD", "CITYNAME": "OAK HILL", "STATE": "FL", "ZIP": 32759, "PHONE": "386- 345-3562", "THEME": "CHURCH", "SOURCE": "PAO", "CRITFACIL": "N" }, "geometry": { "type": "Point", "coordinates": [ 702247.636, 1644065.66 ] } },
{ "type": "Feature", "properties": { "NAME": "BIBLEWAY CHURCH OF GOD IN CHRIST", "ADDRESS": "281  FLAMINGO RD", "CITYNAME": "OAK HILL", "STATE": "FL", "ZIP": 32759, "PHONE": "386- 345-1315", "THEME": "CHURCH", "SOURCE": "PAO", "CRITFACIL": "N" }, "geometry": { "type": "Point", "coordinates": [ 702659.894, 1643701.367 ] } },
{ "type": "Feature", "properties": { "NAME": "MACEDONIA MISSIONARY BAPTIST CHURCH", "ADDRESS": "183  SHILOH PT", "CITYNAME": "OAK HILL", "STATE": "FL", "ZIP": 32759, "PHONE": "386- 345-0107", "THEME": "CHURCH", "SOURCE": "PAO", "CRITFACIL": "N" }, "geometry": { "type": "Point", "coordinates": [ 704693.561, 1638038.387 ] } },
{ "type": "Feature", "properties": { "NAME": "FIRST BAPTIST CHURCH", "ADDRESS": "1875  CHURCH ST", "CITYNAME": "SEVILLE", "STATE": "FL", "ZIP": 32190, "PHONE": "386- 749-2394", "THEME": "CHURCH", "SOURCE": "PAO", "CRITFACIL": "N" }, "geometry": { "type": "Point", "coordinates": [ 497969.787, 1813187.027 ] } },
{ "type": "Feature", "properties": { "NAME": "WARD CHAPEL AME CHURCH", "ADDRESS": "1875 BARTON ST", "CITYNAME": "SEVILLE", "STATE": "FL", "ZIP": 32190, "PHONE": "386- 749-1310", "THEME": "CHURCH", "SOURCE": "PAO", "CRITFACIL": "N" }, "geometry": { "type": "Point", "coordinates": [ 499088.321, 1813271.943 ] } },
{ "type": "Feature", "properties": { "NAME": "ST JOHNS MISSIONARY BAPTIST CHURCH", "ADDRESS": "1835  BARTON ST", "CITYNAME": "SEVILLE", "STATE": "FL", "ZIP": 32190, "PHONE": "386- 749-1525", "THEME": "CHURCH", "SOURCE": "PAO", "CRITFACIL": "N" }, "geometry": { "type": "Point", "coordinates": [ 499090.714, 1813080.53599999985 ] } },
{ "type": "Feature", "properties": { "NAME": "COQUINA PRESBYTERIAN CHURCH", "ADDRESS": "2085 W GRANADA BLVD", "CITYNAME": "ORMOND BEACH", "STATE": "FL", "ZIP": 32174, "PHONE": "386- 677-2041", "THEME": "CHURCH", "SOURCE": "PAO", "CRITFACIL": "N" }, "geometry": { "type": "Point", "coordinates": [ 613585.591, 1788623.0 ] } },
{ "type": "Feature", "properties": { "NAME": "RIVERBEND COMMUNITY CHURCH", "ADDRESS": "2080 W GRANADA BLVD", "CITYNAME": "ORMOND BEACH", "STATE": "FL", "ZIP": 32714, "PHONE": "386- 672-1821", "THEME": "CHURCH", "SOURCE": "PAO", "CRITFACIL": "N" }, "geometry": { "type": "Point", "coordinates": [ 613048.683999999891967, 1787234.967 ] } },
{ "type": "Feature", "properties": { "NAME": "OASIS CHRIST FELLOWSHIP", "ADDRESS": "85 S TYMBER CREEK RD", "CITYNAME": "ORMOND BEACH", "STATE": "FL", "ZIP": 32174, "PHONE": "386- 676-2640", "THEME": "CHURCH", "SOURCE": "PAO", "CRITFACIL": "N" }, "geometry": { "type": "Point", "coordinates": [ 615147.375, 1787786.375 ] } },
{ "type": "Feature", "properties": { "NAME": "HOLY DORMITION BYZANTINE CATHOLIC CHURCH", "ADDRESS": "17 BUCKSKIN LN", "CITYNAME": "ORMOND BEACH", "STATE": "FL", "ZIP": 32174, "PHONE": "386- 677-8704", "THEME": "CHURCH", "SOURCE": "PAO", "CRITFACIL": "N" }, "geometry": { "type": "Point", "coordinates": [ 592859.222, 1789092.419 ] } },
{ "type": "Feature", "properties": { "NAME": "BETH JUDAH MESSIANIC CONGREGATIONAL", "ADDRESS": "3217 W SR 40", "CITYNAME": "ORMOND BEACH", "STATE": "FL", "ZIP": 32174, "PHONE": "386- 672-8443", "THEME": "CHURCH", "SOURCE": "PAO", "CRITFACIL": "N" }, "geometry": { "type": "Point", "coordinates": [ 590699.046, 1788667.87899999972 ] } },
{ "type": "Feature", "properties": { "NAME": "RIMA RIDGE BAPTIST CHURCH", "ADDRESS": "11  CONE RD", "CITYNAME": "ORMOND BEACH", "STATE": "FL", "ZIP": 32174, "PHONE": "386- 672-3644", "THEME": "CHURCH", "SOURCE": "PAO", "CRITFACIL": "N" }, "geometry": { "type": "Point", "coordinates": [ 588742.188, 1788675.75 ] } },
{ "type": "Feature", "properties": { "NAME": "ST BRENDAN CHURCH", "ADDRESS": "1000  OCEAN SHORE BLVD", "CITYNAME": "ORMOND BEACH", "STATE": "FL", "ZIP": 32176, "PHONE": "386- 441-1505", "THEME": "CHURCH", "SOURCE": "PAO", "CRITFACIL": "N" }, "geometry": { "type": "Point", "coordinates": [ 639194.031999999890104, 1811089.073 ] } },
{ "type": "Feature", "properties": { "NAME": "ORMOND BEACH PRESBYTERIAN CHURCH", "ADDRESS": "105 AMSDEN RD", "CITYNAME": "ORMOND BEACH", "STATE": "FL", "ZIP": 32176, "PHONE": "386- 441-0300", "THEME": "CHURCH", "SOURCE": "PAO", "CRITFACIL": "N" }, "geometry": { "type": "Point", "coordinates": [ 639580.6, 1807665.084 ] } },
{ "type": "Feature", "properties": { "NAME": "GRACE EVANGELICAL LUTHERAN CHURCH", "ADDRESS": "338  OCEAN SHORE BLVD", "CITYNAME": "ORMOND BEACH", "STATE": "FL", "ZIP": 32176, "PHONE": "386- 677-9141", "THEME": "CHURCH", "SOURCE": "PAO", "CRITFACIL": "N" }, "geometry": { "type": "Point", "coordinates": [ 641899.896, 1805622.097 ] } },
{ "type": "Feature", "properties": { "NAME": "FIRST CHURCH OF CHRIST SCIENTIST", "ADDRESS": "100 N HALIFAX DR", "CITYNAME": "ORMOND BEACH", "STATE": "FL", "ZIP": 32176, "PHONE": "386- 677-9152", "THEME": "CHURCH", "SOURCE": "PAO", "CRITFACIL": "N" }, "geometry": { "type": "Point", "coordinates": [ 641134.285, 1802771.896 ] } },
{ "type": "Feature", "properties": { "NAME": "THE UNITARIAN UNIVERSALIST SOCIETY", "ADDRESS": "56 N HALIFAX DR", "CITYNAME": "ORMOND BEACH", "STATE": "FL", "ZIP": 32176, "PHONE": "386- 677-6172", "THEME": "CHURCH", "SOURCE": "PAO", "CRITFACIL": "N" }, "geometry": { "type": "Point", "coordinates": [ 641398.369, 1802213.563 ] } },
{ "type": "Feature", "properties": { "NAME": "ST JAMES EPISCOPAL CHURCH", "ADDRESS": "44 S HALIFAX DR", "CITYNAME": "ORMOND BEACH", "STATE": "FL", "ZIP": 32176, "PHONE": "386- 677-0872", "THEME": "CHURCH", "SOURCE": "PAO", "CRITFACIL": "N" }, "geometry": { "type": "Point", "coordinates": [ 641707.875, 1801341.052 ] } },
{ "type": "Feature", "properties": { "NAME": "FIRST UNITED METHODIST CHURCH OF ORMOND BEACH", "ADDRESS": "336 S HALIFAX DR", "CITYNAME": "ORMOND BEACH", "STATE": "FL", "ZIP": 32176, "PHONE": "386- 677-3581", "THEME": "CHURCH", "SOURCE": "PAO", "CRITFACIL": "N" }, "geometry": { "type": "Point", "coordinates": [ 642886.681, 1798473.088 ] } },
{ "type": "Feature", "properties": { "NAME": "ORMOND BEACH UNION CHURCH", "ADDRESS": "56 N BEACH ST", "CITYNAME": "ORMOND BEACH", "STATE": "FL", "ZIP": 32174, "PHONE": "386- 677-3363", "THEME": "CHURCH", "SOURCE": "PAO", "CRITFACIL": "N" }, "geometry": { "type": "Point", "coordinates": [ 638151.848, 1800719.41699999967 ] } },
{ "type": "Feature", "properties": { "NAME": "EMMANUEL CHURCH OF THE LIVING GOD", "ADDRESS": "54 S RIDGEWOOD AVE", "CITYNAME": "ORMOND BEACH", "STATE": "FL", "ZIP": 32174, "PHONE": "386- 673-7651", "THEME": "CHURCH", "SOURCE": "PAO", "CRITFACIL": "N" }, "geometry": { "type": "Point", "coordinates": [ 637532.200999999884516, 1799154.116 ] } },
{ "type": "Feature", "properties": { "NAME": "STRONG TOWER CHRISTIAN FELLOWSHIP", "ADDRESS": "90 S RIDGEWOOD AVE", "CITYNAME": "ORMOND BEACH", "STATE": "FL", "ZIP": 32174, "PHONE": "386- 675-5388", "THEME": "CHURCH", "SOURCE": "PAO", "CRITFACIL": "N" }, "geometry": { "type": "Point", "coordinates": [ 637643.418999999877997, 1798916.56899999967 ] } },
{ "type": "Feature", "properties": { "NAME": "EMMANUEL MISSIONARY BAPTIST CHURCH", "ADDRESS": "242  TOMOKA AVE", "CITYNAME": "ORMOND BEACH", "STATE": "FL", "ZIP": 32174, "PHONE": "386- 673-6953", "THEME": "CHURCH", "SOURCE": "PAO", "CRITFACIL": "N" }, "geometry": { "type": "Point", "coordinates": [ 636509.212, 1798444.997 ] } },
{ "type": "Feature", "properties": { "NAME": "CHRISTIAN MISS APOSTOLIC CHURCH", "ADDRESS": "131 S WASHINGTON ST", "CITYNAME": "ORMOND BEACH", "STATE": "FL", "ZIP": 32174, "PHONE": "386- 673-5963", "THEME": "CHURCH", "SOURCE": "PAO", "CRITFACIL": "N" }, "geometry": { "type": "Point", "coordinates": [ 637279.257, 1798232.75299999979 ] } },
{ "type": "Feature", "properties": { "NAME": "ALLIANCE COMMUNITY CHURCH OF ORMOND BEACH", "ADDRESS": "55 N NOVA RD", "CITYNAME": "ORMOND BEACH", "STATE": "FL", "ZIP": 32174, "PHONE": "386- 677-0242", "THEME": "CHURCH", "SOURCE": "PAO", "CRITFACIL": "N" }, "geometry": { "type": "Point", "coordinates": [ 629985.331999999820255, 1798077.841 ] } },
{ "type": "Feature", "properties": { "NAME": "NEW BETHEL AME CHURCH", "ADDRESS": "115 S YONGE ST", "CITYNAME": "ORMOND BEACH", "STATE": "FL", "ZIP": 32174, "PHONE": "386- 677-8225", "THEME": "CHURCH", "SOURCE": "PAO", "CRITFACIL": "N" }, "geometry": { "type": "Point", "coordinates": [ 636973.217, 1798075.149 ] } },
{ "type": "Feature", "properties": { "NAME": "HARBOR BAPTIST CHURCH", "ADDRESS": "428  TOMOKA AVE", "CITYNAME": "ORMOND BEACH", "STATE": "FL", "ZIP": 32174, "PHONE": "386- 677-3116", "THEME": "CHURCH", "SOURCE": "PAO", "CRITFACIL": "N" }, "geometry": { "type": "Point", "coordinates": [ 634820.695, 1797547.715 ] } },
{ "type": "Feature", "properties": { "NAME": "UNITED BIBLEWAY CHURCH OF GOD", "ADDRESS": "212 S YONGE ST", "CITYNAME": "ORMOND BEACH", "STATE": "FL", "ZIP": 32174, "PHONE": "386- 673-2553", "THEME": "CHURCH", "SOURCE": "PAO", "CRITFACIL": "N" }, "geometry": { "type": "Point", "coordinates": [ 637227.543, 1797144.235 ] } },
{ "type": "Feature", "properties": { "NAME": "CHURCH OF GOD BY FAITH", "ADDRESS": "239 S YONGE ST", "CITYNAME": "ORMOND BEACH", "STATE": "FL", "ZIP": 32174, "PHONE": "386- 676-0012", "THEME": "CHURCH", "SOURCE": "PAO", "CRITFACIL": "N" }, "geometry": { "type": "Point", "coordinates": [ 637492.993, 1797045.524 ] } },
{ "type": "Feature", "properties": { "NAME": "TEMPLE BETH EL", "ADDRESS": "579 N NOVA RD", "CITYNAME": "ORMOND BEACH", "STATE": "FL", "ZIP": 32114, "PHONE": "386- 677-2484", "THEME": "CHURCH", "SOURCE": "PAO", "CRITFACIL": "N" }, "geometry": { "type": "Point", "coordinates": [ 628586.426, 1802823.96099999966 ] } },
{ "type": "Feature", "properties": { "NAME": "CONGREGATION B'NAI TORAH", "ADDRESS": "401 N NOVA RD", "CITYNAME": "ORMOND BEACH", "STATE": "FL", "ZIP": 32174, "PHONE": "386- 672-1174", "THEME": "CHURCH", "SOURCE": "PAO", "CRITFACIL": "N" }, "geometry": { "type": "Point", "coordinates": [ 629566.038, 1800459.563 ] } },
{ "type": "Feature", "properties": { "NAME": "CHRIST UNITED PRESBYTERIAN CHURCH", "ADDRESS": "1035 W GRANADA BLVD", "CITYNAME": "ORMOND BEACH", "STATE": "FL", "ZIP": 32174, "PHONE": "386- 677-4076", "THEME": "CHURCH", "SOURCE": "PAO", "CRITFACIL": "N" }, "geometry": { "type": "Point", "coordinates": [ 627053.399, 1797280.422 ] } },
{ "type": "Feature", "properties": { "NAME": "TOMOKA UNITED METHODIST CHURCH", "ADDRESS": "1000 OLD TOMOKA RD", "CITYNAME": "ORMOND BEACH", "STATE": "FL", "ZIP": 32174, "PHONE": "386- 672-6722", "THEME": "CHURCH", "SOURCE": "PAO", "CRITFACIL": "N" }, "geometry": { "type": "Point", "coordinates": [ 627331.477999999886379, 1797045.598 ] } },
{ "type": "Feature", "properties": { "NAME": "THE ESFORMES CHABAD-LUBAVITCH JEWISH CENTER", "ADDRESS": "1079 W GRANADA BLVD", "CITYNAME": "ORMOND BEACH", "STATE": "FL", "ZIP": 32174, "PHONE": "386- 672-9300", "THEME": "CHURCH", "SOURCE": "PAO", "CRITFACIL": "N" }, "geometry": { "type": "Point", "coordinates": [ 625938.262000000104308, 1796022.214 ] } },
{ "type": "Feature", "properties": { "NAME": "GRACE COMMUNITY CHURCH", "ADDRESS": "1060 W GRANADA BLVD", "CITYNAME": "ORMOND BEACH", "STATE": "FL", "ZIP": 32174, "PHONE": "386- 673-0145", "THEME": "CHURCH", "SOURCE": "PAO", "CRITFACIL": "N" }, "geometry": { "type": "Point", "coordinates": [ 626136.81, 1795782.05299999984 ] } },
{ "type": "Feature", "properties": { "NAME": "TOMOKA CHRISTIAN CHURCH", "ADDRESS": "1450 HAND AV", "CITYNAME": "ORMOND BEACH", "STATE": "FL", "ZIP": 32174, "PHONE": "386- 677-6455", "THEME": "CHURCH", "SOURCE": "PAO", "CRITFACIL": "N" }, "geometry": { "type": "Point", "coordinates": [ 627623.976, 1791137.601 ] } },
{ "type": "Feature", "properties": { "NAME": "OUR LADY OF LOURDES", "ADDRESS": "1020 N HALIFAX AVE", "CITYNAME": "DAYTONA BEACH", "STATE": "FL", "ZIP": 32118, "PHONE": "386- 253-0770", "THEME": "CHURCH", "SOURCE": "PAO", "CRITFACIL": "N" }, "geometry": { "type": "Point", "coordinates": [ 649452.273, 1783842.737 ] } },
{ "type": "Feature", "properties": { "NAME": "ORMOND BEACH FIRST CHRISTIAN CHURCH", "ADDRESS": "50  SEVILLE ST", "CITYNAME": "ORMOND BEACH", "STATE": "FL", "ZIP": 32174, "PHONE": "386- 677-1121", "THEME": "CHURCH", "SOURCE": "PAO", "CRITFACIL": "N" }, "geometry": { "type": "Point", "coordinates": [ 641070.224, 1792610.54 ] } },
{ "type": "Feature", "properties": { "NAME": "CHURCH OF CHRIST HOLLY HILL", "ADDRESS": "1725  RIDGEWOOD AVE", "CITYNAME": "HOLLY HILL", "STATE": "FL", "ZIP": 32117, "PHONE": "386- 677-5323", "THEME": "CHURCH", "SOURCE": "PAO", "CRITFACIL": "N" }, "geometry": { "type": "Point", "coordinates": [ 640604.803, 1790822.773 ] } },
{ "type": "Feature", "properties": { "NAME": "HOLLY HEIGHTS ASSEMBLY OF GOD", "ADDRESS": "340 FLOMICH ST", "CITYNAME": "HOLLY HILL", "STATE": "FL", "ZIP": 32117, "PHONE": "386- 677-3339", "THEME": "CHURCH", "SOURCE": "PAO", "CRITFACIL": "N" }, "geometry": { "type": "Point", "coordinates": [ 640635.181, 1789041.389 ] } },
{ "type": "Feature", "properties": { "NAME": "TRINITY EVANGELICAL LUTHERAN CHURCH", "ADDRESS": "1205  RIDGEWOOD AVE", "CITYNAME": "HOLLY HILL", "STATE": "FL", "ZIP": 32117, "PHONE": "386- 255-7580", "THEME": "CHURCH", "SOURCE": "PAO", "CRITFACIL": "N" }, "geometry": { "type": "Point", "coordinates": [ 642620.041999999899417, 1786466.667 ] } },
{ "type": "Feature", "properties": { "NAME": "PENTECOSTAL CHURCH OF GOD", "ADDRESS": "1251 GRAHAM AVE", "CITYNAME": "HOLLY HILL", "STATE": "FL", "ZIP": 32117, "PHONE": null, "THEME": "CHURCH", "SOURCE": "PAO", "CRITFACIL": "N" }, "geometry": { "type": "Point", "coordinates": [ 640607.009, 1785995.172 ] } },
{ "type": "Feature", "properties": { "NAME": "UNION CONGREGATIONAL CHURCH", "ADDRESS": "1050  DAYTONA AVE", "CITYNAME": "HOLLY HILL", "STATE": "FL", "ZIP": 32117, "PHONE": "386- 253-1323", "THEME": "CHURCH", "SOURCE": "PAO", "CRITFACIL": "N" }, "geometry": { "type": "Point", "coordinates": [ 643697.973, 1785386.624 ] } },
{ "type": "Feature", "properties": { "NAME": "ST PAUL MISSIONARY  BAPTIST CHURCH", "ADDRESS": "1125 GRAHAM AVE", "CITYNAME": "HOLLY HILL", "STATE": "FL", "ZIP": 32117, "PHONE": "386-255-0207", "THEME": "CHURCH", "SOURCE": "PAO", "CRITFACIL": "N" }, "geometry": { "type": "Point", "coordinates": [ 641017.674000000115484, 1785110.871 ] } },
{ "type": "Feature", "properties": { "NAME": "UNITY CENTER OF CHRIST", "ADDRESS": "908 RIDGEWOOD AVE", "CITYNAME": "HOLLY HILL", "STATE": "FL", "ZIP": 32117, "PHONE": "386- 253-4201", "THEME": "CHURCH", "SOURCE": "PAO", "CRITFACIL": "N" }, "geometry": { "type": "Point", "coordinates": [ 643564.391, 1783956.00499999966 ] } },
{ "type": "Feature", "properties": { "NAME": "RIVERVIEW METHODIST CHURCH OF ORMOND BEACH", "ADDRESS": "2253 JOHN ANDERSON DR", "CITYNAME": "ORMOND BEACH", "STATE": "FL", "ZIP": 32176, "PHONE": "386- 441-1622", "THEME": "CHURCH", "SOURCE": "PAO", "CRITFACIL": "N" }, "geometry": { "type": "Point", "coordinates": [ 633114.458000000100583, 1822417.86799999978 ] } },
{ "type": "Feature", "properties": { "NAME": "NORTH PENINSULA BAPTIST CHURCH", "ADDRESS": "6 SANDRA DR", "CITYNAME": "ORMOND BEACH", "STATE": "FL", "ZIP": 32176, "PHONE": "386- 441-2133", "THEME": "CHURCH", "SOURCE": "PAO", "CRITFACIL": "N" }, "geometry": { "type": "Point", "coordinates": [ 635827.386, 1820000.281 ] } },
{ "type": "Feature", "properties": { "NAME": "ANCHOR BAPTIST CHURCH", "ADDRESS": "216 BUNNELL RD (CR 305)", "CITYNAME": "SEVILLE", "STATE": "FL", "ZIP": 32190, "PHONE": "386- 749-4836", "THEME": "CHURCH", "SOURCE": "PAO", "CRITFACIL": "N" }, "geometry": { "type": "Point", "coordinates": [ 499716.031, 1812073.637 ] } },
{ "type": "Feature", "properties": { "NAME": "TRINITY UNITED METHODIST CHURCH", "ADDRESS": "185 LEMON RD", "CITYNAME": "SEVILLE", "STATE": "FL", "ZIP": 32190, "PHONE": "386- 749-2804", "THEME": "CHURCH", "SOURCE": "PAO", "CRITFACIL": "N" }, "geometry": { "type": "Point", "coordinates": [ 498233.583, 1811318.453 ] } },
{ "type": "Feature", "properties": { "NAME": "NEW BETHEL BAPTIST CHURCH", "ADDRESS": "706 N CENTER ST", "CITYNAME": "PIERSON", "STATE": "FL", "ZIP": 32180, "PHONE": "386-749-4484", "THEME": "CHURCH", "SOURCE": "PAO", "CRITFACIL": "N" }, "geometry": { "type": "Point", "coordinates": [ 505882.195, 1791292.23 ] } },
{ "type": "Feature", "properties": { "NAME": "PINEY GROVE  FREE WILL BAPTIST CHURCH", "ADDRESS": "585 N VOLUSIA AVE", "CITYNAME": "PIERSON", "STATE": "FL", "ZIP": 32180, "PHONE": "386-259-4519", "THEME": "CHURCH", "SOURCE": "PAO", "CRITFACIL": "N" }, "geometry": { "type": "Point", "coordinates": [ 505517.877, 1789592.083 ] } },
{ "type": "Feature", "properties": { "NAME": "PIERSON CHURCH OF GOD", "ADDRESS": "315  SILVER RD", "CITYNAME": "PIERSON", "STATE": "FL", "ZIP": 32180, "PHONE": "386- 749-2940", "THEME": "CHURCH", "SOURCE": "PAO", "CRITFACIL": "N" }, "geometry": { "type": "Point", "coordinates": [ 505154.442, 1789439.556 ] } },
{ "type": "Feature", "properties": { "NAME": "CHURCH OF GOD OF PROPHECY", "ADDRESS": "220 W WASHINGTON AVE", "CITYNAME": "PIERSON", "STATE": "FL", "ZIP": 32180, "PHONE": "386-717-6553", "THEME": "CHURCH", "SOURCE": "PAO", "CRITFACIL": "N" }, "geometry": { "type": "Point", "coordinates": [ 506827.13, 1785786.334 ] } },
{ "type": "Feature", "properties": { "NAME": "COMMUNITY CHRISTIAN ASSEMBLY", "ADDRESS": "235 W WASHINGTON AVE", "CITYNAME": "PIERSON", "STATE": "FL", "ZIP": 32180, "PHONE": "386- 749-4862", "THEME": "CHURCH", "SOURCE": "PAO", "CRITFACIL": "N" }, "geometry": { "type": "Point", "coordinates": [ 506632.375, 1785551.25 ] } },
{ "type": "Feature", "properties": { "NAME": "PIERSON UNITED METHODIST CHURCH", "ADDRESS": "136 W 2ND AVE", "CITYNAME": "PIERSON", "STATE": "FL", "ZIP": 32180, "PHONE": "386- 749-4391", "THEME": "CHURCH", "SOURCE": "PAO", "CRITFACIL": "N" }, "geometry": { "type": "Point", "coordinates": [ 507957.331, 1783765.43 ] } },
{ "type": "Feature", "properties": { "NAME": "EBENEZER LUTHERAN CHURCH", "ADDRESS": "139 S VOLUSIA AVE", "CITYNAME": "PIERSON", "STATE": "FL", "ZIP": 32180, "PHONE": "386- 749-2676", "THEME": "CHURCH", "SOURCE": "PAO", "CRITFACIL": "N" }, "geometry": { "type": "Point", "coordinates": [ 507342.423, 1782897.174 ] } },
{ "type": "Feature", "properties": { "NAME": "MT ZION PRIMITIVE BAPTIST CHURCH & CEMETARY", "ADDRESS": "172 S VOLUSIA AVE", "CITYNAME": "PIERSON", "STATE": "FL", "ZIP": 32180, "PHONE": null, "THEME": "CHURCH", "SOURCE": "PAO", "CRITFACIL": "N" }, "geometry": { "type": "Point", "coordinates": [ 507129.335, 1782580.649 ] } },
{ "type": "Feature", "properties": { "NAME": "FIRST BAPTIST CHURCH  PIERSON", "ADDRESS": "166 W 3RD AVE", "CITYNAME": "PIERSON", "STATE": "FL", "ZIP": 32180, "PHONE": "386- 749-2204", "THEME": "CHURCH", "SOURCE": "PAO", "CRITFACIL": "N" }, "geometry": { "type": "Point", "coordinates": [ 507565.718, 1782399.051 ] } },
{ "type": "Feature", "properties": { "NAME": "MISSIONARY PENTECOSTAL HOLINES", "ADDRESS": "274 S CENTER ST", "CITYNAME": "PIERSON", "STATE": "FL", "ZIP": 32180, "PHONE": null, "THEME": "CHURCH", "SOURCE": "PAO", "CRITFACIL": "N" }, "geometry": { "type": "Point", "coordinates": [ 508408.534, 1781428.13599999971 ] } },
{ "type": "Feature", "properties": { "NAME": "IGLESIAS RIQUEZAS EN GLORIA", "ADDRESS": "1127 DERBYSHIRE RD", "CITYNAME": "DAYTONA BEACH", "STATE": "FL", "ZIP": 32117, "PHONE": "386- 677-3590", "THEME": "CHURCH", "SOURCE": "PAO", "CRITFACIL": "N" }, "geometry": { "type": "Point", "coordinates": [ 634940.570999999879859, 1782479.384 ] } },
{ "type": "Feature", "properties": { "NAME": "CENTERPOINT CHURCH", "ADDRESS": "825 CENTER AVE", "CITYNAME": "HOLLY HILL", "STATE": "FL", "ZIP": 32117, "PHONE": "386- 255-0849", "THEME": "CHURCH", "SOURCE": "PAO", "CRITFACIL": "N" }, "geometry": { "type": "Point", "coordinates": [ 641235.225, 1782317.88499999978 ] } },
{ "type": "Feature", "properties": { "NAME": "DESTINY CHURCH OF DAYTONA", "ADDRESS": "1050 DERBYSHIRE RD", "CITYNAME": "DAYTONA BEACH", "STATE": "FL", "ZIP": 32117, "PHONE": "386-239-8344", "THEME": "CHURCH", "SOURCE": "PAO", "CRITFACIL": "N" }, "geometry": { "type": "Point", "coordinates": [ 635046.387000000104308, 1781619.858 ] } },
{ "type": "Feature", "properties": { "NAME": "DAYTONA BEACH CHURCH OF CHRIST", "ADDRESS": "1040  DERBYSHIRE RD", "CITYNAME": "DAYTONA BEACH", "STATE": "FL", "ZIP": 32117, "PHONE": "386- 255-6971", "THEME": "CHURCH", "SOURCE": "PAO", "CRITFACIL": "N" }, "geometry": { "type": "Point", "coordinates": [ 635239.541999999899417, 1781294.222 ] } },
{ "type": "Feature", "properties": { "NAME": "HOUSE OF PRAYER CHRISTIAN CHURCH", "ADDRESS": "1398  HURST ST", "CITYNAME": "DAYTONA BEACH", "STATE": "FL", "ZIP": 32117, "PHONE": "386- 257-4673", "THEME": "CHURCH", "SOURCE": "PAO", "CRITFACIL": "N" }, "geometry": { "type": "Point", "coordinates": [ 633945.098, 1781062.419 ] } },
{ "type": "Feature", "properties": { "NAME": "FIRST  UNITED METHODIST CHURCH - DERBYSHIRE RD", "ADDRESS": "962  DERBYSHIRE RD", "CITYNAME": "DAYTONA BEACH", "STATE": "FL", "ZIP": 32117, "PHONE": "386-767-6161", "THEME": "CHURCH", "SOURCE": "PAO", "CRITFACIL": "N" }, "geometry": { "type": "Point", "coordinates": [ 635668.368, 1780432.115 ] } },
{ "type": "Feature", "properties": { "NAME": "LIVING FAITH WORLD MINISTRIES", "ADDRESS": "950  DERBYSHIRE RD", "CITYNAME": "DAYTONA BEACH", "STATE": "FL", "ZIP": 32117, "PHONE": "386- 258-1258", "THEME": "CHURCH", "SOURCE": "PAO", "CRITFACIL": "N" }, "geometry": { "type": "Point", "coordinates": [ 635702.941000000108033, 1779684.374 ] } },
{ "type": "Feature", "properties": { "NAME": "CHURCH OF JESUS CHRIST OF LATTER DAY SAINTS", "ADDRESS": "1125  6TH ST", "CITYNAME": "DAYTONA BEACH", "STATE": "FL", "ZIP": 32117, "PHONE": "386- 255-4004", "THEME": "CHURCH", "SOURCE": "PAO", "CRITFACIL": "N" }, "geometry": { "type": "Point", "coordinates": [ 638053.097, 1778836.069 ] } },
{ "type": "Feature", "properties": { "NAME": "DAYTONA CHRISTIAN CHURCH", "ADDRESS": "1135  6TH ST", "CITYNAME": "DAYTONA BEACH", "STATE": "FL", "ZIP": 32117, "PHONE": "386- 255-0561", "THEME": "CHURCH", "SOURCE": "PAO", "CRITFACIL": "N" }, "geometry": { "type": "Point", "coordinates": [ 637784.25, 1778645.875 ] } },
{ "type": "Feature", "properties": { "NAME": "HOPE FELLOWSHIP CHURCH", "ADDRESS": "869  DERBYSHIRE RD", "CITYNAME": "DAYTONA BEACH", "STATE": "FL", "ZIP": 32117, "PHONE": "386- 226-1122", "THEME": "CHURCH", "SOURCE": "PAO", "CRITFACIL": "N" }, "geometry": { "type": "Point", "coordinates": [ 637470.913, 1777310.286 ] } },
{ "type": "Feature", "properties": { "NAME": "CHURCH OF GOD OF PROPHECY", "ADDRESS": "955  VINE ST", "CITYNAME": "DAYTONA BEACH", "STATE": "FL", "ZIP": 32117, "PHONE": "386- 252-5482", "THEME": "CHURCH", "SOURCE": "PAO", "CRITFACIL": "N" }, "geometry": { "type": "Point", "coordinates": [ 639291.908, 1777317.301 ] } },
{ "type": "Feature", "properties": { "NAME": "WESTSIDE BAPTIST CHURCH", "ADDRESS": "1085 MASON AV", "CITYNAME": "DAYTONA BEACH", "STATE": "FL", "ZIP": 32114, "PHONE": "386- 252-0461", "THEME": "CHURCH", "SOURCE": "PAO", "CRITFACIL": "N" }, "geometry": { "type": "Point", "coordinates": [ 639376.185, 1775250.59399999981 ] } },
{ "type": "Feature", "properties": { "NAME": "MADISON HEIGHTS CHURCH OF GOD IN CHRIST", "ADDRESS": "780 INDIANA ST", "CITYNAME": "DAYTONA BEACH", "STATE": "FL", "ZIP": 32114, "PHONE": "386- 257-7734", "THEME": "CHURCH", "SOURCE": "PAO", "CRITFACIL": "N" }, "geometry": { "type": "Point", "coordinates": [ 635149.231, 1772894.5 ] } },
{ "type": "Feature", "properties": { "NAME": "CHURCH OF GOD", "ADDRESS": "753 TENNESSEE ST", "CITYNAME": "DAYTONA BEACH", "STATE": "FL", "ZIP": 32114, "PHONE": "386- 257-3502", "THEME": "CHURCH", "SOURCE": "PAO", "CRITFACIL": "N" }, "geometry": { "type": "Point", "coordinates": [ 635950.233, 1772836.087 ] } },
{ "type": "Feature", "properties": { "NAME": "TUBMAN KING COMMUNITY CHURCH", "ADDRESS": "1090 GEORGE W ENGRAM BLVD", "CITYNAME": "DAYTONA BEACH", "STATE": "FL", "ZIP": 32114, "PHONE": "386- 258-5683", "THEME": "CHURCH", "SOURCE": "PAO", "CRITFACIL": "N" }, "geometry": { "type": "Point", "coordinates": [ 640885.146, 1772593.888 ] } },
{ "type": "Feature", "properties": { "NAME": "KINGDOM HALL JEHOVAHS WITNESS", "ADDRESS": "500  COLFAX DR", "CITYNAME": "DAYTONA BEACH", "STATE": "FL", "ZIP": 32117, "PHONE": "386- 258-5950", "THEME": "CHURCH", "SOURCE": "PAO", "CRITFACIL": "N" }, "geometry": { "type": "Point", "coordinates": [ 640331.878, 1772619.557 ] } },
{ "type": "Feature", "properties": { "NAME": "ST JAMES MISSIONARY BAPTIST CHURCH", "ADDRESS": "732 TENNESSEE ST", "CITYNAME": "DAYTONA BEACH", "STATE": "FL", "ZIP": 32114, "PHONE": "386- 248-0841", "THEME": "CHURCH", "SOURCE": "PAO", "CRITFACIL": "N" }, "geometry": { "type": "Point", "coordinates": [ 635965.575999999768101, 1772450.20099999988 ] } },
{ "type": "Feature", "properties": { "NAME": "SEVENTH DAY ADVENTIST CHURCH", "ADDRESS": "401 N WILLIAMSON BLVD", "CITYNAME": "DAYTONA BEACH", "STATE": "FL", "ZIP": 32114, "PHONE": "386- 255-5144", "THEME": "CHURCH", "SOURCE": "PAO", "CRITFACIL": "N" }, "geometry": { "type": "Point", "coordinates": [ 629736.531999999890104, 1766547.972 ] } },
{ "type": "Feature", "properties": { "NAME": "CHRIST EVANGELICAL FREE CHURCH", "ADDRESS": "329 N WILLIAMSON BLVD", "CITYNAME": "DAYTONA BEACH", "STATE": "FL", "ZIP": 32114, "PHONE": "386- 238-1956", "THEME": "CHURCH", "SOURCE": "PAO", "CRITFACIL": "N" }, "geometry": { "type": "Point", "coordinates": [ 630032.916999999899417, 1765940.208 ] } },
{ "type": "Feature", "properties": { "NAME": "DAYTONA BEACH ASSEMBLY HALL OF JEHOVAH'S WITNESSES", "ADDRESS": "299 N TOMOKA FARMS RD", "CITYNAME": "DAYTONA BEACH", "STATE": "FL", "ZIP": 32114, "PHONE": "386- 226-1288", "THEME": "CHURCH", "SOURCE": "PAO", "CRITFACIL": "N" }, "geometry": { "type": "Point", "coordinates": [ 627925.668999999877997, 1760070.816 ] } },
{ "type": "Feature", "properties": { "NAME": "PORT OF FAITH CHAPEL", "ADDRESS": "101 INDIGO DR", "CITYNAME": "DAYTONA BEACH", "STATE": "FL", "ZIP": 32114, "PHONE": "386- 253-2484", "THEME": "CHURCH", "SOURCE": "PAO", "CRITFACIL": "N" }, "geometry": { "type": "Point", "coordinates": [ 628792.677, 1760337.328 ] } },
{ "type": "Feature", "properties": { "NAME": "SEABREEZE UNITED CHURCH", "ADDRESS": "501 N WILD OLIVE AVE", "CITYNAME": "DAYTONA BEACH", "STATE": "FL", "ZIP": 32118, "PHONE": "386- 252-6314", "THEME": "CHURCH", "SOURCE": "PAO", "CRITFACIL": "N" }, "geometry": { "type": "Point", "coordinates": [ 651616.806, 1781132.675 ] } },
{ "type": "Feature", "properties": { "NAME": "SAINT GEORGE COPTIC ORTHODOX CHURCH", "ADDRESS": "300 N HALIFAX DR", "CITYNAME": "DAYTONA BEACH", "STATE": "FL", "ZIP": 32118, "PHONE": "386- 257-1122", "THEME": "CHURCH", "SOURCE": "PAO", "CRITFACIL": "N" }, "geometry": { "type": "Point", "coordinates": [ 651110.762000000104308, 1779892.084 ] } },
{ "type": "Feature", "properties": { "NAME": "CALVARY BAPTIST CHURCH", "ADDRESS": "210 N PENINSULA DR", "CITYNAME": "DAYTONA BEACH", "STATE": "FL", "ZIP": 32118, "PHONE": "386- 252-3912", "THEME": "CHURCH", "SOURCE": "PAO", "CRITFACIL": "N" }, "geometry": { "type": "Point", "coordinates": [ 651627.664, 1779405.664 ] } },
{ "type": "Feature", "properties": { "NAME": "ST DEMETRIOS GREEK ORTHODOX CHURCH", "ADDRESS": "134 N HALIFAX AVE", "CITYNAME": "DAYTONA BEACH", "STATE": "FL", "ZIP": 32118, "PHONE": "386- 252-6012", "THEME": "CHURCH", "SOURCE": "PAO", "CRITFACIL": "N" }, "geometry": { "type": "Point", "coordinates": [ 651254.868, 1778804.969 ] } },
{ "type": "Feature", "properties": { "NAME": "COMMUNITY METHODIST EPISCOPAL CHURCH", "ADDRESS": "616  HARVEY AVE", "CITYNAME": "DAYTONA BEACH", "STATE": "FL", "ZIP": 32118, "PHONE": "386- 252-3655", "THEME": "CHURCH", "SOURCE": "PAO", "CRITFACIL": "N" }, "geometry": { "type": "Point", "coordinates": [ 653340.004999999888241, 1777830.021 ] } },
{ "type": "Feature", "properties": { "NAME": "INTERNATIONAL  MIRACLE CENTER", "ADDRESS": "507 5TH AVE", "CITYNAME": "DAYTONA BEACH", "STATE": "FL", "ZIP": 32118, "PHONE": "386-257-4622", "THEME": "CHURCH", "SOURCE": "PAO", "CRITFACIL": "N" }, "geometry": { "type": "Point", "coordinates": [ 653306.431, 1777178.08799999976 ] } },
{ "type": "Feature", "properties": { "NAME": "FIRST PRESBYTERIAN CHURCH", "ADDRESS": "620 S GRANDVIEW AVE", "CITYNAME": "DAYTONA BEACH", "STATE": "FL", "ZIP": 32118, "PHONE": "386- 253-4581", "THEME": "CHURCH", "SOURCE": "PAO", "CRITFACIL": "N" }, "geometry": { "type": "Point", "coordinates": [ 654070.125, 1775482.87499999977 ] } },
{ "type": "Feature", "properties": { "NAME": "KOREAN BAPTIST CHURCH OF DAYTONA", "ADDRESS": "406 SILVER BEACH AVE", "CITYNAME": "DAYTONA BEACH", "STATE": "FL", "ZIP": 32118, "PHONE": "386- 252-8273", "THEME": "CHURCH", "SOURCE": "PAO", "CRITFACIL": "N" }, "geometry": { "type": "Point", "coordinates": [ 654912.768, 1773379.719 ] } },
{ "type": "Feature", "properties": { "NAME": "RIDGEWOOD AVE BAPTIST CHURCH", "ADDRESS": "501 RIDGEWOOD AVE", "CITYNAME": "HOLLY HILL", "STATE": "FL", "ZIP": 32114, "PHONE": "386- 252-5873", "THEME": "CHURCH", "SOURCE": "PAO", "CRITFACIL": "N" }, "geometry": { "type": "Point", "coordinates": [ 645077.227, 1781651.79399999976 ] } },
{ "type": "Feature", "properties": { "NAME": "HOUSE OF GOD OF DAYTONA BEACH", "ADDRESS": "138  MADISON AVE", "CITYNAME": "DAYTONA BEACH", "STATE": "FL", "ZIP": 32114, "PHONE": "386- 252-7270", "THEME": "CHURCH", "SOURCE": "PAO", "CRITFACIL": "N" }, "geometry": { "type": "Point", "coordinates": [ 647685.507, 1778061.296 ] } },
{ "type": "Feature", "properties": { "NAME": "CENTRAL BAPTIST CHURCH", "ADDRESS": "142  FAIRVIEW AVE", "CITYNAME": "DAYTONA BEACH", "STATE": "FL", "ZIP": 32114, "PHONE": "386- 255-2588", "THEME": "CHURCH", "SOURCE": "PAO", "CRITFACIL": "N" }, "geometry": { "type": "Point", "coordinates": [ 648211.222, 1776725.876 ] } },
{ "type": "Feature", "properties": { "NAME": "MORNING STAR BAPTIST CHURCH", "ADDRESS": "635  MADISON AVE", "CITYNAME": "DAYTONA BEACH", "STATE": "FL", "ZIP": 32114, "PHONE": "386- 252-1270", "THEME": "CHURCH", "SOURCE": "PAO", "CRITFACIL": "N" }, "geometry": { "type": "Point", "coordinates": [ 644825.187, 1776597.403 ] } },
{ "type": "Feature", "properties": { "NAME": "CHURCH OF GOD", "ADDRESS": "433 N RIDGEWOOD", "CITYNAME": "DAYTONA BEACH", "STATE": "FL", "ZIP": 32114, "PHONE": "386- 258-6074", "THEME": "CHURCH", "SOURCE": "PAO", "CRITFACIL": "N" }, "geometry": { "type": "Point", "coordinates": [ 647509.852999999886379, 1776101.235 ] } },
{ "type": "Feature", "properties": { "NAME": "SEVENTH DAY BAPTIST CHURCH", "ADDRESS": "145 FIRST AVE", "CITYNAME": "DAYTONA BEACH", "STATE": "FL", "ZIP": 32114, "PHONE": "386- 255-4775", "THEME": "CHURCH", "SOURCE": "PAO", "CRITFACIL": "N" }, "geometry": { "type": "Point", "coordinates": [ 648469.437, 1775428.084 ] } },
{ "type": "Feature", "properties": { "NAME": "ALLEN CHAPEL AME CHURCH", "ADDRESS": "580 GEORGE W ENGRAM BLVD", "CITYNAME": "DAYTONA BEACH", "STATE": "FL", "ZIP": 32114, "PHONE": "386- 255-1195", "THEME": "CHURCH", "SOURCE": "PAO", "CRITFACIL": "N" }, "geometry": { "type": "Point", "coordinates": [ 645999.496, 1775053.194 ] } },
{ "type": "Feature", "properties": { "NAME": "GREATER FRIENDSHIP BAPTIST CHURCH", "ADDRESS": "539  GEORGE W ENGRAM BLVD", "CITYNAME": "DAYTONA BEACH", "STATE": "FL", "ZIP": 32114, "PHONE": "386- 252-0322", "THEME": "CHURCH", "SOURCE": "PAO", "CRITFACIL": "N" }, "geometry": { "type": "Point", "coordinates": [ 646372.043, 1774890.89 ] } },
{ "type": "Feature", "properties": { "NAME": "FREEWILL HOLINESS CHURCH", "ADDRESS": "360 N CHARLES ST", "CITYNAME": "DAYTONA BEACH", "STATE": "FL", "ZIP": 32114, "PHONE": "386- 253-9096", "THEME": "CHURCH", "SOURCE": "PAO", "CRITFACIL": "N" }, "geometry": { "type": "Point", "coordinates": [ 646921.475, 1774764.909 ] } },
{ "type": "Feature", "properties": { "NAME": "DAYTONA DELIVERANCE CHURCH OFGOD", "ADDRESS": "601 GEORGE W ENGRAM BLVD", "CITYNAME": "DAYTONA BEACH", "STATE": "FL", "ZIP": 32114, "PHONE": "386- 253-2612", "THEME": "CHURCH", "SOURCE": "PAO", "CRITFACIL": "N" }, "geometry": { "type": "Point", "coordinates": [ 645706.227999999886379, 1774529.06499999971 ] } },
{ "type": "Feature", "properties": { "NAME": "GRAY TEMPLE CHURCH OF GOD IN CHRIST", "ADDRESS": "443 FULTON ST", "CITYNAME": "DAYTONA BEACH", "STATE": "FL", "ZIP": 32114, "PHONE": "386- 253-1247", "THEME": "CHURCH", "SOURCE": "PAO", "CRITFACIL": "N" }, "geometry": { "type": "Point", "coordinates": [ 643708.748, 1774384.331 ] } },
{ "type": "Feature", "properties": { "NAME": "MOUNT MISSION BAPTIST CHURCH", "ADDRESS": "810 GEORGE W ENGRAM BLVD", "CITYNAME": "DAYTONA BEACH", "STATE": "FL", "ZIP": 32114, "PHONE": "386- 255-7369", "THEME": "CHURCH", "SOURCE": "PAO", "CRITFACIL": "N" }, "geometry": { "type": "Point", "coordinates": [ 644294.687, 1774180.975 ] } },
{ "type": "Feature", "properties": { "NAME": "MT CARMEL MISSIONARY BAPTIST CHURCH", "ADDRESS": "703  GEORGE W ENGRAM BLVD", "CITYNAME": "DAYTONA BEACH", "STATE": "FL", "ZIP": 32114, "PHONE": "386-255-4219", "THEME": "CHURCH", "SOURCE": "PAO", "CRITFACIL": "N" }, "geometry": { "type": "Point", "coordinates": [ 644879.49, 1774181.768 ] } },
{ "type": "Feature", "properties": { "NAME": "SAINT TIMOTHY'S EPISCOPAL CHURCH", "ADDRESS": "381 N LINCOLN ST", "CITYNAME": "DAYTONA BEACH", "STATE": "FL", "ZIP": 32114, "PHONE": "386- 255-2077", "THEME": "CHURCH", "SOURCE": "PAO", "CRITFACIL": "N" }, "geometry": { "type": "Point", "coordinates": [ 645231.234, 1774141.567 ] } },
{ "type": "Feature", "properties": { "NAME": "NEW MT ZION MISSIONARY BAPTIST CHURCH", "ADDRESS": "515 DR MARY M BETHUNE BLVD", "CITYNAME": "DAYTONA BEACH", "STATE": "FL", "ZIP": 32114, "PHONE": "386- 253-5697", "THEME": "CHURCH", "SOURCE": "PAO", "CRITFACIL": "N" }, "geometry": { "type": "Point", "coordinates": [ 647307.027, 1774070.82 ] } },
{ "type": "Feature", "properties": { "NAME": "PENTECOST CHURCH OF GOD", "ADDRESS": "458 ARTHUR AVE", "CITYNAME": "DAYTONA BEACH", "STATE": "FL", "ZIP": 32114, "PHONE": "386- 253-0320", "THEME": "CHURCH", "SOURCE": "PAO", "CRITFACIL": "N" }, "geometry": { "type": "Point", "coordinates": [ 642513.783, 1773985.957 ] } },
{ "type": "Feature", "properties": { "NAME": "NEW ST JAMES MISSIONARY BAPTIST CHURCH", "ADDRESS": "418 LAURA ST", "CITYNAME": "DAYTONA BEACH", "STATE": "FL", "ZIP": 32114, "PHONE": "386- 253-1655", "THEME": "CHURCH", "SOURCE": "PAO", "CRITFACIL": "N" }, "geometry": { "type": "Point", "coordinates": [ 643260.193, 1773806.917 ] } },
{ "type": "Feature", "properties": { "NAME": "UNITED METHODIST CHURCH", "ADDRESS": "317 N MARTIN LUTHER KING BLVD", "CITYNAME": "DAYTONA BEACH", "STATE": "FL", "ZIP": 32114, "PHONE": "386- 255-7222", "THEME": "CHURCH", "SOURCE": "PAO", "CRITFACIL": "N" }, "geometry": { "type": "Point", "coordinates": [ 646354.099, 1773804.322 ] } },
{ "type": "Feature", "properties": { "NAME": "CHURCH OF GOD BY FAITH", "ADDRESS": "829 GEORGE W ENGRAM BLVD", "CITYNAME": "DAYTONA BEACH", "STATE": "FL", "ZIP": 32114, "PHONE": "386- 258-5209", "THEME": "CHURCH", "SOURCE": "PAO", "CRITFACIL": "N" }, "geometry": { "type": "Point", "coordinates": [ 644204.992, 1773895.676 ] } },
{ "type": "Feature", "properties": { "NAME": "APOSTOLIC OVERCOMING HOLY CHURCH", "ADDRESS": "920 AVERY ST", "CITYNAME": "DAYTONA BEACH", "STATE": "FL", "ZIP": 32114, "PHONE": "386- 253-2214", "THEME": "CHURCH", "SOURCE": "PAO", "CRITFACIL": "N" }, "geometry": { "type": "Point", "coordinates": [ 642743.564999999827705, 1773890.02099999972 ] } },
{ "type": "Feature", "properties": { "NAME": "MASTER'S DOMAIN CHURCH OF GOD IN CHRIST", "ADDRESS": "511 FREMONT AV", "CITYNAME": "DAYTONA BEACH", "STATE": "FL", "ZIP": 32114, "PHONE": "386- 236-9263", "THEME": "CHURCH", "SOURCE": "PAO", "CRITFACIL": "N" }, "geometry": { "type": "Point", "coordinates": [ 650523.735000000102445, 1766766.696 ] } },
{ "type": "Feature", "properties": { "NAME": "TRUEVINE TEMPLE MINISTRIES", "ADDRESS": "855 GEORGE W ENGRAM BLVD", "CITYNAME": "DAYTONA BEACH", "STATE": "FL", "ZIP": 32114, "PHONE": "386- 253-1995", "THEME": "CHURCH", "SOURCE": "PAO", "CRITFACIL": "N" }, "geometry": { "type": "Point", "coordinates": [ 643918.918, 1773755.321 ] } },
{ "type": "Feature", "properties": { "NAME": "SOUL REFRESHING CHURCH OF GOD", "ADDRESS": "900 GEORGE W ENGRAM BLVD", "CITYNAME": "DAYTONA BEACH", "STATE": "FL", "ZIP": 32114, "PHONE": "386- 258-5647", "THEME": "CHURCH", "SOURCE": "PAO", "CRITFACIL": "N" }, "geometry": { "type": "Point", "coordinates": [ 643233.212, 1773634.443 ] } },
{ "type": "Feature", "properties": { "NAME": "FIRST BAPTIST CHURCH DAYTONA BEACH", "ADDRESS": "118 N PALMETTO AVE", "CITYNAME": "DAYTONA BEACH", "STATE": "FL", "ZIP": 32114, "PHONE": "386- 253-5691", "THEME": "CHURCH", "SOURCE": "PAO", "CRITFACIL": "N" }, "geometry": { "type": "Point", "coordinates": [ 649189.945, 1773407.09299999988 ] } },
{ "type": "Feature", "properties": { "NAME": "POWERHOUSE MINISTRIES CHURCH OF GOD IN CHRIST", "ADDRESS": "359 JEFFERSON ST", "CITYNAME": "DAYTONA BEACH", "STATE": "FL", "ZIP": 32114, "PHONE": "386- 290-3899", "THEME": "CHURCH", "SOURCE": "PAO", "CRITFACIL": "N" }, "geometry": { "type": "Point", "coordinates": [ 644994.485000000102445, 1773527.327 ] } },
{ "type": "Feature", "properties": { "NAME": "GREATER NEW ZION PRIMITIVE BAPTIST CHURCH", "ADDRESS": "201 N MARTIN LUTHER KING BLVD", "CITYNAME": "DAYTONA BEACH", "STATE": "FL", "ZIP": 32114, "PHONE": "386- 253-2163", "THEME": "CHURCH", "SOURCE": "PAO", "CRITFACIL": "N" }, "geometry": { "type": "Point", "coordinates": [ 646801.028, 1772954.194 ] } },
{ "type": "Feature", "properties": { "NAME": "ST PETER'S ROCK MISSIONARY BAPTIST CHURCH", "ADDRESS": "331 ROSE AVE", "CITYNAME": "DAYTONA BEACH", "STATE": "FL", "ZIP": 32114, "PHONE": "386- 253-7320", "THEME": "CHURCH", "SOURCE": "PAO", "CRITFACIL": "N" }, "geometry": { "type": "Point", "coordinates": [ 644256.477999999886379, 1773026.35 ] } },
{ "type": "Feature", "properties": { "NAME": "FAITH TEMPLE CHURCH OF GOD IN CHRIST", "ADDRESS": "330 N KEECH ST", "CITYNAME": "DAYTONA BEACH", "STATE": "FL", "ZIP": 32114, "PHONE": "386- 258-9052", "THEME": "CHURCH", "SOURCE": "PAO", "CRITFACIL": "N" }, "geometry": { "type": "Point", "coordinates": [ 643428.031999999890104, 1772599.137 ] } },
{ "type": "Feature", "properties": { "NAME": "DIVINE DELIVERANCE MINISTRIES", "ADDRESS": "836  DR MARY M BETHUNE BLVD", "CITYNAME": "DAYTONA BEACH", "STATE": "FL", "ZIP": 32114, "PHONE": "386- 257-3374", "THEME": "CHURCH", "SOURCE": "PAO", "CRITFACIL": "N" }, "geometry": { "type": "Point", "coordinates": [ 644694.077, 1772475.136 ] } },
{ "type": "Feature", "properties": { "NAME": "REFORMED CHURCH OF LIVING GOD", "ADDRESS": "942  DR MARY M BETHUNE BLVD", "CITYNAME": "DAYTONA BEACH", "STATE": "FL", "ZIP": 32114, "PHONE": null, "THEME": "CHURCH", "SOURCE": "PAO", "CRITFACIL": "N" }, "geometry": { "type": "Point", "coordinates": [ 643511.948, 1771933.486 ] } },
{ "type": "Feature", "properties": { "NAME": "WESTSIDE CHURCH OF CHRIST", "ADDRESS": "960  DR MARY M BETHUNE BLVD", "CITYNAME": "DAYTONA BEACH", "STATE": "FL", "ZIP": 32114, "PHONE": "386- 255-8901", "THEME": "CHURCH", "SOURCE": "PAO", "CRITFACIL": "N" }, "geometry": { "type": "Point", "coordinates": [ 643169.325999999884516, 1771915.363 ] } },
{ "type": "Feature", "properties": { "NAME": "ST MARYS EPISCOPAL CHURCH", "ADDRESS": "216  ORANGE AVE", "CITYNAME": "DAYTONA BEACH", "STATE": "FL", "ZIP": 32114, "PHONE": "386- 255-3669", "THEME": "CHURCH", "SOURCE": "PAO", "CRITFACIL": "N" }, "geometry": { "type": "Point", "coordinates": [ 649606.829, 1771698.192 ] } },
{ "type": "Feature", "properties": { "NAME": "FIRST CHRISTIAN CHURCH OF DAYTONA BEACH", "ADDRESS": "326 S PALMETTO AVE", "CITYNAME": "DAYTONA BEACH", "STATE": "FL", "ZIP": 32114, "PHONE": "386- 252-6648", "THEME": "CHURCH", "SOURCE": "PAO", "CRITFACIL": "N" }, "geometry": { "type": "Point", "coordinates": [ 650075.960999999777414, 1771366.689 ] } },
{ "type": "Feature", "properties": { "NAME": "FIRST CHURCH OF CHRIST SCIENTIST", "ADDRESS": "137  LIVE OAK AVE", "CITYNAME": "DAYTONA BEACH", "STATE": "FL", "ZIP": 32114, "PHONE": "386- 252-4540", "THEME": "CHURCH", "SOURCE": "PAO", "CRITFACIL": "N" }, "geometry": { "type": "Point", "coordinates": [ 650387.911, 1771006.02 ] } },
{ "type": "Feature", "properties": { "NAME": "CULVER TEMPLE  HEADQUARTERS CHURCH", "ADDRESS": "608  CHERRY ST", "CITYNAME": "DAYTONA BEACH", "STATE": "FL", "ZIP": 32114, "PHONE": "386- 253-9805", "THEME": "CHURCH", "SOURCE": "PAO", "CRITFACIL": "N" }, "geometry": { "type": "Point", "coordinates": [ 647462.137, 1770933.737 ] } },
{ "type": "Feature", "properties": { "NAME": "PENTACOSTAL APOSTOLIC LIGHTHOUSE CHURCH", "ADDRESS": "610  CHERRY ST", "CITYNAME": "DAYTONA BEACH", "STATE": "FL", "ZIP": 32114, "PHONE": "386- 253-4951", "THEME": "CHURCH", "SOURCE": "PAO", "CRITFACIL": "N" }, "geometry": { "type": "Point", "coordinates": [ 647427.370000000111759, 1770923.361 ] } },
{ "type": "Feature", "properties": { "NAME": "BUTTS TEMPLE CHURCH OF GOD IN CHRIST", "ADDRESS": "636 HAWK ST", "CITYNAME": "DAYTONA BEACH", "STATE": "FL", "ZIP": 32114, "PHONE": "386- 252-8565", "THEME": "CHURCH", "SOURCE": "PAO", "CRITFACIL": "N" }, "geometry": { "type": "Point", "coordinates": [ 647385.354, 1770306.736 ] } },
{ "type": "Feature", "properties": { "NAME": "ST LUKE MISSIONARY BAPTIST CHURCH", "ADDRESS": "859  MAGNOLIA AVE", "CITYNAME": "DAYTONA BEACH", "STATE": "FL", "ZIP": 32114, "PHONE": "386- 239-0665", "THEME": "CHURCH", "SOURCE": "PAO", "CRITFACIL": "N" }, "geometry": { "type": "Point", "coordinates": [ 645118.178, 1770267.395 ] } },
{ "type": "Feature", "properties": { "NAME": "AGAPE WORSHIP CENTER", "ADDRESS": "500 S RIDGEWOOD AVE", "CITYNAME": "DAYTONA BEACH", "STATE": "FL", "ZIP": 32114, "PHONE": "386- 795-1740", "THEME": "CHURCH", "SOURCE": "PB\/WEB", "CRITFACIL": "N" }, "geometry": { "type": "Point", "coordinates": [ 650085.438, 1770066.34 ] } },
{ "type": "Feature", "properties": { "NAME": "BIBLE BAPTIST CHURCH", "ADDRESS": "401 S MARTIN LUTHER KING BLVD", "CITYNAME": "DAYTONA BEACH", "STATE": "FL", "ZIP": 32114, "PHONE": "386- 238-3515", "THEME": "CHURCH", "SOURCE": "PAO", "CRITFACIL": "N" }, "geometry": { "type": "Point", "coordinates": [ 648118.09, 1770026.119 ] } },
{ "type": "Feature", "properties": { "NAME": "COMMUNITY CHURCH OF GOD IN CHRIST", "ADDRESS": "400 HENRY BUTTS DR", "CITYNAME": "DAYTONA BEACH", "STATE": "FL", "ZIP": 32114, "PHONE": "386-258-5806", "THEME": "CHURCH", "SOURCE": "PAO", "CRITFACIL": "N" }, "geometry": { "type": "Point", "coordinates": [ 647577.444, 1769907.715 ] } },
{ "type": "Feature", "properties": { "NAME": "VICTORY CHURCH OF GOD", "ADDRESS": "827  ORANGE AVE", "CITYNAME": "DAYTONA BEACH", "STATE": "FL", "ZIP": 32114, "PHONE": "386- 254-6807", "THEME": "CHURCH", "SOURCE": "PAO", "CRITFACIL": "N" }, "geometry": { "type": "Point", "coordinates": [ 645941.362, 1769825.25 ] } },
{ "type": "Feature", "properties": { "NAME": "MT ZION AME CHURCH", "ADDRESS": "449 S MARTIN LUTHER KING BLVD", "CITYNAME": "DAYTONA BEACH", "STATE": "FL", "ZIP": 32114, "PHONE": "386- 252-2412", "THEME": "CHURCH", "SOURCE": "PAO", "CRITFACIL": "N" }, "geometry": { "type": "Point", "coordinates": [ 648421.181, 1769443.708 ] } },
{ "type": "Feature", "properties": { "NAME": "ST JOHNS C M E CHURCH", "ADDRESS": "701 VERDELL ST", "CITYNAME": "DAYTONA BEACH", "STATE": "FL", "ZIP": 32114, "PHONE": "386- 257-2585", "THEME": "CHURCH", "SOURCE": "PAO", "CRITFACIL": "N" }, "geometry": { "type": "Point", "coordinates": [ 647833.561999999801628, 1769464.454 ] } },
{ "type": "Feature", "properties": { "NAME": "ISLAMIC CENTER OF DAYTONA BEACH", "ADDRESS": "347 S KEECH ST", "CITYNAME": "DAYTONA BEACH", "STATE": "FL", "ZIP": 32114, "PHONE": "386- 252-3501", "THEME": "CHURCH", "SOURCE": "PAO", "CRITFACIL": "N" }, "geometry": { "type": "Point", "coordinates": [ 645175.313, 1769240.521 ] } },
{ "type": "Feature", "properties": { "NAME": "BEREAN BAPTIST CHURCH", "ADDRESS": "211 MADISON AVE", "CITYNAME": "DAYTONA BEACH", "STATE": "FL", "ZIP": 32114, "PHONE": "386-258-3571", "THEME": "CHURCH", "SOURCE": "PAO", "CRITFACIL": "N" }, "geometry": { "type": "Point", "coordinates": [ 647109.21, 1777639.43899999978 ] } },
{ "type": "Feature", "properties": { "NAME": "ARIEL MINISTRIES INC", "ADDRESS": "1525 E GRAVES AVE", "CITYNAME": "ORANGE CITY", "STATE": "FL", "ZIP": 32763, "PHONE": "386-956-4559", "THEME": "CHURCH", "SOURCE": "PAO", "CRITFACIL": "N" }, "geometry": { "type": "Point", "coordinates": [ 566771.906999999890104, 1677852.596 ] } },
{ "type": "Feature", "properties": { "NAME": "SHILOH BAPTIST CHURCH", "ADDRESS": "543 S MARTIN LUTHER KING BLVD", "CITYNAME": "DAYTONA BEACH", "STATE": "FL", "ZIP": 32114, "PHONE": "386- 255-8834", "THEME": "CHURCH", "SOURCE": "PAO", "CRITFACIL": "N" }, "geometry": { "type": "Point", "coordinates": [ 648713.838, 1768792.60899999971 ] } },
{ "type": "Feature", "properties": { "NAME": "MT MORIAH BAPTIST CHURCH", "ADDRESS": "600 MCCORMICK St", "CITYNAME": "DAYTONA BEACH", "STATE": "FL", "ZIP": 32114, "PHONE": "386- 253-4117", "THEME": "CHURCH", "SOURCE": "PAO", "CRITFACIL": "N" }, "geometry": { "type": "Point", "coordinates": [ 648086.09, 1768314.611 ] } },
{ "type": "Feature", "properties": { "NAME": "WESTSIDE CHURCH OF CHRIST", "ADDRESS": "624 S MARTIN LUTHER KING BLVD", "CITYNAME": "DAYTONA BEACH", "STATE": "FL", "ZIP": 32114, "PHONE": "386-255-8901", "THEME": "CHURCH", "SOURCE": "PAO", "CRITFACIL": "N" }, "geometry": { "type": "Point", "coordinates": [ 648789.132, 1768246.882 ] } },
{ "type": "Feature", "properties": { "NAME": "MT BETHEL BAPTIST CHURCH", "ADDRESS": "700 S MARTIN LUTHER KING BLVD", "CITYNAME": "DAYTONA BEACH", "STATE": "FL", "ZIP": 32114, "PHONE": "386- 255-6922", "THEME": "CHURCH", "SOURCE": "PAO", "CRITFACIL": "N" }, "geometry": { "type": "Point", "coordinates": [ 648964.884, 1767863.764 ] } },
{ "type": "Feature", "properties": { "NAME": "CHURCH OF THE LIVING GOD", "ADDRESS": "736 S MARTIN LUTHER KING BLVD", "CITYNAME": "DAYTONA BEACH", "STATE": "FL", "ZIP": 32114, "PHONE": "386- 226-8884", "THEME": "CHURCH", "SOURCE": "PAO", "CRITFACIL": "N" }, "geometry": { "type": "Point", "coordinates": [ 649159.112, 1767478.049 ] } },
{ "type": "Feature", "properties": { "NAME": "SHADY GROVE PRIMITIVE BAPTIST CHURCH", "ADDRESS": "705 S CAROLINE ST", "CITYNAME": "DAYTONA BEACH", "STATE": "FL", "ZIP": 32114, "PHONE": "386- 253-6628", "THEME": "CHURCH", "SOURCE": "PAO", "CRITFACIL": "N" }, "geometry": { "type": "Point", "coordinates": [ 645965.585999999893829, 1766445.696 ] } },
{ "type": "Feature", "properties": { "NAME": "CROSSWALK CHURCH", "ADDRESS": "1016 E CLEARWATER RD", "CITYNAME": "DAYTONA BEACH", "STATE": "FL", "ZIP": 32114, "PHONE": "386- 255-0604", "THEME": "CHURCH", "SOURCE": "PAO", "CRITFACIL": "N" }, "geometry": { "type": "Point", "coordinates": [ 646505.23, 1762094.83 ] } },
{ "type": "Feature", "properties": { "NAME": "SOUTH PENINSULA BAPTIST CHURCH", "ADDRESS": "2711 S PENINSULA DR", "CITYNAME": "DAYTONA BEACH", "STATE": "FL", "ZIP": 32118, "PHONE": "386- 767-8575", "THEME": "CHURCH", "SOURCE": "PAO", "CRITFACIL": "N" }, "geometry": { "type": "Point", "coordinates": [ 660136.544, 1761418.29199999967 ] } },
{ "type": "Feature", "properties": { "NAME": "DAYTONA BEACH DRIVE IN CHRISTIAN CHURCH", "ADDRESS": "3140 S ATLANTIC AVE", "CITYNAME": "DAYTONA BEACH", "STATE": "FL", "ZIP": 32118, "PHONE": "386- 767-8761", "THEME": "CHURCH", "SOURCE": "PAO", "CRITFACIL": "N" }, "geometry": { "type": "Point", "coordinates": [ 663621.933999999891967, 1755173.454 ] } },
{ "type": "Feature", "properties": { "NAME": "WESTMINSTER BY-THE-SEA PRESBYTERIAN CHURCH", "ADDRESS": "3215 S PENINSULA DR", "CITYNAME": "DAYTONA BEACH", "STATE": "FL", "ZIP": 32118, "PHONE": "386- 767-8342", "THEME": "CHURCH", "SOURCE": "PAO", "CRITFACIL": "N" }, "geometry": { "type": "Point", "coordinates": [ 664036.742, 1753668.725 ] } },
{ "type": "Feature", "properties": { "NAME": "WHITE CHAPEL CHURCH OF GOD", "ADDRESS": "1730 S RIDGEWOOD AVE", "CITYNAME": "SOUTH DAYTONA", "STATE": "FL", "ZIP": 32119, "PHONE": "386- 767-5470", "THEME": "CHURCH", "SOURCE": "PAO", "CRITFACIL": "N" }, "geometry": { "type": "Point", "coordinates": [ 653880.120000000111759, 1761626.00199999986 ] } },
{ "type": "Feature", "properties": { "NAME": "SOUTH DAYTONA CHRISTIAN CHURCH", "ADDRESS": "2121 KENILWORTH AVE", "CITYNAME": "SOUTH DAYTONA", "STATE": "FL", "ZIP": 32119, "PHONE": "386- 767-6949", "THEME": "CHURCH", "SOURCE": "PAO", "CRITFACIL": "N" }, "geometry": { "type": "Point", "coordinates": [ 652863.185, 1757787.56399999978 ] } },
{ "type": "Feature", "properties": { "NAME": "FIRST BAPTIST CHURCH SOUTH DAYTONA", "ADDRESS": "2197 KENILWORTH AVE", "CITYNAME": "SOUTH DAYTONA", "STATE": "FL", "ZIP": 32119, "PHONE": "386- 767-1491", "THEME": "CHURCH", "SOURCE": "PAO", "CRITFACIL": "N" }, "geometry": { "type": "Point", "coordinates": [ 653130.385, 1757278.349 ] } },
{ "type": "Feature", "properties": { "NAME": "COMMUNITY OF CHRIST", "ADDRESS": "700  REED CANAL RD", "CITYNAME": "SOUTH DAYTONA", "STATE": "FL", "ZIP": 32119, "PHONE": "386- 767-6564", "THEME": "CHURCH", "SOURCE": "PAO", "CRITFACIL": "N" }, "geometry": { "type": "Point", "coordinates": [ 654764.360000000102445, 1754077.305 ] } },
{ "type": "Feature", "properties": { "NAME": "UNITED PRESBYTERIAN CHURCH", "ADDRESS": "730 BEVILLE RD", "CITYNAME": "DAYTONA BEACH", "STATE": "FL", "ZIP": 32114, "PHONE": "386- 253-2324", "THEME": "CHURCH", "SOURCE": "PAO", "CRITFACIL": "N" }, "geometry": { "type": "Point", "coordinates": [ 649674.179, 1761539.745 ] } },
{ "type": "Feature", "properties": { "NAME": "CHURCH OF CHRIST BEVILLE ROAD", "ADDRESS": "850 BEVILLE RD", "CITYNAME": "DAYTONA BEACH", "STATE": "FL", "ZIP": 32114, "PHONE": "386- 252-2746", "THEME": "CHURCH", "SOURCE": "PAO", "CRITFACIL": "N" }, "geometry": { "type": "Point", "coordinates": [ 648795.633, 1761137.168 ] } },
{ "type": "Feature", "properties": { "NAME": "RELEVANT CHURCH", "ADDRESS": "920 BEVILLE RD", "CITYNAME": "DAYTONA BEACH", "STATE": "FL", "ZIP": 32114, "PHONE": "386-257-4622", "THEME": "CHURCH", "SOURCE": "PAO", "CRITFACIL": "N" }, "geometry": { "type": "Point", "coordinates": [ 647904.389, 1760674.347 ] } },
{ "type": "Feature", "properties": { "NAME": "DAYTONA BEACH ALLIANCE CHURCH", "ADDRESS": "1250 BEVILLE RD", "CITYNAME": "DAYTONA BEACH", "STATE": "FL", "ZIP": 32114, "PHONE": "386- 253-5103", "THEME": "CHURCH", "SOURCE": "PAO", "CRITFACIL": "N" }, "geometry": { "type": "Point", "coordinates": [ 645035.243, 1759234.29899999988 ] } },
{ "type": "Feature", "properties": { "NAME": "HOLY CROSS EVANGELICAL LUTHERAN CHURCH", "ADDRESS": "724 BIG TREE RD", "CITYNAME": "SOUTH DAYTONA", "STATE": "FL", "ZIP": 32119, "PHONE": "386- 788-8370", "THEME": "CHURCH", "SOURCE": "PAO", "CRITFACIL": "N" }, "geometry": { "type": "Point", "coordinates": [ 652117.275, 1758585.366 ] } },
{ "type": "Feature", "properties": { "NAME": "CROSSROADS MINISTRIES", "ADDRESS": "1851 S CLYDE MORRIS BLVD", "CITYNAME": "DAYTONA BEACH", "STATE": "FL", "ZIP": 32119, "PHONE": "386- 760-4806", "THEME": "CHURCH", "SOURCE": "PAO", "CRITFACIL": "N" }, "geometry": { "type": "Point", "coordinates": [ 644358.629999999888241, 1753735.683 ] } },
{ "type": "Feature", "properties": { "NAME": "KINGDOM HALL OF JEHOVAH WITNESSES", "ADDRESS": "3501  CLYDE MORRIS BLVD", "CITYNAME": "PORT ORANGE", "STATE": "FL", "ZIP": 32129, "PHONE": "386- 767-5419", "THEME": "CHURCH", "SOURCE": "PAO", "CRITFACIL": "N" }, "geometry": { "type": "Point", "coordinates": [ 644736.0, 1752092.35299999989 ] } },
{ "type": "Feature", "properties": { "NAME": "EMPORIA BAPTIST CHURCH", "ADDRESS": "403  EMPORIA RD", "CITYNAME": "PIERSON", "STATE": "FL", "ZIP": 32180, "PHONE": "386- 749-0200", "THEME": "CHURCH", "SOURCE": "PAO", "CRITFACIL": "N" }, "geometry": { "type": "Point", "coordinates": [ 506868.607, 1769868.075 ] } },
{ "type": "Feature", "properties": { "NAME": "FIRST BAPTIST CHURCH OF BARBERVILLE", "ADDRESS": "200 E BROAD ST", "CITYNAME": "PIERSON", "STATE": "FL", "ZIP": 32180, "PHONE": "386-698-1050", "THEME": "CHURCH", "SOURCE": "PAO\/WEB", "CRITFACIL": "N" }, "geometry": { "type": "Point", "coordinates": [ 522231.616, 1765917.972 ] } },
{ "type": "Feature", "properties": { "NAME": "ABUNDANT LIFE FELLOWSHIP", "ADDRESS": "1501 S CR 3", "CITYNAME": "PIERSON", "STATE": "FL", "ZIP": 32180, "PHONE": "386-749-4125", "THEME": "CHURCH", "SOURCE": "PAO\/WEB", "CRITFACIL": "N" }, "geometry": { "type": "Point", "coordinates": [ 519992.78, 1765640.712 ] } },
{ "type": "Feature", "properties": { "NAME": "GREENLAND MISSIONARY BAPTIST CHURCH", "ADDRESS": "1585  SAWMILL RD", "CITYNAME": "PIERSON", "STATE": "FL", "ZIP": 32180, "PHONE": null, "THEME": "CHURCH", "SOURCE": "PAO", "CRITFACIL": "N" }, "geometry": { "type": "Point", "coordinates": [ 520214.629, 1764347.90699999989 ] } },
{ "type": "Feature", "properties": { "NAME": "CHRISTIAN CHURCH AT DELEON SPRGS", "ADDRESS": "4481  MILLS RD", "CITYNAME": "DELEON SPRINGS", "STATE": "FL", "ZIP": 32130, "PHONE": "386- 985-5608", "THEME": "CHURCH", "SOURCE": "PAO", "CRITFACIL": "N" }, "geometry": { "type": "Point", "coordinates": [ 548327.585, 1734303.053 ] } },
{ "type": "Feature", "properties": { "NAME": "KINGDOM HALL JEHOVAHS WITNESS", "ADDRESS": "170  MERCERS FERNERY RD", "CITYNAME": "DELAND", "STATE": "FL", "ZIP": 32720, "PHONE": "386-736-8114", "THEME": "CHURCH", "SOURCE": "PAO", "CRITFACIL": "N" }, "geometry": { "type": "Point", "coordinates": [ 558364.022, 1719708.90699999989 ] } },
{ "type": "Feature", "properties": { "NAME": "BIBLE BAPTIST CHURCH", "ADDRESS": "872  GLENWOOD RD", "CITYNAME": "DELAND", "STATE": "FL", "ZIP": 32720, "PHONE": "386- 736-9274", "THEME": "CHURCH", "SOURCE": "PAO", "CRITFACIL": "N" }, "geometry": { "type": "Point", "coordinates": [ 551742.847, 1722818.415 ] } },
{ "type": "Feature", "properties": { "NAME": "DELAND OPEN BIBLE MINISTRY CENTER", "ADDRESS": "2179 N SPRING GARDEN AVE", "CITYNAME": "DELAND", "STATE": "FL", "ZIP": 32720, "PHONE": "386- 736-7100", "THEME": "CHURCH", "SOURCE": "PAO", "CRITFACIL": "N" }, "geometry": { "type": "Point", "coordinates": [ 552510.653, 1720510.569 ] } },
{ "type": "Feature", "properties": { "NAME": "NEW JERUSALEM CHURCH", "ADDRESS": "825  MERCERS FERNERY RD", "CITYNAME": "DELAND", "STATE": "FL", "ZIP": 32720, "PHONE": "386- 734-9257", "THEME": "CHURCH", "SOURCE": "PAO", "CRITFACIL": "N" }, "geometry": { "type": "Point", "coordinates": [ 554096.241999999852851, 1720060.07 ] } },
{ "type": "Feature", "properties": { "NAME": "ROCK CHURCH OF DAYTONA BEACH", "ADDRESS": "1818  TAYLOR RD", "CITYNAME": "PORT ORANGE", "STATE": "FL", "ZIP": 32128, "PHONE": "386- 788-4540", "THEME": "CHURCH", "SOURCE": "PAO", "CRITFACIL": "N" }, "geometry": { "type": "Point", "coordinates": [ 639919.271, 1729465.958 ] } },
{ "type": "Feature", "properties": { "NAME": "SOUTH HAVEN CHRISTIAN CHURCH", "ADDRESS": "2430  TOMOKA FARMS RD", "CITYNAME": "PORT ORANGE", "STATE": "FL", "ZIP": 32128, "PHONE": "386- 252-0390", "THEME": "CHURCH", "SOURCE": "PAO", "CRITFACIL": "N" }, "geometry": { "type": "Point", "coordinates": [ 633990.666999999899417, 1729128.569 ] } },
{ "type": "Feature", "properties": { "NAME": "UNITY FELLOWSHIP BAPTIST CHURCH", "ADDRESS": "909 3RD ST", "CITYNAME": "PORT ORANGE", "STATE": "FL", "ZIP": 32129, "PHONE": "386-761-1729", "THEME": "CHURCH", "SOURCE": "PAO", "CRITFACIL": "N" }, "geometry": { "type": "Point", "coordinates": [ 657176.514, 1749711.066 ] } },
{ "type": "Feature", "properties": { "NAME": "CHAPEL OF FAITH", "ADDRESS": "633  HERBERT ST", "CITYNAME": "PORT ORANGE  FL", "STATE": "FL", "ZIP": 32129, "PHONE": "386- 760-9685", "THEME": "CHURCH", "SOURCE": "PAO", "CRITFACIL": "N" }, "geometry": { "type": "Point", "coordinates": [ 657067.266, 1748482.023 ] } },
{ "type": "Feature", "properties": { "NAME": "FIRST UNITED METHODIST CHURCH OF PORT ORANGE", "ADDRESS": "305  DUNLAWTON AVE", "CITYNAME": "PORT ORANGE", "STATE": "FL", "ZIP": 32127, "PHONE": "386- 767-6161", "THEME": "CHURCH", "SOURCE": "PAO", "CRITFACIL": "N" }, "geometry": { "type": "Point", "coordinates": [ 659306.274, 1748436.966 ] } },
{ "type": "Feature", "properties": { "NAME": "GRACE EPISCOPAL CHURCH", "ADDRESS": "4100 RIDGEWOOD AVE", "CITYNAME": "PORT ORANGE", "STATE": "FL", "ZIP": 32127, "PHONE": "386- 767-3583", "THEME": "CHURCH", "SOURCE": "PAO", "CRITFACIL": "N" }, "geometry": { "type": "Point", "coordinates": [ 660309.9, 1747781.598 ] } },
{ "type": "Feature", "properties": { "NAME": "FIRST BAPTIST CHURCH  PORT ORANGE", "ADDRESS": "316 CHURCH ST", "CITYNAME": "PORT ORANGE", "STATE": "FL", "ZIP": 32127, "PHONE": "386- 767-3482", "THEME": "CHURCH", "SOURCE": "PAO", "CRITFACIL": "N" }, "geometry": { "type": "Point", "coordinates": [ 659553.82, 1747491.729 ] } },
{ "type": "Feature", "properties": { "NAME": "FAMILY WORSHIP CENTER", "ADDRESS": "4425 RIDGEWOOD AVE", "CITYNAME": "PORT ORANGE", "STATE": "FL", "ZIP": 32127, "PHONE": "386- 788-3966", "THEME": "CHURCH", "SOURCE": "PAO", "CRITFACIL": "N" }, "geometry": { "type": "Point", "coordinates": [ 661050.366, 1746854.521 ] } },
{ "type": "Feature", "properties": { "NAME": "EPIPHANY CATHOLIC CHURCH", "ADDRESS": "201  LAFAYETTE ST", "CITYNAME": "PORT ORANGE", "STATE": "FL", "ZIP": 32127, "PHONE": "386- 767-6111", "THEME": "CHURCH", "SOURCE": "PAO", "CRITFACIL": "N" }, "geometry": { "type": "Point", "coordinates": [ 660566.221, 1745035.338 ] } },
{ "type": "Feature", "properties": { "NAME": "ALL SAINTS LUTHERAN CHURCH", "ADDRESS": "1010  OAK ST (751 DUNLAWTON AVE)", "CITYNAME": "PORT ORANGE", "STATE": "FL", "ZIP": 32119, "PHONE": "386- 761-9129", "THEME": "CHURCH", "SOURCE": "PAO", "CRITFACIL": "N" }, "geometry": { "type": "Point", "coordinates": [ 655716.254999999888241, 1744681.636 ] } },
{ "type": "Feature", "properties": { "NAME": "COVENANT UNITED METHODIST CHURCH", "ADDRESS": "3701  CLYDE MORRIS BLVD", "CITYNAME": "PORT ORANGE", "STATE": "FL", "ZIP": 32129, "PHONE": "386- 767-8544", "THEME": "CHURCH", "SOURCE": "PAO", "CRITFACIL": "N" }, "geometry": { "type": "Point", "coordinates": [ 645098.694, 1749832.792 ] } },
{ "type": "Feature", "properties": { "NAME": "OUR LADY OF HOPE CATHOLIC CHURCH", "ADDRESS": "4675 CLYDE MORRIS BLVD", "CITYNAME": "PORT ORANGE", "STATE": "FL", "ZIP": 32129, "PHONE": "386- 788-6144", "THEME": "CHURCH", "SOURCE": "PAO", "CRITFACIL": "N" }, "geometry": { "type": "Point", "coordinates": [ 648271.5, 1742529.674 ] } },
{ "type": "Feature", "properties": { "NAME": "PORT ORANGE PRESBYTERIAN CHURCH", "ADDRESS": "4662 CLYDE MORRIS BLVD", "CITYNAME": "PORT ORANGE", "STATE": "FL", "ZIP": 32129, "PHONE": "386- 253-7884", "THEME": "CHURCH", "SOURCE": "PAO", "CRITFACIL": "N" }, "geometry": { "type": "Point", "coordinates": [ 647806.785, 1742583.556 ] } },
{ "type": "Feature", "properties": { "NAME": "FAITH CHURCH OF UNITED BRETHREN IN CHRIST", "ADDRESS": "4702 CLYDE MORRIS BLVD", "CITYNAME": "PORT ORANGE", "STATE": "FL", "ZIP": 32129, "PHONE": "386- 761-5482", "THEME": "CHURCH", "SOURCE": "PAO", "CRITFACIL": "N" }, "geometry": { "type": "Point", "coordinates": [ 648082.646, 1741555.472 ] } },
{ "type": "Feature", "properties": { "NAME": "FIRST BAPTIST CHURCH  HARBOR OAKS", "ADDRESS": "5730  RIDGEWOOD AVE", "CITYNAME": "PORT ORANGE", "STATE": "FL", "ZIP": 32127, "PHONE": "386- 767-6062", "THEME": "CHURCH", "SOURCE": "PAO", "CRITFACIL": "N" }, "geometry": { "type": "Point", "coordinates": [ 664522.318999999784864, 1737282.758 ] } },
{ "type": "Feature", "properties": { "NAME": "NEW LIFE CHURCH", "ADDRESS": "5231  NOVA RD", "CITYNAME": "PORT ORANGE  FL", "STATE": "FL", "ZIP": 32127, "PHONE": "386- 756-5557", "THEME": "CHURCH", "SOURCE": "PAO", "CRITFACIL": "N" }, "geometry": { "type": "Point", "coordinates": [ 661403.033, 1738145.57599999988 ] } },
{ "type": "Feature", "properties": { "NAME": "PORT ORANGE UNITED CHURCH OF CHRIST", "ADDRESS": "651 TAYLOR RD", "CITYNAME": "PORT ORANGE", "STATE": "FL", "ZIP": 32127, "PHONE": "386- 788-0920", "THEME": "CHURCH", "SOURCE": "PAO", "CRITFACIL": "N" }, "geometry": { "type": "Point", "coordinates": [ 654337.324, 1735319.259 ] } },
{ "type": "Feature", "properties": { "NAME": "ST LUKES ANGLICAN CHURCH", "ADDRESS": "815  TAYLOR RD", "CITYNAME": "PORT ORANGE", "STATE": "FL", "ZIP": 32127, "PHONE": "386- 760-1924", "THEME": "CHURCH", "SOURCE": "PAO", "CRITFACIL": "N" }, "geometry": { "type": "Point", "coordinates": [ 650474.683, 1735318.72199999983 ] } },
{ "type": "Feature", "properties": { "NAME": "PORT ORANGE CHURCH OF THE NAZARENE", "ADDRESS": "840 TAYLOR RD", "CITYNAME": "PORT ORANGE", "STATE": "FL", "ZIP": 32127, "PHONE": "386- 767-2354", "THEME": "CHURCH", "SOURCE": "PAO", "CRITFACIL": "N" }, "geometry": { "type": "Point", "coordinates": [ 649820.222, 1734789.192 ] } },
{ "type": "Feature", "properties": { "NAME": "FOURSQUARE GOSPEL CHURCH", "ADDRESS": "878 TAYLOR RD", "CITYNAME": "PORT ORANGE", "STATE": "FL", "ZIP": 32127, "PHONE": "386- 761-2183", "THEME": "CHURCH", "SOURCE": "PAO", "CRITFACIL": "N" }, "geometry": { "type": "Point", "coordinates": [ 649139.695, 1734836.0 ] } },
{ "type": "Feature", "properties": { "NAME": "PORT ORANGE CHRISTIAN CHURCH", "ADDRESS": "904 TAYLOR RD", "CITYNAME": "PORT ORANGE", "STATE": "FL", "ZIP": 32127, "PHONE": "386- 322-9811", "THEME": "CHURCH", "SOURCE": "PAO", "CRITFACIL": "N" }, "geometry": { "type": "Point", "coordinates": [ 648091.339, 1734857.841 ] } },
{ "type": "Feature", "properties": { "NAME": "NEW HOPE BAPTIST CHURCH", "ADDRESS": "1675 TAYLOR RD", "CITYNAME": "PORT ORANGE", "STATE": "FL", "ZIP": 32128, "PHONE": "386- 756-7675", "THEME": "CHURCH", "SOURCE": "PAO", "CRITFACIL": "N" }, "geometry": { "type": "Point", "coordinates": [ 644777.079, 1733066.78099999973 ] } },
{ "type": "Feature", "properties": { "NAME": "GRACE BAPTIST CHURCH OF GREATER DAYTONA", "ADDRESS": "1703  TAYLOR R", "CITYNAME": "PORT ORANGE", "STATE": "FL", "ZIP": 32128, "PHONE": "386- 788-8781", "THEME": "CHURCH", "SOURCE": "PAO", "CRITFACIL": "N" }, "geometry": { "type": "Point", "coordinates": [ 643439.605, 1733005.417 ] } },
{ "type": "Feature", "properties": { "NAME": "OUR SAVIOR'S EVANGELICAL LUTHERAN CHURCH", "ADDRESS": "1715  TAYLOR RD", "CITYNAME": "PORT ORANGE", "STATE": "FL", "ZIP": 32128, "PHONE": "386- 756-7569", "THEME": "CHURCH", "SOURCE": "PAO", "CRITFACIL": "N" }, "geometry": { "type": "Point", "coordinates": [ 642658.219, 1732358.299 ] } },
{ "type": "Feature", "properties": { "NAME": "DELEON SPRINGS UNITED METHODIST CHURCH", "ADDRESS": "265  PONCE DELEON BLVD", "CITYNAME": "DELEON SPRINGS", "STATE": "FL", "ZIP": 32130, "PHONE": "386- 985-4325", "THEME": "CHURCH", "SOURCE": "PAO", "CRITFACIL": "N" }, "geometry": { "type": "Point", "coordinates": [ 543297.062999999849126, 1741973.5 ] } },
{ "type": "Feature", "properties": { "NAME": "MT ZION AME CHURCH", "ADDRESS": "393  REYNOLDS RD", "CITYNAME": "DELEON SPRINGS", "STATE": "FL", "ZIP": 32130, "PHONE": "386- 985-4843", "THEME": "CHURCH", "SOURCE": "PAO", "CRITFACIL": "N" }, "geometry": { "type": "Point", "coordinates": [ 545748.205, 1739730.858 ] } },
{ "type": "Feature", "properties": { "NAME": "LIFE CENTER CHURCH OF GOD", "ADDRESS": "433  REYNOLDS RD", "CITYNAME": "DELEON SPRINGS", "STATE": "FL", "ZIP": 32130, "PHONE": "386-985-0107", "THEME": "CHURCH", "SOURCE": "PAO", "CRITFACIL": "N" }, "geometry": { "type": "Point", "coordinates": [ 546228.278, 1739635.43399999989 ] } },
{ "type": "Feature", "properties": { "NAME": "FIRST BAPTIST CHURCH OF DELEON SPRINGS", "ADDRESS": "4995  CENTRAL AVE", "CITYNAME": "DELEON SPRINGS  FL", "STATE": "FL", "ZIP": 32130, "PHONE": "386- 985-4281", "THEME": "CHURCH", "SOURCE": "PAO", "CRITFACIL": "N" }, "geometry": { "type": "Point", "coordinates": [ 544537.101, 1739291.802 ] } },
{ "type": "Feature", "properties": { "NAME": "BETHLEHEM MISSIONARY BAPTIST CHURCH", "ADDRESS": "410  WEBB ST", "CITYNAME": "DELEON SPRINGS", "STATE": "FL", "ZIP": 32130, "PHONE": "386- 985-2214", "THEME": "CHURCH", "SOURCE": "PAO", "CRITFACIL": "N" }, "geometry": { "type": "Point", "coordinates": [ 545915.511, 1739031.778 ] } },
{ "type": "Feature", "properties": { "NAME": "CHURCH OF GOD OF PROPHECY DELEON SPRINGS", "ADDRESS": "4721  DUNDEE AVE", "CITYNAME": "DELEON SPRINGS", "STATE": "FL", "ZIP": 32130, "PHONE": "386- 226-3268", "THEME": "CHURCH", "SOURCE": "PAO", "CRITFACIL": "N" }, "geometry": { "type": "Point", "coordinates": [ 545133.688, 1737050.0 ] } },
{ "type": "Feature", "properties": { "NAME": "PRESBYTERIAN CHURCH", "ADDRESS": "3190  GRAND AV", "CITYNAME": "DELAND", "STATE": "FL", "ZIP": 32720, "PHONE": "386- 734-8617", "THEME": "CHURCH", "SOURCE": "PAO", "CRITFACIL": "N" }, "geometry": { "type": "Point", "coordinates": [ 543004.923, 1727098.58599999989 ] } },
{ "type": "Feature", "properties": { "NAME": "FIRST ASSEMBLY OF GOD DELAND", "ADDRESS": "1500 E INTL SPEEDWAY BLVD", "CITYNAME": "DELAND", "STATE": "FL", "ZIP": 32724, "PHONE": "386- 736-2948", "THEME": "CHURCH", "SOURCE": "PAO", "CRITFACIL": "N" }, "geometry": { "type": "Point", "coordinates": [ 568465.827, 1717242.01 ] } },
{ "type": "Feature", "properties": { "NAME": "CHURCH OF THE HOLY PRESENCE", "ADDRESS": "355 N KEPLER RD  DELAND", "CITYNAME": "DELAND", "STATE": "FL", "ZIP": 32724, "PHONE": "386- 734-5228", "THEME": "CHURCH", "SOURCE": "PAO", "CRITFACIL": "N" }, "geometry": { "type": "Point", "coordinates": [ 573199.526, 1708526.30899999966 ] } },
{ "type": "Feature", "properties": { "NAME": "KEPLER ROAD BAPTIST CHURCH", "ADDRESS": "251 N KEPLER RD  DELAND", "CITYNAME": "DELAND", "STATE": "FL", "ZIP": 32724, "PHONE": "386- 734-5382", "THEME": "CHURCH", "SOURCE": "PAO", "CRITFACIL": "N" }, "geometry": { "type": "Point", "coordinates": [ 573264.958000000100583, 1707748.75 ] } },
{ "type": "Feature", "properties": { "NAME": "SEVENTH DAY ADVENTIST CHURCH", "ADDRESS": "220 N KEPLER RD  DELAND", "CITYNAME": "DELAND", "STATE": "FL", "ZIP": 32724, "PHONE": "386- 736-8833", "THEME": "CHURCH", "SOURCE": "PAO", "CRITFACIL": "N" }, "geometry": { "type": "Point", "coordinates": [ 572884.813, 1707070.542 ] } },
{ "type": "Feature", "properties": { "NAME": "DELAND GOSPEL ASSEMBLY", "ADDRESS": "109  ROSEHILL AVE", "CITYNAME": "DELAND", "STATE": "FL", "ZIP": 32724, "PHONE": "386- 736-1009", "THEME": "CHURCH", "SOURCE": "PAO", "CRITFACIL": "N" }, "geometry": { "type": "Point", "coordinates": [ 559483.263, 1715704.626 ] } },
{ "type": "Feature", "properties": { "NAME": "GRACE CHAPEL", "ADDRESS": "405 E KENTUCKY AVE", "CITYNAME": "DELAND", "STATE": "FL", "ZIP": 32724, "PHONE": "386- 734-7352", "THEME": "CHURCH", "SOURCE": "PAO", "CRITFACIL": "N" }, "geometry": { "type": "Point", "coordinates": [ 561121.307, 1714862.43799999985 ] } },
{ "type": "Feature", "properties": { "NAME": "IGLESIA AVENTISTA DELAND", "ADDRESS": "1010 N ALABAMA AVE", "CITYNAME": "DELAND", "STATE": "FL", "ZIP": 32724, "PHONE": "386-383-5553", "THEME": "CHURCH", "SOURCE": "PAO", "CRITFACIL": "N" }, "geometry": { "type": "Point", "coordinates": [ 559581.923999999882653, 1712986.393 ] } },
{ "type": "Feature", "properties": { "NAME": "PLYMOUTH AVE CHRISTIAN CHURCH", "ADDRESS": "1101 E PLYMOUTH AVE", "CITYNAME": "DELAND", "STATE": "FL", "ZIP": 32724, "PHONE": "386- 734-9141", "THEME": "CHURCH", "SOURCE": "PAO", "CRITFACIL": "N" }, "geometry": { "type": "Point", "coordinates": [ 565886.938, 1712442.25 ] } },
{ "type": "Feature", "properties": { "NAME": "RISENSON FELLOWSHIP", "ADDRESS": "850 N WOODLAND BLVD", "CITYNAME": "DELAND", "STATE": "FL", "ZIP": 32720, "PHONE": "386- 740-1005", "THEME": "CHURCH", "SOURCE": "PAO", "CRITFACIL": "N" }, "geometry": { "type": "Point", "coordinates": [ 558943.313, 1711898.875 ] } },
{ "type": "Feature", "properties": { "NAME": "HIGHER GROUND MINISTRIES", "ADDRESS": "820 N FRANKFORT AVE", "CITYNAME": "DELAND", "STATE": "FL", "ZIP": 32724, "PHONE": "386- 738-7077", "THEME": "CHURCH", "SOURCE": "PAO", "CRITFACIL": "N" }, "geometry": { "type": "Point", "coordinates": [ 562605.923, 1711610.21 ] } },
{ "type": "Feature", "properties": { "NAME": "FAITH EVANGELICAL LUTHERAN CHURCH", "ADDRESS": "509 E PENNSYLVANIA AVE", "CITYNAME": "DELAND", "STATE": "FL", "ZIP": 32724, "PHONE": "386- 734-2791", "THEME": "CHURCH", "SOURCE": "PAO", "CRITFACIL": "N" }, "geometry": { "type": "Point", "coordinates": [ 562194.632999999797903, 1710777.457 ] } },
{ "type": "Feature", "properties": { "NAME": "FIRST BAPTIST CHURCH DELAND", "ADDRESS": "725 N WOODLAND BLVD", "CITYNAME": "DELAND", "STATE": "FL", "ZIP": 32720, "PHONE": "386- 734-5085", "THEME": "CHURCH", "SOURCE": "PAO", "CRITFACIL": "N" }, "geometry": { "type": "Point", "coordinates": [ 559301.2, 1711130.751 ] } },
{ "type": "Feature", "properties": { "NAME": "FIRST PRESBYTERIAN CHURCH", "ADDRESS": "724 N WOODLAND BLVD", "CITYNAME": "DELAND", "STATE": "FL", "ZIP": 32720, "PHONE": "386- 734-6212", "THEME": "CHURCH", "SOURCE": "PAO", "CRITFACIL": "N" }, "geometry": { "type": "Point", "coordinates": [ 558911.135, 1710957.27599999984 ] } },
{ "type": "Feature", "properties": { "NAME": "FIRST HISPANIC CHURCH OF DELAND", "ADDRESS": "711 N FRANKFORT AVE", "CITYNAME": "DELAND", "STATE": "FL", "ZIP": 32724, "PHONE": "386- 738-1225", "THEME": "CHURCH", "SOURCE": "PAO", "CRITFACIL": "N" }, "geometry": { "type": "Point", "coordinates": [ 562785.962, 1710922.637 ] } },
{ "type": "Feature", "properties": { "NAME": "THE WESLEY HOUSE METHODIST CHURCH", "ADDRESS": "520 N WOODLAND BLVD", "CITYNAME": "DELAND", "STATE": "FL", "ZIP": 32720, "PHONE": "386- 734-4564", "THEME": "CHURCH", "SOURCE": "PAO", "CRITFACIL": "N" }, "geometry": { "type": "Point", "coordinates": [ 559065.623, 1709591.483 ] } },
{ "type": "Feature", "properties": { "NAME": "CHURCH OF GOD OF PROPHECY", "ADDRESS": "1106 E MINNESOTA AVE", "CITYNAME": "DELAND", "STATE": "FL", "ZIP": 32724, "PHONE": "386- 738-1756", "THEME": "CHURCH", "SOURCE": "PAO", "CRITFACIL": "N" }, "geometry": { "type": "Point", "coordinates": [ 565993.31, 1709246.75 ] } },
{ "type": "Feature", "properties": { "NAME": "CALVARY BAPTIST CHURCH", "ADDRESS": "650 E MICHIGAN AVE", "CITYNAME": "DELAND", "STATE": "FL", "ZIP": 32724, "PHONE": "386- 734-3139", "THEME": "CHURCH", "SOURCE": "PAO", "CRITFACIL": "N" }, "geometry": { "type": "Point", "coordinates": [ 562724.44, 1708570.16 ] } },
{ "type": "Feature", "properties": { "NAME": "WESLEYAN CHURCH", "ADDRESS": "250 N HILL AVE", "CITYNAME": "DELAND", "STATE": "FL", "ZIP": 32724, "PHONE": "386- 736-9464", "THEME": "CHURCH", "SOURCE": "PAO", "CRITFACIL": "N" }, "geometry": { "type": "Point", "coordinates": [ 565631.976, 1707836.40699999966 ] } },
{ "type": "Feature", "properties": { "NAME": "CHURCH OF THE NAZARENE", "ADDRESS": "913 E NEW YORK AVE", "CITYNAME": "DELAND", "STATE": "FL", "ZIP": 32724, "PHONE": "386- 734-8281", "THEME": "CHURCH", "SOURCE": "PAO", "CRITFACIL": "N" }, "geometry": { "type": "Point", "coordinates": [ 564789.001, 1706821.75499999989 ] } },
{ "type": "Feature", "properties": { "NAME": "TEMPLE ISRAEL OF DELAND", "ADDRESS": "1001 E NEW YORK AVE", "CITYNAME": "DELAND", "STATE": "FL", "ZIP": 32724, "PHONE": "386- 736-1646", "THEME": "CHURCH", "SOURCE": "PAO", "CRITFACIL": "N" }, "geometry": { "type": "Point", "coordinates": [ 565554.313, 1706730.839 ] } },
{ "type": "Feature", "properties": { "NAME": "NEW DESTINY FREEWILL BAPTIST CHURCH", "ADDRESS": "770  GREENS DAIRY RD", "CITYNAME": "DELAND", "STATE": "FL", "ZIP": 32720, "PHONE": "386- 736-4600", "THEME": "CHURCH", "SOURCE": "PAO", "CRITFACIL": "N" }, "geometry": { "type": "Point", "coordinates": [ 554447.491, 1717091.169 ] } },
{ "type": "Feature", "properties": { "NAME": "LIBERTY INDEPENDENT BAPTIST CHURCH", "ADDRESS": "1365 W PLYMOUTH AVE", "CITYNAME": "DELAND", "STATE": "FL", "ZIP": 32720, "PHONE": "386- 736-7412", "THEME": "CHURCH", "SOURCE": "PAO", "CRITFACIL": "N" }, "geometry": { "type": "Point", "coordinates": [ 550740.957999999867752, 1712023.292 ] } },
{ "type": "Feature", "properties": { "NAME": "STETSON BAPTIST CHURCH", "ADDRESS": "1025 W MINNESOTA AVE", "CITYNAME": "DELAND", "STATE": "FL", "ZIP": 32720, "PHONE": "386- 734-1991", "THEME": "CHURCH", "SOURCE": "PAO", "CRITFACIL": "N" }, "geometry": { "type": "Point", "coordinates": [ 552664.297, 1709420.93 ] } },
{ "type": "Feature", "properties": { "NAME": "ST BARNABAS EPISCOPAL CHURCH", "ADDRESS": "319 W WISCONSIN AVE", "CITYNAME": "DELAND", "STATE": "FL", "ZIP": 32720, "PHONE": "386- 734-1814", "THEME": "CHURCH", "SOURCE": "PAO", "CRITFACIL": "N" }, "geometry": { "type": "Point", "coordinates": [ 557697.949, 1708068.958 ] } },
{ "type": "Feature", "properties": { "NAME": "TRINITY METHODIST CHURCH", "ADDRESS": "306 W WISCONSIN AVE", "CITYNAME": "DELAND", "STATE": "FL", "ZIP": 32720, "PHONE": "386- 734-4425", "THEME": "CHURCH", "SOURCE": "PAO", "CRITFACIL": "N" }, "geometry": { "type": "Point", "coordinates": [ 557689.241999999852851, 1707835.584 ] } },
{ "type": "Feature", "properties": { "NAME": "ST PETER CATHOLIC CHURCH", "ADDRESS": "359 W NEW YORK AVE", "CITYNAME": "DELAND", "STATE": "FL", "ZIP": 32720, "PHONE": "386- 822-6000", "THEME": "CHURCH", "SOURCE": "PAO", "CRITFACIL": "N" }, "geometry": { "type": "Point", "coordinates": [ 557172.711, 1706834.521 ] } },
{ "type": "Feature", "properties": { "NAME": "WESTMINISTER UNITED PRESBYTERIAN CHURCH", "ADDRESS": "1313 W NEW YORK AVE", "CITYNAME": "DELAND", "STATE": "FL", "ZIP": 32720, "PHONE": "386- 734-6465", "THEME": "CHURCH", "SOURCE": "PAO", "CRITFACIL": "N" }, "geometry": { "type": "Point", "coordinates": [ 550886.107, 1706784.572 ] } },
{ "type": "Feature", "properties": { "NAME": "PRINCE OF PEACE CATHOLIC CHURCH", "ADDRESS": "600 S NOVA RD", "CITYNAME": "ORMOND BEACH", "STATE": "FL", "ZIP": 32174, "PHONE": "386- 672-5272", "THEME": "CHURCH", "SOURCE": "PAO", "CRITFACIL": "N" }, "geometry": { "type": "Point", "coordinates": [ 630906.25, 1792938.5 ] } },
{ "type": "Feature", "properties": { "NAME": "KINGDOM HALL OF JEHOVAHS WITNESSES", "ADDRESS": "801 HAND AVE", "CITYNAME": "ORMOND BEACH", "STATE": "FL", "ZIP": 32174, "PHONE": "386- 672-8733", "THEME": "CHURCH", "SOURCE": "PAO", "CRITFACIL": "N" }, "geometry": { "type": "Point", "coordinates": [ 632579.154, 1792573.328 ] } },
{ "type": "Feature", "properties": { "NAME": "ST JOHNS MISSIONARY BAPTIST CHURCH", "ADDRESS": "1734  STATE AVE", "CITYNAME": "HOLLY HILL", "STATE": "FL", "ZIP": 32117, "PHONE": "386- 673-4066", "THEME": "CHURCH", "SOURCE": "PAO", "CRITFACIL": "N" }, "geometry": { "type": "Point", "coordinates": [ 639760.431, 1790344.014 ] } },
{ "type": "Feature", "properties": { "NAME": "FAITH BAPTIST TEMPLE", "ADDRESS": "497 FLOMICH ST", "CITYNAME": "HOLLY HILL", "STATE": "FL", "ZIP": 32117, "PHONE": "386- 672-6161", "THEME": "CHURCH", "SOURCE": "PAO", "CRITFACIL": "N" }, "geometry": { "type": "Point", "coordinates": [ 639450.642, 1788355.742 ] } },
{ "type": "Feature", "properties": { "NAME": "UNITED BRETHREN IN CHRIST", "ADDRESS": "560 FLOMICH ST", "CITYNAME": "HOLLY HILL", "STATE": "FL", "ZIP": 32117, "PHONE": "386- 677-6940", "THEME": "CHURCH", "SOURCE": "PAO", "CRITFACIL": "N" }, "geometry": { "type": "Point", "coordinates": [ 638470.616, 1788156.195 ] } },
{ "type": "Feature", "properties": { "NAME": "RISE ABOVE IT FAMILY CHURCH", "ADDRESS": "1531 CENTER AVE", "CITYNAME": "HOLLY HILL", "STATE": "FL", "ZIP": 32117, "PHONE": "386- 589-0890", "THEME": "CHURCH", "SOURCE": "PAO", "CRITFACIL": "N" }, "geometry": { "type": "Point", "coordinates": [ 638808.041999999899417, 1787465.91699999967 ] } },
{ "type": "Feature", "properties": { "NAME": "NEW LIFE MINISTRIES", "ADDRESS": "1625 DERBYSHIRE RD", "CITYNAME": "DAYTONA BEACH", "STATE": "FL", "ZIP": 32117, "PHONE": "386- 677-6222", "THEME": "CHURCH", "SOURCE": "PAO", "CRITFACIL": "N" }, "geometry": { "type": "Point", "coordinates": [ 633201.120000000111759, 1786056.229 ] } },
{ "type": "Feature", "properties": { "NAME": "CHURCH OF CHRIST DAYTONA BEACH", "ADDRESS": "1234 FLOMICH ST", "CITYNAME": "DAYTONA BEACH", "STATE": "FL", "ZIP": 32117, "PHONE": "386- 677-5323", "THEME": "CHURCH", "SOURCE": "PAO", "CRITFACIL": "N" }, "geometry": { "type": "Point", "coordinates": [ 633609.131, 1785763.88 ] } },
{ "type": "Feature", "properties": { "NAME": "FLOMICH AVENUE BAPTIST CHURCH", "ADDRESS": "1305 FLOMICH ST", "CITYNAME": "DAYTONA BEACH", "STATE": "FL", "ZIP": 32117, "PHONE": "386- 252-2062", "THEME": "CHURCH", "SOURCE": "PAO", "CRITFACIL": "N" }, "geometry": { "type": "Point", "coordinates": [ 634007.033, 1785711.37 ] } },
{ "type": "Feature", "properties": { "NAME": "LIGHTHOUSE FOR CHRIST", "ADDRESS": "1247 CENTER AVE", "CITYNAME": "HOLLY HILL", "STATE": "FL", "ZIP": 32117, "PHONE": "386- 252-2701", "THEME": "CHURCH", "SOURCE": "PAO", "CRITFACIL": "N" }, "geometry": { "type": "Point", "coordinates": [ 639738.95, 1785527.388 ] } },
{ "type": "Feature", "properties": { "NAME": "CHURCH OF THE HOLY CHILD", "ADDRESS": "1225 W GRANADA BLVD", "CITYNAME": "ORMOND BEACH", "STATE": "FL", "ZIP": 32174, "PHONE": "386- 672-4470", "THEME": "CHURCH", "SOURCE": "PAO", "CRITFACIL": "N" }, "geometry": { "type": "Point", "coordinates": [ 623220.278, 1793347.91699999967 ] } },
{ "type": "Feature", "properties": { "NAME": "MASSEY JAMES YOUTH CENTER", "ADDRESS": "364 CHURCH ST", "CITYNAME": "LAKE HELEN", "STATE": "FL", "ZIP": 32744, "PHONE": "386- 228-2212", "THEME": "CHURCH", "SOURCE": "PAO", "CRITFACIL": "N" }, "geometry": { "type": "Point", "coordinates": [ 577126.215, 1688872.197 ] } },
{ "type": "Feature", "properties": { "NAME": "EL SHADDAI PENTECOSTAL HOLINESS CHURCH", "ADDRESS": "242  LITTLE BROWN CHURCH RD", "CITYNAME": "SEVILLE", "STATE": "FL", "ZIP": 32180, "PHONE": "386- 749-2764", "THEME": "CHURCH", "SOURCE": "PAO", "CRITFACIL": "N" }, "geometry": { "type": "Point", "coordinates": [ 505879.305, 1801795.40699999989 ] } },
{ "type": "Feature", "properties": { "NAME": "ALLEN CHAPEL AME CHURCH", "ADDRESS": "548 MARY ST", "CITYNAME": "NEW SMYRNA BEACH", "STATE": "FL", "ZIP": 32168, "PHONE": "386- 428-2901", "THEME": "CHURCH", "SOURCE": "PAO\/ELECT", "CRITFACIL": "N" }, "geometry": { "type": "Point", "coordinates": [ 677951.819, 1705909.236 ] } },
{ "type": "Feature", "properties": { "NAME": "ALLIANCE CHAPEL", "ADDRESS": "600 S FLORIDA AV", "CITYNAME": "DELAND", "STATE": "FL", "ZIP": 32720, "PHONE": "386- 738-4515", "THEME": "CHURCH", "SOURCE": "PAO\/ELECT", "CRITFACIL": "N" }, "geometry": { "type": "Point", "coordinates": [ 558721.971, 1703149.368 ] } },
{ "type": "Feature", "properties": { "NAME": "AUGUSTINIAN MONKS", "ADDRESS": "2075 MERCERS FERNERY RD", "CITYNAME": "DELAND", "STATE": "FL", "ZIP": 32720, "PHONE": "386- 736-4321", "THEME": "CHURCH", "SOURCE": "ELECT\/WEB", "CRITFACIL": "N" }, "geometry": { "type": "Point", "coordinates": [ 547690.084, 1720924.231 ] } },
{ "type": "Feature", "properties": { "NAME": "BEACON BAPTIST CHURCH", "ADDRESS": "2315 BEVILLE RD", "CITYNAME": "DAYTONA BEACH", "STATE": "FL", "ZIP": 32119, "PHONE": "386- 760-3655", "THEME": "CHURCH", "SOURCE": "PAO\/ELECT", "CRITFACIL": "N" }, "geometry": { "type": "Point", "coordinates": [ 635835.974, 1754319.473 ] } },
{ "type": "Feature", "properties": { "NAME": "THE LIVING CORNERSTONE", "ADDRESS": "1835 TAYLOR RD", "CITYNAME": "PORT ORANGE", "STATE": "Fl", "ZIP": 32128, "PHONE": "386- 788-4870", "THEME": "CHURCH", "SOURCE": "PAO\/ELECT", "CRITFACIL": "N" }, "geometry": { "type": "Point", "coordinates": [ 640470.938, 1729023.875 ] } },
{ "type": "Feature", "properties": { "NAME": "WORD AND PRAISE FAMILY CHURCH", "ADDRESS": "955 ORANGE AVE", "CITYNAME": "DAYTONA BEACH", "STATE": "FL", "ZIP": 32114, "PHONE": "386- 253-2025", "THEME": "CHURCH", "SOURCE": "ELECT", "CRITFACIL": "N" }, "geometry": { "type": "Point", "coordinates": [ 644767.827, 1769224.34 ] } },
{ "type": "Feature", "properties": { "NAME": "EMANUEL SEVENTH-DAY ADVENTIST CHURCH", "ADDRESS": "416 EUCLID AVE", "CITYNAME": "DELAND", "STATE": "FL", "ZIP": 32720, "PHONE": "386- 734-9541", "THEME": "CHURCH", "SOURCE": "PAO\/ELECT", "CRITFACIL": "N" }, "geometry": { "type": "Point", "coordinates": [ 556670.948, 1703972.812 ] } },
{ "type": "Feature", "properties": { "NAME": "KINGDOM BUILDERS CHRISTIAN LIFE CENTER", "ADDRESS": "1201 E. NEW YORK AVE", "CITYNAME": "DELAND", "STATE": "FL", "ZIP": 32724, "PHONE": "386- 736-4183", "THEME": "CHURCH", "SOURCE": "PAO\/ELECT", "CRITFACIL": "N" }, "geometry": { "type": "Point", "coordinates": [ 566876.401, 1706747.86699999985 ] } },
{ "type": "Feature", "properties": { "NAME": "FIRST CONGREGATIONAL UNITED CHURCH OF CHRIST", "ADDRESS": "107 S EUCLID AVE", "CITYNAME": "LAKE HELEN", "STATE": "FL", "ZIP": 32744, "PHONE": "386- 228-2600", "THEME": "CHURCH", "SOURCE": "PAO\/WEB", "CRITFACIL": "N" }, "geometry": { "type": "Point", "coordinates": [ 581469.224, 1690717.788 ] } },
{ "type": "Feature", "properties": { "NAME": "HOPE LUTHERAN CHURCH OF DAYTONA BEACH", "ADDRESS": "594 N WILLIAMSON BLVD", "CITYNAME": "DAYTONA BEACH", "STATE": "FL", "ZIP": 32118, "PHONE": "386- 274-7074", "THEME": "CHURCH", "SOURCE": "PAO", "CRITFACIL": "N" }, "geometry": { "type": "Point", "coordinates": [ 628199.719, 1769221.573 ] } },
{ "type": "Feature", "properties": { "NAME": "IGLESIA DE DIOS PENTECOSTAL MOVIMIENTO CHURCH", "ADDRESS": "2870 FIREHOUSE RD", "CITYNAME": "DELAND", "STATE": "FL", "ZIP": 32720, "PHONE": "386- 774-4540", "THEME": "CHURCH", "SOURCE": "ELECT\/PB", "CRITFACIL": "N" }, "geometry": { "type": "Point", "coordinates": [ 559703.609999999869615, 1687865.575 ] } },
{ "type": "Feature", "properties": { "NAME": "LIFEPOINT COMMUNITY CHURCH", "ADDRESS": "1747 W. NEW YORK AVE", "CITYNAME": "DELAND", "STATE": "FL", "ZIP": 32720, "PHONE": "386- 738-5000", "THEME": "CHURCH", "SOURCE": "PAO", "CRITFACIL": "N" }, "geometry": { "type": "Point", "coordinates": [ 549025.311, 1706734.54699999979 ] } },
{ "type": "Feature", "properties": { "NAME": "MOSAIC UNITARIAN UNIVERSALIST", "ADDRESS": "1725 S VOLUSIA AV", "CITYNAME": "ORANGE CITY", "STATE": "FL", "ZIP": 32763, "PHONE": "386- 228-3130", "THEME": "CHURCH", "SOURCE": "PAO\/ELECT", "CRITFACIL": "N" }, "geometry": { "type": "Point", "coordinates": [ 560370.861, 1671211.435 ] } },
{ "type": "Feature", "properties": { "NAME": "MT CALVARY PENTECOSTAL ASSEMBLY", "ADDRESS": "700 BELLEVUE AVE", "CITYNAME": "DAYTONA BEACH", "STATE": "FL", "ZIP": 32114, "PHONE": "386- 255-8654", "THEME": "CHURCH", "SOURCE": "PAO\/ELECT", "CRITFACIL": "N" }, "geometry": { "type": "Point", "coordinates": [ 648499.498, 1766898.98 ] } },
{ "type": "Feature", "properties": { "NAME": "NEW LIFE BIBLE CHURCH", "ADDRESS": "342 N VOLUSIA AVE", "CITYNAME": "ORANGE CITY", "STATE": "FL", "ZIP": 32763, "PHONE": "386- 775-8158", "THEME": "CHURCH", "SOURCE": "ELECT", "CRITFACIL": "N" }, "geometry": { "type": "Point", "coordinates": [ 560766.626, 1678703.59 ] } },
{ "type": "Feature", "properties": { "NAME": "PINE RIDGE FELLOWSHIP", "ADDRESS": "935 HOWLAND BLVD", "CITYNAME": "DELTONA", "STATE": "FL", "ZIP": 32738, "PHONE": "386- 575-0078", "THEME": "CHURCH", "SOURCE": "PAO\/ELECT", "CRITFACIL": "N" }, "geometry": { "type": "Point", "coordinates": [ 602727.476, 1656379.822 ] } },
{ "type": "Feature", "properties": { "NAME": "SAN JOSE MISSION - OF ST PETERS", "ADDRESS": "165 EMPORIA RD", "CITYNAME": "PIERSON", "STATE": "FL", "ZIP": 32180, "PHONE": "386- 749-9372", "THEME": "CHURCH", "SOURCE": "PAO\/ELECT", "CRITFACIL": "N" }, "geometry": { "type": "Point", "coordinates": [ 512531.321, 1771384.393 ] } },
{ "type": "Feature", "properties": { "NAME": "SPRUCE CREEK BAPTIST CHURCH", "ADDRESS": "1952 TAYLOR RD", "CITYNAME": "PORT ORANGE", "STATE": "FL", "ZIP": 32128, "PHONE": "386- 767-5381", "THEME": "CHURCH", "SOURCE": "ELECT\/WEB", "CRITFACIL": "N" }, "geometry": { "type": "Point", "coordinates": [ 635935.664000000106171, 1727207.956 ] } },
{ "type": "Feature", "properties": { "NAME": "SPRUCE CREEK PRESBYTERIAN CHURCH", "ADDRESS": "1705 TAYLOR RD", "CITYNAME": "PORT ORANGE", "STATE": "FL", "ZIP": 32128, "PHONE": "386- 761-2902", "THEME": "CHURCH", "SOURCE": "ELECT\/WEB", "CRITFACIL": "N" }, "geometry": { "type": "Point", "coordinates": [ 643538.271, 1732750.5 ] } },
{ "type": "Feature", "properties": { "NAME": "ST PAUL'S CATHOLIC CHURCH", "ADDRESS": "317 MULLALLY ST", "CITYNAME": "DAYTONA BEACH", "STATE": "FL", "ZIP": 32114, "PHONE": "386- 252-5422", "THEME": "CHURCH", "SOURCE": "PAO\/ELECT", "CRITFACIL": "N" }, "geometry": { "type": "Point", "coordinates": [ 647467.566000000108033, 1775351.16299999971 ] } },
{ "type": "Feature", "properties": { "NAME": "TEMPLE ISRAEL", "ADDRESS": "1400 S PENINSULA DR", "CITYNAME": "DAYTONA BEACH", "STATE": "FL", "ZIP": 32118, "PHONE": "386- 252-3097", "THEME": "CHURCH", "SOURCE": "PAO\/ELECT", "CRITFACIL": "N" }, "geometry": { "type": "Point", "coordinates": [ 654270.639, 1772426.843 ] } },
{ "type": "Feature", "properties": { "NAME": "TEMPLE OF PRAISE CHURCH OF GOD IN CHRIST", "ADDRESS": "710 ENTERPRISE AVE", "CITYNAME": "NEW SMYRNA BEACH", "STATE": "FL", "ZIP": 32168, "PHONE": "386- 427-3939", "THEME": "CHURCH", "SOURCE": "PAO", "CRITFACIL": "N" }, "geometry": { "type": "Point", "coordinates": [ 677342.833000000100583, 1706219.45099999988 ] } },
{ "type": "Feature", "properties": { "NAME": "VICTORIOUS LIFE CHURCH", "ADDRESS": "3489 CLYDE MORRIS", "CITYNAME": "PORT ORANGE", "STATE": "FL", "ZIP": 32129, "PHONE": "386- 763-9500", "THEME": "CHURCH", "SOURCE": "PAO", "CRITFACIL": "N" }, "geometry": { "type": "Point", "coordinates": [ 644698.558, 1752522.713 ] } },
{ "type": "Feature", "properties": { "NAME": "SACRED HEART CHURCH", "ADDRESS": "998 FATHER DONLON DR", "CITYNAME": "NEW SMYRNA BEACH", "STATE": "FL", "ZIP": 32168, "PHONE": "386- 428-6426", "THEME": "CHURCH", "SOURCE": "PAO\/ELECT", "CRITFACIL": "N" }, "geometry": { "type": "Point", "coordinates": [ 677021.902, 1710437.894 ] } },
{ "type": "Feature", "properties": { "NAME": "DELAND CHURCH OF GOD", "ADDRESS": "401 E TAYLOR RD", "CITYNAME": "DELAND", "STATE": "FL", "ZIP": 32724, "PHONE": "386- 734-7777", "THEME": "CHURCH", "SOURCE": "PAO\/ELECT", "CRITFACIL": "N" }, "geometry": { "type": "Point", "coordinates": [ 561673.512, 1696285.484 ] } },
{ "type": "Feature", "properties": { "NAME": "CROSSROADS CALVARY CHURCH", "ADDRESS": "1805  N US HWY 1", "CITYNAME": "ORMOND BEACH", "STATE": "FL", "ZIP": 32174, "PHONE": "386-671-0013", "THEME": "CHURCH", "SOURCE": "PAO", "CRITFACIL": "N" }, "geometry": { "type": "Point", "coordinates": [ 610153.839, 1822468.74899999984 ] } },
{ "type": "Feature", "properties": { "NAME": "CENTRO CRISTIANO CARISMATICO SEMBRANDO AMOR INC", "ADDRESS": "435 MAYTOWN OSTEEN RD", "CITYNAME": "OSTEEN", "STATE": "FL", "ZIP": 32764, "PHONE": "(407)302-8001", "THEME": "CHURCH", "SOURCE": "PAO", "CRITFACIL": "N" }, "geometry": { "type": "Point", "coordinates": [ 606873.503, 1640217.626 ] } },
{ "type": "Feature", "properties": { "NAME": "SALVATION ARMY", "ADDRESS": "1555 LPGA BLVD", "CITYNAME": "DAYTONA BEACH", "STATE": "FL", "ZIP": 32117, "PHONE": "386-236-2020", "THEME": "CHURCH", "SOURCE": "PAO", "CRITFACIL": "N" }, "geometry": { "type": "Point", "coordinates": [ 632943.376, 1780610.12499999977 ] } },
{ "type": "Feature", "properties": { "NAME": "NORTH BLVD CHURCH OF CHRIST OF DELAND", "ADDRESS": "823 N WOODLAND BLVD", "CITYNAME": "DELAND", "STATE": "FL", "ZIP": 32720, "PHONE": "386-734-4311", "THEME": "CHURCH", "SOURCE": "PAO", "CRITFACIL": "N" }, "geometry": { "type": "Point", "coordinates": [ 559211.218, 1711583.093 ] } },
{ "type": "Feature", "properties": { "NAME": "PILLAR GROUND OUTREACH CHURCH", "ADDRESS": "208 W VOORHIS AVE", "CITYNAME": "DELAND", "STATE": "FL", "ZIP": 32720, "PHONE": "386-734-1166", "THEME": "CHURCH", "SOURCE": "PAO", "CRITFACIL": "N" }, "geometry": { "type": "Point", "coordinates": [ 558389.627, 1705190.831 ] } },
{ "type": "Feature", "properties": { "NAME": "NEW COVENANT MINISTRIES IN CHRIST", "ADDRESS": "641 S HIGH ST", "CITYNAME": "DELAND", "STATE": "FL", "ZIP": 32720, "PHONE": "386-734-8770", "THEME": "CHURCH", "SOURCE": "PAO", "CRITFACIL": "N" }, "geometry": { "type": "Point", "coordinates": [ 554734.064, 1702799.065 ] } },
{ "type": "Feature", "properties": { "NAME": "ST MARKS MISSIONARY BAPTIST CHURCH", "ADDRESS": "928  REDWOOD ST", "CITYNAME": "DAYTONA BEACH", "STATE": "FL", "ZIP": 32117, "PHONE": "386-258-8212", "THEME": "CHURCH", "SOURCE": "PAO", "CRITFACIL": "N" }, "geometry": { "type": "Point", "coordinates": [ 636851.091, 1775678.51 ] } },
{ "type": "Feature", "properties": { "NAME": "TRIUMPH THE CHURCH & KINGDOM OF GOD IN CHRIST", "ADDRESS": "221 N MARTIN LUTHER KING BLVD", "CITYNAME": "DAYTONA BEACH", "STATE": "FL", "ZIP": 32114, "PHONE": "386-258-9318", "THEME": "CHURCH", "SOURCE": "PAO", "CRITFACIL": "N" }, "geometry": { "type": "Point", "coordinates": [ 646670.644, 1773210.34699999983 ] } },
{ "type": "Feature", "properties": { "NAME": "THE CHAPEL OF DIVINE MERCY", "ADDRESS": "329 OLD DAYTONA RD", "CITYNAME": "DELAND", "STATE": "FL", "ZIP": 32724, "PHONE": "386-736-8573", "THEME": "CHURCH", "SOURCE": "PAO", "CRITFACIL": "N" }, "geometry": { "type": "Point", "coordinates": [ 560452.125, 1717412.5 ] } },
{ "type": "Feature", "properties": { "NAME": "SOVEREIGN GRACE CHURCH", "ADDRESS": "2421 TOMOKA FARMS RD", "CITYNAME": "PORT ORANGE", "STATE": "FL", "ZIP": 32128, "PHONE": "386-226-0052", "THEME": "CHURCH", "SOURCE": "PAO", "CRITFACIL": "N" }, "geometry": { "type": "Point", "coordinates": [ 634528.905, 1729369.759 ] } },
{ "type": "Feature", "properties": { "NAME": "FIRST UNITED METHODIST CHURCH", "ADDRESS": "115 E HOWRY AVE", "CITYNAME": "DELAND", "STATE": "FL", "ZIP": 32724, "PHONE": "386- 734-5113", "THEME": "CHURCH", "SOURCE": "PAO", "CRITFACIL": "N" }, "geometry": { "type": "Point", "coordinates": [ 559351.243, 1706059.952 ] } },
{ "type": "Feature", "properties": { "NAME": "HOLY CROSS ORTHODOX CHURCH", "ADDRESS": "375 FLEMING AVE", "CITYNAME": "ORMOND BEACH", "STATE": "FL", "ZIP": 32174, "PHONE": "386-677-0640", "THEME": "CHURCH", "SOURCE": "WEB", "CRITFACIL": "N" }, "geometry": { "type": "Point", "coordinates": [ 637459.036, 1793465.113 ] } },
{ "type": "Feature", "properties": { "NAME": "SALVATION ARMY", "ADDRESS": "1240 S HIGH ST", "CITYNAME": "DELAND", "STATE": "FL", "ZIP": 32720, "PHONE": "386- 738-2406", "THEME": "CHURCH", "SOURCE": "PAO", "CRITFACIL": "N" }, "geometry": { "type": "Point", "coordinates": [ 554484.999999999883585, 1699162.375 ] } },
{ "type": "Feature", "properties": { "NAME": "FIRST ASSEMBLY OF GOD DELAND", "ADDRESS": "551 S KEPLER RD", "CITYNAME": "DELAND", "STATE": "FL", "ZIP": 32724, "PHONE": "386-736-2948", "THEME": "CHURCH", "SOURCE": "PAO", "CRITFACIL": "N" }, "geometry": { "type": "Point", "coordinates": [ 573576.367, 1703231.92799999984 ] } },
{ "type": "Feature", "properties": { "NAME": "IGLESIA HISPANA ADVENTISTA", "ADDRESS": "1180 DOYLE RD", "CITYNAME": "DELTONA", "STATE": "FL", "ZIP": 32725, "PHONE": "(866)273-3888", "THEME": "CHURCH", "SOURCE": "PAO", "CRITFACIL": "N" }, "geometry": { "type": "Point", "coordinates": [ 578218.218000000109896, 1650125.318 ] } },
{ "type": "Feature", "properties": { "NAME": "CHURCH OF GOD (7TH DAY)", "ADDRESS": "108 S LAKEVIEW DR", "CITYNAME": "LAKE HELEN", "STATE": "FL", "ZIP": 32744, "PHONE": "386-334-1416", "THEME": "CHURCH", "SOURCE": "PAO", "CRITFACIL": "N" }, "geometry": { "type": "Point", "coordinates": [ 582002.527, 1690768.63 ] } },
{ "type": "Feature", "properties": { "NAME": "CHURCH OF CHRIST NSB", "ADDRESS": "1340 OLD MISSION RD", "CITYNAME": "NEW SMYRNA BEACH", "STATE": "FL", "ZIP": 32168, "PHONE": "386- 427-9862", "THEME": "CHURCH", "SOURCE": "PAO", "CRITFACIL": "N" }, "geometry": { "type": "Point", "coordinates": [ 673917.125, 1694415.625 ] } },
{ "type": "Feature", "properties": { "NAME": "SOLID ROCK OF JESUS ONLY CHURCH", "ADDRESS": "718 OLEANDER ST", "CITYNAME": "NEW SMYRNA BEACH", "STATE": "FL", "ZIP": 32168, "PHONE": "386- 428-8110", "THEME": "CHURCH", "SOURCE": "PAO", "CRITFACIL": "N" }, "geometry": { "type": "Point", "coordinates": [ 675748.07, 1706291.979 ] } },
{ "type": "Feature", "properties": { "NAME": "EMMANUEL CHURCH OF GOD", "ADDRESS": "815 HAMILTON ST", "CITYNAME": "NEW SMYRNA BEACH", "STATE": "FL", "ZIP": 32168, "PHONE": null, "THEME": "CHURCH", "SOURCE": "PAO", "CRITFACIL": "N" }, "geometry": { "type": "Point", "coordinates": [ 675259.050999999861233, 1706646.628 ] } },
{ "type": "Feature", "properties": { "NAME": "CALVARY ASSEMBLY OF GOD SOUTH", "ADDRESS": "794 OLD MISSION RD", "CITYNAME": "NEW SMYRNA BEACH", "STATE": "FL", "ZIP": 32174, "PHONE": "386- 672-5571", "THEME": "CHURCH", "SOURCE": "PAO", "CRITFACIL": "N" }, "geometry": { "type": "Point", "coordinates": [ 675549.688, 1698694.68499999982 ] } },
{ "type": "Feature", "properties": { "NAME": "NATIONAL CHURCH OF GOD", "ADDRESS": "541 JULIA ST", "CITYNAME": "NEW SMYRNA BEACH", "STATE": "FL", "ZIP": 32168, "PHONE": "386- 428-6845", "THEME": "CHURCH", "SOURCE": "PAO", "CRITFACIL": "N" }, "geometry": { "type": "Point", "coordinates": [ 678754.001, 1705052.861 ] } },
{ "type": "Feature", "properties": { "NAME": "CHURCH OF CHRIST OF LATTER DAY SAINTS", "ADDRESS": "210 HOWLAND BLVD", "CITYNAME": "DELTONA", "STATE": "FL", "ZIP": 32738, "PHONE": "(407) 324-9109", "THEME": "CHURCH", "SOURCE": "PAO", "CRITFACIL": "N" }, "geometry": { "type": "Point", "coordinates": [ 603480.562, 1650975.95 ] } },
{ "type": "Feature", "properties": { "NAME": "HINDU MANDIR OF DAYTONA BEACH", "ADDRESS": "148 MADISON AVE", "CITYNAME": "DAYTONA BEACH", "STATE": "FL", "ZIP": 32114, "PHONE": "386-254-8881", "THEME": "CHURCHES", "SOURCE": "PAO", "CRITFACIL": "N" }, "geometry": { "type": "Point", "coordinates": [ 647626.188, 1778062.984 ] } },
{ "type": "Feature", "properties": { "NAME": "LIGHT OF THE WORLD MINISTRIES", "ADDRESS": "629 N DIXIE FRWY", "CITYNAME": "NEW SMYRNA BEACH", "STATE": "FL", "ZIP": 32168, "PHONE": "386-689-3524", "THEME": "CHURCH", "SOURCE": "PAO", "CRITFACIL": "N" }, "geometry": { "type": "Point", "coordinates": [ 678709.743, 1708137.118 ] } },
{ "type": "Feature", "properties": { "NAME": "FAITH LUTHERAN CHURCH", "ADDRESS": "2010 W GRANADA BLVD", "CITYNAME": "ORMOND BEACH", "STATE": "FL", "ZIP": 32174, "PHONE": "386-672-2048", "THEME": "CHURCH", "SOURCE": "PAO", "CRITFACIL": "N" }, "geometry": { "type": "Point", "coordinates": [ 614703.472, 1788094.716 ] } },
{ "type": "Feature", "properties": { "NAME": "SALTY CHURCH", "ADDRESS": "221 VINING CT", "CITYNAME": "ORMOND BEACH", "STATE": "FL", "ZIP": 32176, "PHONE": "386-615-9180", "THEME": "CHURCH", "SOURCE": "PAO", "CRITFACIL": "N" }, "geometry": { "type": "Point", "coordinates": [ 643217.095, 1801885.37799999979 ] } },
{ "type": "Feature", "properties": { "NAME": "NEW CHURCH FAMILY", "ADDRESS": "3520 W INTL SPEEDWAY BLVD", "CITYNAME": "DAYTONA BEACH", "STATE": "FL", "ZIP": 32124, "PHONE": "386-527-5952", "THEME": "CHURCH", "SOURCE": "PAO", "CRITFACIL": "N" }, "geometry": { "type": "Point", "coordinates": [ 617344.59, 1748362.028 ] } },
{ "type": "Feature", "properties": { "NAME": "HIGH POINT PENTECOSTAL CHURCH", "ADDRESS": "1495 HERBERT ST", "CITYNAME": "PORT ORANGE", "STATE": "FL", "ZIP": 32129, "PHONE": "386-258-7731", "THEME": "CHURCH", "SOURCE": "PAO", "CRITFACIL": "N" }, "geometry": { "type": "Point", "coordinates": [ 648830.2, 1744186.215 ] } },
{ "type": "Feature", "properties": { "NAME": "PROVIDENCE CHURCH", "ADDRESS": "1151 HAND AV", "CITYNAME": "ORMOND BEACH", "STATE": "FL", "ZIP": 32174, "PHONE": "386-310-4997", "THEME": "CHURCH", "SOURCE": "PAO", "CRITFACIL": "N" }, "geometry": { "type": "Point", "coordinates": [ 624283.541999999899417, 1794484.772 ] } },
{ "type": "Feature", "properties": { "NAME": "GREATER FAITH AME CHURCH (FUTURE)", "ADDRESS": "2135 DOYLE RD", "CITYNAME": "DELTONA", "STATE": "FL", "ZIP": 32738, "PHONE": "386- 324-4914", "THEME": "CHURCH", "SOURCE": "WEB", "CRITFACIL": "N" }, "geometry": { "type": "Point", "coordinates": [ 588740.524, 1646584.154 ] } },
{ "type": "Feature", "properties": { "NAME": "CALVARY FULL GOSPEL CHURCH", "ADDRESS": "5455 N US HWY 17", "CITYNAME": "DELEON SPRINGS", "STATE": "FL", "ZIP": 32130, "PHONE": "386-985-5895", "THEME": "CHURCH", "SOURCE": "PAO", "CRITFACIL": "N" }, "geometry": { "type": "Point", "coordinates": [ 544406.261, 1744396.068 ] } },
{ "type": "Feature", "properties": { "NAME": "VENETIAN BAY UNITED METHODIST CHURCH", "ADDRESS": "6801 AIRPORT RD", "CITYNAME": "PORT ORANGE", "STATE": "FL", "ZIP": 0, "PHONE": "386-427-8229", "THEME": "CHURCH", "SOURCE": "WEB", "CRITFACIL": "N" }, "geometry": { "type": "Point", "coordinates": [ 642837.388999999850057, 1720285.95399999968 ] } },
{ "type": "Feature", "properties": { "NAME": "MY REFUGE CHRISTIAN CENTER", "ADDRESS": "4 RUCKERT CIRCLE", "CITYNAME": "DELAND", "STATE": "FL", "ZIP": 32720, "PHONE": "386-837-4217", "THEME": "CHURCH", "SOURCE": "WEB", "CRITFACIL": "N" }, "geometry": { "type": "Point", "coordinates": [ 560313.029, 1686866.56099999975 ] } },
{ "type": "Feature", "properties": { "NAME": "MT MORIAH BAPTIST CHURCH", "ADDRESS": "945 ORANGE AV", "CITYNAME": "PORT ORANGE", "STATE": "FL", "ZIP": 32129, "PHONE": null, "THEME": "CHURCH", "SOURCE": "PAO", "CRITFACIL": "N" }, "geometry": { "type": "Point", "coordinates": [ 658066.29099999985, 1750220.50599999982 ] } },
{ "type": "Feature", "properties": { "NAME": "FIRST CHRISTIAN CHURCH (DISCIPLES OF CHRIST)", "ADDRESS": "1401 W NEW YORK AVE", "CITYNAME": "DELAND", "STATE": "FL", "ZIP": 32720, "PHONE": "386- 734-0677", "THEME": "CHURCH", "SOURCE": "PAO", "CRITFACIL": "N" }, "geometry": { "type": "Point", "coordinates": [ 550596.966, 1706741.78 ] } },
{ "type": "Feature", "properties": { "NAME": "UNITED PENTACOSTAL CHURCH OF DELAND", "ADDRESS": "1640 E VOORHIS AVE", "CITYNAME": "DELAND", "STATE": "FL", "ZIP": 32724, "PHONE": "386- 734-8773", "THEME": "CHURCH", "SOURCE": "PAO", "CRITFACIL": "N" }, "geometry": { "type": "Point", "coordinates": [ 570260.139999999897555, 1705271.318 ] } },
{ "type": "Feature", "properties": { "NAME": "MORNING STAR CHAPEL OF DELAND", "ADDRESS": "1520 E VOORHIS AVE", "CITYNAME": "DELAND", "STATE": "FL", "ZIP": 32724, "PHONE": "386- 943-8277", "THEME": "CHURCH", "SOURCE": "PAO", "CRITFACIL": "N" }, "geometry": { "type": "Point", "coordinates": [ 568887.404, 1705200.06199999969 ] } },
{ "type": "Feature", "properties": { "NAME": "BETHEL AME CHURCH", "ADDRESS": "210 E HOWRY AVE", "CITYNAME": "DELAND", "STATE": "FL", "ZIP": 32724, "PHONE": "386- 736-2324", "THEME": "CHURCH", "SOURCE": "PAO", "CRITFACIL": "N" }, "geometry": { "type": "Point", "coordinates": [ 560159.401, 1705890.665 ] } },
{ "type": "Feature", "properties": { "NAME": "ST JOSEPH UNITED METHODIST CHURCH", "ADDRESS": "530 E VOORHIS AVE", "CITYNAME": "DELAND", "STATE": "FL", "ZIP": 32724, "PHONE": "386- 734-3158", "THEME": "CHURCH", "SOURCE": "PAO", "CRITFACIL": "N" }, "geometry": { "type": "Point", "coordinates": [ 562223.877, 1705221.958 ] } },
{ "type": "Feature", "properties": { "NAME": "ST PAUL COMMUNITY BAPTIST CHURCH", "ADDRESS": "311 S GARFIELD AVE", "CITYNAME": "DELAND", "STATE": "FL", "ZIP": 32724, "PHONE": "386- 943-6138", "THEME": "CHURCH", "SOURCE": "PAO", "CRITFACIL": "N" }, "geometry": { "type": "Point", "coordinates": [ 561973.859, 1705086.677 ] } },
{ "type": "Feature", "properties": { "NAME": "MT OLIVE MISSIONARY BAPTIST CHURCH", "ADDRESS": "335 S KENTUCKY AVE", "CITYNAME": "DELAND", "STATE": "FL", "ZIP": 32724, "PHONE": "386- 943-4355", "THEME": "CHURCH", "SOURCE": "PAO", "CRITFACIL": "N" }, "geometry": { "type": "Point", "coordinates": [ 562638.202, 1705025.41299999971 ] } },
{ "type": "Feature", "properties": { "NAME": "GREATER BETHLEHEM BAPTIST CHURCH", "ADDRESS": "333 S CLARA AVE", "CITYNAME": "DELAND", "STATE": "FL", "ZIP": 32720, "PHONE": "386- 738-0555", "THEME": "CHURCH", "SOURCE": "PAO", "CRITFACIL": "N" }, "geometry": { "type": "Point", "coordinates": [ 558011.206, 1704959.778 ] } },
{ "type": "Feature", "properties": { "NAME": "EASTSIDE BAPTIST CHURCH", "ADDRESS": "700 S MASSACHUSETTS AVE", "CITYNAME": "DELAND", "STATE": "FL", "ZIP": 32724, "PHONE": "386- 736-7174", "THEME": "CHURCH", "SOURCE": "PAO", "CRITFACIL": "N" }, "geometry": { "type": "Point", "coordinates": [ 567018.812, 1703646.891 ] } },
{ "type": "Feature", "properties": { "NAME": "NEW ST JOHN MISSIONARY BAPTIST CHURCH", "ADDRESS": "515 S CLARA AVE", "CITYNAME": "DELAND", "STATE": "FL", "ZIP": 32720, "PHONE": "386- 736-9058", "THEME": "CHURCH", "SOURCE": "PAO", "CRITFACIL": "N" }, "geometry": { "type": "Point", "coordinates": [ 558088.17, 1703647.529 ] } },
{ "type": "Feature", "properties": { "NAME": "APOSTOLIC PENTECOST CHURCH OF GOD", "ADDRESS": "129 W HUBBARD AVE", "CITYNAME": "DELAND", "STATE": "FL", "ZIP": 32720, "PHONE": "386- 736-6093", "THEME": "CHURCH", "SOURCE": "PAO", "CRITFACIL": "N" }, "geometry": { "type": "Point", "coordinates": [ 558880.209, 1703476.217 ] } },
{ "type": "Feature", "properties": { "NAME": "CHURCH OF JESUS CHRIST OF LATTER-DAY SAINTS", "ADDRESS": "1345  AQUARIUS AVE", "CITYNAME": "DELAND", "STATE": "FL", "ZIP": 32724, "PHONE": "386- 736-6997", "THEME": "CHURCH", "SOURCE": "PAO", "CRITFACIL": "N" }, "geometry": { "type": "Point", "coordinates": [ 561509.176, 1697933.937 ] } },
{ "type": "Feature", "properties": { "NAME": "CHRISTIAN & MISSIONARYALLIANCE CHURCH", "ADDRESS": "402 W NEW YORK AVE", "CITYNAME": "DELAND", "STATE": "FL", "ZIP": 32720, "PHONE": "386- 734-4646", "THEME": "CHURCH", "SOURCE": "PAO", "CRITFACIL": "N" }, "geometry": { "type": "Point", "coordinates": [ 557106.450999999884516, 1706494.984 ] } },
{ "type": "Feature", "properties": { "NAME": "FIRST UNITARIAN UNIVERSALIST CHURCH", "ADDRESS": "116 S CLARA AVE", "CITYNAME": "DELAND", "STATE": "FL", "ZIP": 32720, "PHONE": "386- 734-6499", "THEME": "CHURCH", "SOURCE": "PAO", "CRITFACIL": "N" }, "geometry": { "type": "Point", "coordinates": [ 557789.98, 1706313.583 ] } },
{ "type": "Feature", "properties": { "NAME": "GREATER UNION BAPTIST CHURCH", "ADDRESS": "240 S CLARA AVE", "CITYNAME": "DELAND", "STATE": "FL", "ZIP": 32720, "PHONE": "386- 734-5329", "THEME": "CHURCH", "SOURCE": "PAO", "CRITFACIL": "N" }, "geometry": { "type": "Point", "coordinates": [ 557826.784, 1705465.794 ] } },
{ "type": "Feature", "properties": { "NAME": "ROYAL TEMPLE FREE METHODIST CHURCH", "ADDRESS": "302 S DELAWARE AV", "CITYNAME": "DELAND", "STATE": "FL", "ZIP": 32720, "PHONE": "386- 738-5363", "THEME": "CHURCH", "SOURCE": "PAO", "CRITFACIL": "N" }, "geometry": { "type": "Point", "coordinates": [ 557164.094, 1705260.21099999989 ] } },
{ "type": "Feature", "properties": { "NAME": "GLOBAL PRAYER CENTER", "ADDRESS": "701 BILL FRANCE BLVD", "CITYNAME": "DAYTONA BEACH", "STATE": "FL", "ZIP": 32114, "PHONE": "386-672-0250", "THEME": "CHURCH", "SOURCE": "PAO", "CRITFACIL": "N" }, "geometry": { "type": "Point", "coordinates": [ 632752.455, 1771689.234 ] } }
]
}
