{
"type": "FeatureCollection",
"crs": { "type": "name", "properties": { "name": "urn:ogc:def:crs:OGC:1.3:CRS84" } },
                                                                                
"features": [
{ "type": "Feature", "properties": { "PRECINCT": "208", "NAME": "FIRST CHRISTIAN CHURCH", "ADDRESS": "1401 W NEW YORK AVE", "CITYNAME": "DELAND", "PHONE": null, "LOCATION": null }, "geometry": { "type": "Point", "coordinates": [ -81.330517858703644, 29.02822270029138 ] } },
{ "type": "Feature", "properties": { "PRECINCT": "729", "NAME": "CYPRESS HEAD SALES AND INFORMATION OFFICE", "ADDRESS": "6251 PALM VISTA ST", "CITYNAME": "PORT ORANGE", "PHONE": null, "LOCATION": null }, "geometry": { "type": "Point", "coordinates": [ -81.023602002102223, 29.065302676424025 ] } },
{ "type": "Feature", "properties": { "PRECINCT": "415", "NAME": "DELTONA UNITED CHURCH OF CHRIST", "ADDRESS": "1649 PROVIDENCE BLVD", "CITYNAME": "DELTONA", "PHONE": null, "LOCATION": null }, "geometry": { "type": "Point", "coordinates": [ -81.227739340829658, 28.90278958799972 ] } },
{ "type": "Feature", "properties": { "PRECINCT": "105", "NAME": "PIERSON COMMUNITY BUILDING", "ADDRESS": "128 W WASHINGTON AVE", "CITYNAME": "PIERSON", "PHONE": null, "LOCATION": null }, "geometry": { "type": "Point", "coordinates": [ -81.464500753195622, 29.245522458709395 ] } },
{ "type": "Feature", "properties": { "PRECINCT": "401", "NAME": "TRINITY ASSEMBLY OF GOD, GYM", "ADDRESS": "875 ELCAM BLVD", "CITYNAME": "DELTONA", "PHONE": null, "LOCATION": null }, "geometry": { "type": "Point", "coordinates": [ -81.254154176453426, 28.924665929735394 ] } },
{ "type": "Feature", "properties": { "PRECINCT": "420", "NAME": "FELLOWSHIP BAPTIST CHURCH", "ADDRESS": "114 COURTLAND BLVD", "CITYNAME": "DELTONA", "PHONE": null, "LOCATION": null }, "geometry": { "type": "Point", "coordinates": [ -81.18546714719092, 28.859718202499177 ] } },
{ "type": "Feature", "properties": { "PRECINCT": "222", "NAME": "HOPKINS HALL", "ADDRESS": "192 W CONNECTICUT AVE", "CITYNAME": "LAKE HELEN", "PHONE": null, "LOCATION": null }, "geometry": { "type": "Point", "coordinates": [ -81.233733641146287, 28.98774167122259 ] } },
{ "type": "Feature", "properties": { "PRECINCT": "223", "NAME": "HOPKINS HALL", "ADDRESS": "192 W CONNECTICUT AVE", "CITYNAME": "LAKE HELEN", "PHONE": null, "LOCATION": null }, "geometry": { "type": "Point", "coordinates": [ -81.233733641146287, 28.98774167122259 ] } },
{ "type": "Feature", "properties": { "PRECINCT": "309", "NAME": "ORANGE CITY LIBRARY DICKINSON HALL", "ADDRESS": "148 ALBERTUS WAY", "CITYNAME": "ORANGE CITY", "PHONE": null, "LOCATION": null }, "geometry": { "type": "Point", "coordinates": [ -81.298401985412625, 28.947916599565197 ] } },
{ "type": "Feature", "properties": { "PRECINCT": "107", "NAME": "VOLUSIA LODGE #77F&AM", "ADDRESS": "210 E STATE ROAD 40", "CITYNAME": "BARBERVILLE", "PHONE": null, "LOCATION": null }, "geometry": { "type": "Point", "coordinates": [ -81.418604595275184, 29.190319205834459 ] } },
{ "type": "Feature", "properties": { "PRECINCT": "215", "NAME": "FIRST ASSEMBLY OF GOD", "ADDRESS": "551 KEPLER RD", "CITYNAME": "DELAND", "PHONE": null, "LOCATION": null }, "geometry": { "type": "Point", "coordinates": [ -81.258967763358228, 29.019105432896207 ] } },
{ "type": "Feature", "properties": { "PRECINCT": "307", "NAME": "THE RIVER CITY CHURCH", "ADDRESS": "267 E HIGHBANKS AVE", "CITYNAME": "DEBARY", "PHONE": null, "LOCATION": null }, "geometry": { "type": "Point", "coordinates": [ -81.289861450517833, 28.889785361558904 ] } },
{ "type": "Feature", "properties": { "PRECINCT": "406", "NAME": "DELTONA REGIONAL LIBRARY", "ADDRESS": "2150 EUSTACE AVE", "CITYNAME": "DELTONA", "PHONE": null, "LOCATION": null }, "geometry": { "type": "Point", "coordinates": [ -81.224530614168074, 28.930079249140405 ] } },
{ "type": "Feature", "properties": { "PRECINCT": "809", "NAME": "NEW SMYRNA BEACH REGIONAL LIBRARY", "ADDRESS": "1001 S DIXIE FREEWAY", "CITYNAME": "NEW SMYRNA BEACH", "PHONE": null, "LOCATION": null }, "geometry": { "type": "Point", "coordinates": [ -80.921644620985731, 29.015174233922096 ] } },
{ "type": "Feature", "properties": { "PRECINCT": "810", "NAME": "NEW SMYRNA BEACH REGIONAL LIBRARY", "ADDRESS": "1001 S DIXIE FREEWAY", "CITYNAME": "NEW SMYRNA BEACH", "PHONE": null, "LOCATION": null }, "geometry": { "type": "Point", "coordinates": [ -80.921644620985731, 29.015174233922096 ] } },
{ "type": "Feature", "properties": { "PRECINCT": "404", "NAME": "OSTEEN CIVIC CENTER", "ADDRESS": "165 NEW SMYRNA BLVD", "CITYNAME": "OSTEEN", "PHONE": null, "LOCATION": null }, "geometry": { "type": "Point", "coordinates": [ -81.161730333714715, 28.846163127672412 ] } },
{ "type": "Feature", "properties": { "PRECINCT": "412", "NAME": "OSTEEN CIVIC CENTER", "ADDRESS": "165 NEW SMYRNA BLVD", "CITYNAME": "OSTEEN", "PHONE": null, "LOCATION": null }, "geometry": { "type": "Point", "coordinates": [ -81.161730333714715, 28.846163127672412 ] } },
{ "type": "Feature", "properties": { "PRECINCT": "904", "NAME": "EDGEWATER LANDING CLUBHOUSE", "ADDRESS": "601 HOMEPORT TERRACE", "CITYNAME": "EDGEWATER", "PHONE": null, "LOCATION": null }, "geometry": { "type": "Point", "coordinates": [ -80.880974562734792, 28.953922071076445 ] } },
{ "type": "Feature", "properties": { "PRECINCT": "303", "NAME": "JOHN KNOX VILLAGE ACTIVITIES CENTER", "ADDRESS": "130 SOUTHLAKE DR.", "CITYNAME": "ORANGE CITY", "PHONE": null, "LOCATION": null }, "geometry": { "type": "Point", "coordinates": [ -81.284731792536761, 28.944060375896772 ] } },
{ "type": "Feature", "properties": { "PRECINCT": "216", "NAME": "WAYNE G SANBORN ACTIVITIES CENTER", "ADDRESS": "815 S ALABAMA AVE", "CITYNAME": "DELAND", "PHONE": null, "LOCATION": null }, "geometry": { "type": "Point", "coordinates": [ -81.299831233344435, 29.015115532738907 ] } },
{ "type": "Feature", "properties": { "PRECINCT": "212", "NAME": "FLORIDA LUTHERAN RETIREMENT CENTER", "ADDRESS": "450 N MCDONALD AVE", "CITYNAME": "DELAND", "PHONE": null, "LOCATION": null }, "geometry": { "type": "Point", "coordinates": [ -81.287503159700194, 29.033865895557938 ] } },
{ "type": "Feature", "properties": { "PRECINCT": "532", "NAME": "HALIFAX PLANTATION VC FIRE STATION #16", "ADDRESS": "3935 OLD DIXIE HWY", "CITYNAME": "ORMOND BEACH", "PHONE": null, "LOCATION": null }, "geometry": { "type": "Point", "coordinates": [ -81.144815865114268, 29.404330318089361 ] } },
{ "type": "Feature", "properties": { "PRECINCT": "706", "NAME": "DAYTONA BCH SHORES COMMUNITY CENTER", "ADDRESS": "3048 S ATLANTIC AVE", "CITYNAME": "DAYTONA BEACH SHORES", "PHONE": null, "LOCATION": null }, "geometry": { "type": "Point", "coordinates": [ -80.977946886112534, 29.165687668494655 ] } },
{ "type": "Feature", "properties": { "PRECINCT": "813", "NAME": "SILVER SANDS CIVIC CENTER", "ADDRESS": "5 PALM DR", "CITYNAME": "NEW SMYRNA BEACH", "PHONE": null, "LOCATION": null }, "geometry": { "type": "Point", "coordinates": [ -80.864867950832419, 28.984095016711372 ] } },
{ "type": "Feature", "properties": { "PRECINCT": "712", "NAME": "PORT ORANGE GYM", "ADDRESS": "4655 CITY CENTER CIRCLE", "CITYNAME": "PORT ORANGE", "PHONE": null, "LOCATION": null }, "geometry": { "type": "Point", "coordinates": [ -81.018631491285262, 29.127498064127575 ] } },
{ "type": "Feature", "properties": { "PRECINCT": "805", "NAME": "CORONADO CIVIC CENTER", "ADDRESS": "223 FLAGLER AVE", "CITYNAME": "NEW SMYRNA BEACH", "PHONE": null, "LOCATION": null }, "geometry": { "type": "Point", "coordinates": [ -80.90110521996624, 29.03830288228114 ] } },
{ "type": "Feature", "properties": { "PRECINCT": "101", "NAME": "TRINITY UNITED METHODIST CHURCH", "ADDRESS": "185 LEMON RD", "CITYNAME": "SEVILLE", "PHONE": null, "LOCATION": null }, "geometry": { "type": "Point", "coordinates": [ -81.495571504030352, 29.315423712668942 ] } },
{ "type": "Feature", "properties": { "PRECINCT": "201", "NAME": "GLENWOOD PRESBYTERIAN CHURCH", "ADDRESS": "3190 GRAND AVE", "CITYNAME": "DELAND", "PHONE": null, "LOCATION": null }, "geometry": { "type": "Point", "coordinates": [ -81.354290872161883, 29.08426261623563 ] } },
{ "type": "Feature", "properties": { "PRECINCT": "205", "NAME": "FIRST ASSEMBLY OF GOD CHURCH", "ADDRESS": "1500 E INTL SPEEDWAY BLVD", "CITYNAME": "DELAND", "PHONE": null, "LOCATION": null }, "geometry": { "type": "Point", "coordinates": [ -81.274505983272036, 29.057342627500645 ] } },
{ "type": "Feature", "properties": { "PRECINCT": "204", "NAME": "FIRST ASSEMBLY OF GOD CHURCH", "ADDRESS": "1500 E INTL SPEEDWAY BLVD", "CITYNAME": "DELAND", "PHONE": null, "LOCATION": null }, "geometry": { "type": "Point", "coordinates": [ -81.274505983272036, 29.057342627500645 ] } },
{ "type": "Feature", "properties": { "PRECINCT": "206", "NAME": "KEPLER ROAD BAPTIST CHURCH", "ADDRESS": "251 KEPLER RD", "CITYNAME": "DELAND", "PHONE": null, "LOCATION": null }, "geometry": { "type": "Point", "coordinates": [ -81.259419389394878, 29.031264745803984 ] } },
{ "type": "Feature", "properties": { "PRECINCT": "207", "NAME": "ST JOHNS LODGE 37 FANDAM", "ADDRESS": "2557 N SPRING GARDEN AVE", "CITYNAME": "DELAND", "PHONE": null, "LOCATION": null }, "geometry": { "type": "Point", "coordinates": [ -81.324883570934787, 29.0728535366801 ] } },
{ "type": "Feature", "properties": { "PRECINCT": "217", "NAME": "CHISHOLM COMMUNITY CENTER", "ADDRESS": "520 S CLARA AVE", "CITYNAME": "DELAND", "PHONE": null, "LOCATION": null }, "geometry": { "type": "Point", "coordinates": [ -81.307731696078307, 29.019949307900209 ] } },
{ "type": "Feature", "properties": { "PRECINCT": "220", "NAME": "CHISHOLM COMMUNITY CENTER", "ADDRESS": "520 S CLARA AVE", "CITYNAME": "DELAND", "PHONE": null, "LOCATION": null }, "geometry": { "type": "Point", "coordinates": [ -81.307731696078307, 29.019949307900209 ] } },
{ "type": "Feature", "properties": { "PRECINCT": "218", "NAME": "DELTONA ALLIANCE CHURCH DELAND CAMPUS", "ADDRESS": "402 WEST NEW YORK AVE", "CITYNAME": "DELAND", "PHONE": null, "LOCATION": null }, "geometry": { "type": "Point", "coordinates": [ -81.309987142623825, 29.027743818399035 ] } },
{ "type": "Feature", "properties": { "PRECINCT": "301", "NAME": "ORANGE CITY METHODIST CHURCH", "ADDRESS": "396 E UNIVERSITY AVE", "CITYNAME": "ORANGE CITY", "PHONE": null, "LOCATION": null }, "geometry": { "type": "Point", "coordinates": [ -81.295055446661124, 28.950306585738023 ] } },
{ "type": "Feature", "properties": { "PRECINCT": "305", "NAME": "FLORENCE K LITTLE TOWN HALL", "ADDRESS": "12 COLOMBA RD", "CITYNAME": "DEBARY", "PHONE": null, "LOCATION": null }, "geometry": { "type": "Point", "coordinates": [ -81.307386850243233, 28.883115892247243 ] } },
{ "type": "Feature", "properties": { "PRECINCT": "308", "NAME": "FIRST CONGREGATIONAL CHURCH", "ADDRESS": "201 W UNIVERSITY AVE", "CITYNAME": "ORANGE CITY", "PHONE": null, "LOCATION": null }, "geometry": { "type": "Point", "coordinates": [ -81.300022358513772, 28.950784330763081 ] } },
{ "type": "Feature", "properties": { "PRECINCT": "403", "NAME": "NEW HOPE BAPTIST CHURCH", "ADDRESS": "2855 LAKE HELEN OSTEEN RD", "CITYNAME": "DELTONA", "PHONE": null, "LOCATION": null }, "geometry": { "type": "Point", "coordinates": [ -81.204561944206176, 28.943590417576491 ] } },
{ "type": "Feature", "properties": { "PRECINCT": "427", "NAME": "DELTONA LAKES BAPTIST CHURCH", "ADDRESS": "2886 ELKCAM BLVD", "CITYNAME": "DELTONA", "PHONE": null, "LOCATION": null }, "geometry": { "type": "Point", "coordinates": [ -81.184944412329713, 28.931058427605265 ] } },
{ "type": "Feature", "properties": { "PRECINCT": "405", "NAME": "DELTONA LAKES BAPTIST CHURCH", "ADDRESS": "2886 ELKCAM BLVD", "CITYNAME": "DELTONA", "PHONE": null, "LOCATION": null }, "geometry": { "type": "Point", "coordinates": [ -81.184944412329713, 28.931058427605265 ] } },
{ "type": "Feature", "properties": { "PRECINCT": "407", "NAME": "DELTONA CHRISTIAN CHURCH", "ADDRESS": "960 E NORMANDY BLVD", "CITYNAME": "DELTONA", "PHONE": null, "LOCATION": null }, "geometry": { "type": "Point", "coordinates": [ -81.249723148384362, 28.894435654702093 ] } },
{ "type": "Feature", "properties": { "PRECINCT": "417", "NAME": "DELTONA CHRISTIAN CHURCH", "ADDRESS": "960 E NORMANDY BLVD", "CITYNAME": "DELTONA", "PHONE": null, "LOCATION": null }, "geometry": { "type": "Point", "coordinates": [ -81.249723148384362, 28.894435654702093 ] } },
{ "type": "Feature", "properties": { "PRECINCT": "410", "NAME": "LIFE FELLOWSHIP CHURCH OF THE NAZARENE", "ADDRESS": "1420 COURTLAND BLVD", "CITYNAME": "DELTONA", "PHONE": null, "LOCATION": null }, "geometry": { "type": "Point", "coordinates": [ -81.170269226600254, 28.904069408532461 ] } },
{ "type": "Feature", "properties": { "PRECINCT": "411", "NAME": "PINE RIDGE FELLOWSHIP UNITED METHODIST CHURCH", "ADDRESS": "935   HOWLAND BLVD", "CITYNAME": "DELTONA", "PHONE": null, "LOCATION": null }, "geometry": { "type": "Point", "coordinates": [ -81.16715207263735, 28.890022231600376 ] } },
{ "type": "Feature", "properties": { "PRECINCT": "413", "NAME": "FORT SMITH BLVD BAPTIST CHURCH", "ADDRESS": "229 FORT SMITH BLVD", "CITYNAME": "DELTONA", "PHONE": null, "LOCATION": null }, "geometry": { "type": "Point", "coordinates": [ -81.174514297247299, 28.87924783440236 ] } },
{ "type": "Feature", "properties": { "PRECINCT": "414", "NAME": "WES CRILE PARK", "ADDRESS": "1537 NORBERT TERRACE", "CITYNAME": "DELTONA", "PHONE": null, "LOCATION": null }, "geometry": { "type": "Point", "coordinates": [ -81.218325182005771, 28.906294808711806 ] } },
{ "type": "Feature", "properties": { "PRECINCT": "416", "NAME": "OUR LADY OF THE LAKES CATHOLIC CHURCH", "ADDRESS": "1310 MAXIMILIAN ST", "CITYNAME": "DELTONA", "PHONE": null, "LOCATION": null }, "geometry": { "type": "Point", "coordinates": [ -81.237989988218686, 28.897574315491802 ] } },
{ "type": "Feature", "properties": { "PRECINCT": "419", "NAME": "DELTONA COMMUNITY CENTER  BLDG 2", "ADDRESS": "980 LAKESHORE DR", "CITYNAME": "DELTONA", "PHONE": null, "LOCATION": null }, "geometry": { "type": "Point", "coordinates": [ -81.251416129781035, 28.862955983739344 ] } },
{ "type": "Feature", "properties": { "PRECINCT": "429", "NAME": "DELTONA COMMUNITY CENTER  BLDG 2", "ADDRESS": "980 LAKESHORE DR", "CITYNAME": "DELTONA", "PHONE": null, "LOCATION": null }, "geometry": { "type": "Point", "coordinates": [ -81.251416129781035, 28.862955983739344 ] } },
{ "type": "Feature", "properties": { "PRECINCT": "421", "NAME": "DELTONA COMMUNITY CENTER BLDG 2", "ADDRESS": "980 LAKESHORE DR", "CITYNAME": "DELTONA", "PHONE": null, "LOCATION": null }, "geometry": { "type": "Point", "coordinates": [ -81.251416129781035, 28.862955983739344 ] } },
{ "type": "Feature", "properties": { "PRECINCT": "422", "NAME": "DELTONA PRESBYTERIAN CHURCH", "ADDRESS": "2300 HOWLAND BLVD", "CITYNAME": "DELTONA", "PHONE": null, "LOCATION": null }, "geometry": { "type": "Point", "coordinates": [ -81.194978902371432, 28.928931481405122 ] } },
{ "type": "Feature", "properties": { "PRECINCT": "423", "NAME": "ALL SAINTS EPISCOPAL CHURCH", "ADDRESS": "155 CLARK ST", "CITYNAME": "ENTERPRISE", "PHONE": null, "LOCATION": null }, "geometry": { "type": "Point", "coordinates": [ -81.267543635579912, 28.870134072724532 ] } },
{ "type": "Feature", "properties": { "PRECINCT": "501", "NAME": "ORMOND LAKES CLUBHOUSE", "ADDRESS": "70 ORMOND LAKES BLVD", "CITYNAME": "ORMOND BEACH", "PHONE": null, "LOCATION": null }, "geometry": { "type": "Point", "coordinates": [ -81.102740219336937, 29.324211040039053 ] } },
{ "type": "Feature", "properties": { "PRECINCT": "502", "NAME": "RIVERVIEW UNITED METHODIST CHURCH", "ADDRESS": "2253 JOHN ANDERSON", "CITYNAME": "ORMOND BEACH", "PHONE": null, "LOCATION": null }, "geometry": { "type": "Point", "coordinates": [ -81.072357188939009, 29.34684766355269 ] } },
{ "type": "Feature", "properties": { "PRECINCT": "504", "NAME": "ORMOND BEACH PRESBYTERIAN CHURCH", "ADDRESS": "105 AMSDEN RD", "CITYNAME": "ORMOND BEACH", "PHONE": null, "LOCATION": null }, "geometry": { "type": "Point", "coordinates": [ -81.052040413634856, 29.306286278986658 ] } },
{ "type": "Feature", "properties": { "PRECINCT": "506", "NAME": "ORMOND BEACH SENIOR CENTER", "ADDRESS": "351 ANDREWS ST", "CITYNAME": "ORMOND", "PHONE": null, "LOCATION": null }, "geometry": { "type": "Point", "coordinates": [ -81.068824234295803, 29.291973538513535 ] } },
{ "type": "Feature", "properties": { "PRECINCT": "509", "NAME": "CALVARY CHRISTIAN CENTER", "ADDRESS": "1687 W GRANADA BLVD", "CITYNAME": "ORMOND BEACH", "PHONE": null, "LOCATION": null }, "geometry": { "type": "Point", "coordinates": [ -81.118969098099612, 29.257876051106205 ] } },
{ "type": "Feature", "properties": { "PRECINCT": "511", "NAME": "CALVARY CHRISTIAN CENTER", "ADDRESS": "1687 W GRANADA BLVD", "CITYNAME": "ORMOND BEACH", "PHONE": null, "LOCATION": null }, "geometry": { "type": "Point", "coordinates": [ -81.118969098099612, 29.257876051106205 ] } },
{ "type": "Feature", "properties": { "PRECINCT": "508", "NAME": "CALVARY CHRISTIAN CENTER", "ADDRESS": "1687 W GRANADA BLVD", "CITYNAME": "ORMOND BEACH", "PHONE": null, "LOCATION": null }, "geometry": { "type": "Point", "coordinates": [ -81.118969098099612, 29.257876051106205 ] } },
{ "type": "Feature", "properties": { "PRECINCT": "510", "NAME": "COQUINA PRESBYTERIAN CHURCH", "ADDRESS": "2085 W GRANADA BLVD", "CITYNAME": "ORMOND BEACH", "PHONE": null, "LOCATION": null }, "geometry": { "type": "Point", "coordinates": [ -81.133534078562278, 29.253862724596146 ] } },
{ "type": "Feature", "properties": { "PRECINCT": "516", "NAME": "GRACE LUTHERAN CHURCH", "ADDRESS": "338 OCEAN SHORE BLVD", "CITYNAME": "ORMOND BEACH", "PHONE": null, "LOCATION": null }, "geometry": { "type": "Point", "coordinates": [ -81.044760945617739, 29.30067058638274 ] } },
{ "type": "Feature", "properties": { "PRECINCT": "519", "NAME": "ORMOND BEACH LIBRARY-AUDITORIUM", "ADDRESS": "30 S BEACH ST", "CITYNAME": "ORMOND BEACH", "PHONE": null, "LOCATION": null }, "geometry": { "type": "Point", "coordinates": [ -81.0554706286445, 29.284630468431295 ] } },
{ "type": "Feature", "properties": { "PRECINCT": "521", "NAME": "TOMOKA UNITED METHODIST CHURCH", "ADDRESS": "1000 OLD TOMOKA RD", "CITYNAME": "ORMOND BEACH", "PHONE": null, "LOCATION": null }, "geometry": { "type": "Point", "coordinates": [ -81.090526810491554, 29.276981975092419 ] } },
{ "type": "Feature", "properties": { "PRECINCT": "522", "NAME": "PRINCE OF PEACE CATHOLIC CHURCH", "ADDRESS": "600 S NOVA RD", "CITYNAME": "ORMOND", "PHONE": null, "LOCATION": null }, "geometry": { "type": "Point", "coordinates": [ -81.079225767295085, 29.265773880645543 ] } },
{ "type": "Feature", "properties": { "PRECINCT": "523", "NAME": "PRINCE OF PEACE CATHOLIC CHURCH", "ADDRESS": "600 S NOVA RD", "CITYNAME": "ORMOND BEACH", "PHONE": null, "LOCATION": null }, "geometry": { "type": "Point", "coordinates": [ -81.079225767295085, 29.265773880645543 ] } },
{ "type": "Feature", "properties": { "PRECINCT": "526", "NAME": "UNITED BRETHREN CHURCH", "ADDRESS": "560 FLOMICH ST", "CITYNAME": "HOLLY HILL", "PHONE": null, "LOCATION": null }, "geometry": { "type": "Point", "coordinates": [ -81.055494101055231, 29.25263414248148 ] } },
{ "type": "Feature", "properties": { "PRECINCT": "528", "NAME": "SICA HALL", "ADDRESS": "1065 DAYTONA AVE", "CITYNAME": "HOLLY HILL", "PHONE": null, "LOCATION": null }, "geometry": { "type": "Point", "coordinates": [ -81.038395124239912, 29.245667003219488 ] } },
{ "type": "Feature", "properties": { "PRECINCT": "527", "NAME": "SICA HALL", "ADDRESS": "1065 DAYTONA AVE", "CITYNAME": "HOLLY HILL", "PHONE": null, "LOCATION": null }, "geometry": { "type": "Point", "coordinates": [ -81.038395124239912, 29.245667003219488 ] } },
{ "type": "Feature", "properties": { "PRECINCT": "529", "NAME": "SICA HALL", "ADDRESS": "1065 DAYTONA AVE", "CITYNAME": "HOLLY HILL", "PHONE": null, "LOCATION": null }, "geometry": { "type": "Point", "coordinates": [ -81.038395149333084, 29.245667022462843 ] } },
{ "type": "Feature", "properties": { "PRECINCT": "530", "NAME": "DAYTONA BEACH CHURCH OF CHRIST", "ADDRESS": "1040 DERBYSHIRE RD.", "CITYNAME": "DAYTONA BEACH", "PHONE": null, "LOCATION": null }, "geometry": { "type": "Point", "coordinates": [ -81.065614575064259, 29.233758574825757 ] } },
{ "type": "Feature", "properties": { "PRECINCT": "602", "NAME": "SEVENTH DAY ADVENTIST CHURCH", "ADDRESS": "401 N WILLIAMSON BLVD", "CITYNAME": "DAYTONA BEACH", "PHONE": null, "LOCATION": null }, "geometry": { "type": "Point", "coordinates": [ -81.082835987349497, 29.193195458907397 ] } },
{ "type": "Feature", "properties": { "PRECINCT": "711", "NAME": "PORT ORANGE GYM", "ADDRESS": "4655 CITY CENTER CIRCLE", "CITYNAME": "PORT ORANGE", "PHONE": null, "LOCATION": null }, "geometry": { "type": "Point", "coordinates": [ -81.018631491285262, 29.127498064127575 ] } },
{ "type": "Feature", "properties": { "PRECINCT": "709", "NAME": "EPIPHANY CATHOLIC CHURCH", "ADDRESS": "201 LAFAYETTE ST", "CITYNAME": "PORT ORANGE", "PHONE": null, "LOCATION": null }, "geometry": { "type": "Point", "coordinates": [ -80.986219036816991, 29.134058160687992 ] } },
{ "type": "Feature", "properties": { "PRECINCT": "720", "NAME": "EPIPHANY CATHOLIC CHURCH", "ADDRESS": "201 LAFAYETTE ST", "CITYNAME": "PORT ORANGE", "PHONE": null, "LOCATION": null }, "geometry": { "type": "Point", "coordinates": [ -80.986219036816991, 29.134058160687992 ] } },
{ "type": "Feature", "properties": { "PRECINCT": "719", "NAME": "ALL SAINTS LUTHERAN CHURCH", "ADDRESS": "751 DUNLAWTON AVE", "CITYNAME": "PORT ORANGE", "PHONE": null, "LOCATION": null }, "geometry": { "type": "Point", "coordinates": [ -81.001410835681298, 29.13308613612579 ] } },
{ "type": "Feature", "properties": { "PRECINCT": "603", "NAME": "LIVING FAITH WORLD MINISTRIES", "ADDRESS": "950 DERBYSHIRE RD", "CITYNAME": "DAYTONA BEACH", "PHONE": null, "LOCATION": null }, "geometry": { "type": "Point", "coordinates": [ -81.064126688454039, 29.229336110048671 ] } },
{ "type": "Feature", "properties": { "PRECINCT": "607", "NAME": "SCHNEBLY RECREATION CENTER", "ADDRESS": "1101 N ATLANTIC AVE", "CITYNAME": "DAYTONA BEACH", "PHONE": null, "LOCATION": null }, "geometry": { "type": "Point", "coordinates": [ -81.017373963225495, 29.244801758674992 ] } },
{ "type": "Feature", "properties": { "PRECINCT": "614", "NAME": "WESTSIDE BAPTIST CHURCH", "ADDRESS": "1085 MASON AVE", "CITYNAME": "DAYTONA BEACH", "PHONE": null, "LOCATION": null }, "geometry": { "type": "Point", "coordinates": [ -81.052664619369324, 29.217115577992629 ] } },
{ "type": "Feature", "properties": { "PRECINCT": "619", "NAME": "MT CARMEL MISSIONARY BAPTIST CHURCH", "ADDRESS": "703 GEORGE W ENGRAM BLVD", "CITYNAME": "DAYTONA BEACH", "PHONE": null, "LOCATION": null }, "geometry": { "type": "Point", "coordinates": [ -81.035390955240828, 29.214217938779768 ] } },
{ "type": "Feature", "properties": { "PRECINCT": "621", "NAME": "BCU CENTER FOR CIVIC ENGAGEMENT", "ADDRESS": "740 W INTL SPEEDWAY BLVD", "CITYNAME": "DAYTONA BEACH", "PHONE": null, "LOCATION": null }, "geometry": { "type": "Point", "coordinates": [ -81.032666617906344, 29.206680636188686 ] } },
{ "type": "Feature", "properties": { "PRECINCT": "620", "NAME": "BCU CENTER FOR CIVIC ENGAGEMENT", "ADDRESS": "740 W INTL SPEEDWAY BLVD", "CITYNAME": "DAYTONA BEACH", "PHONE": null, "LOCATION": null }, "geometry": { "type": "Point", "coordinates": [ -81.032666621040903, 29.206680636187922 ] } },
{ "type": "Feature", "properties": { "PRECINCT": "622", "NAME": "DAYTONA BEACH REGIONAL LIBRARY", "ADDRESS": "105 E MAGNOLIA AVE", "CITYNAME": "DAYTONA BEACH", "PHONE": null, "LOCATION": null }, "geometry": { "type": "Point", "coordinates": [ -81.017367821448033, 29.2123121396627 ] } },
{ "type": "Feature", "properties": { "PRECINCT": "625", "NAME": "DAYTONA BEACH REGIONAL LIBRARY", "ADDRESS": "105 E MAGNOLIA AVE", "CITYNAME": "DAYTONA BEACH", "PHONE": null, "LOCATION": null }, "geometry": { "type": "Point", "coordinates": [ -81.017367821448033, 29.2123121396627 ] } },
{ "type": "Feature", "properties": { "PRECINCT": "623", "NAME": "COMMUNITY UNITED METHODIST CHURCH", "ADDRESS": "616 HARVEY AVE", "CITYNAME": "DAYTONA BEACH", "PHONE": null, "LOCATION": null }, "geometry": { "type": "Point", "coordinates": [ -81.008861852239406, 29.224247516913231 ] } },
{ "type": "Feature", "properties": { "PRECINCT": "626", "NAME": "WINDSOR APARTMENTS", "ADDRESS": "524 S BEACH ST", "CITYNAME": "DAYTONA BEACH", "PHONE": null, "LOCATION": null }, "geometry": { "type": "Point", "coordinates": [ -81.015850247575102, 29.202796544413243 ] } },
{ "type": "Feature", "properties": { "PRECINCT": "628", "NAME": "JOHN H DICKERSON COMMCTR", "ADDRESS": "308 S M L KING BLVD", "CITYNAME": "DAYTONA BEACH", "PHONE": null, "LOCATION": null }, "geometry": { "type": "Point", "coordinates": [ -81.026395235709785, 29.203942408373113 ] } },
{ "type": "Feature", "properties": { "PRECINCT": "633", "NAME": "BEVILLE ROAD CHURCH OF CHRIST", "ADDRESS": "850 BEVILLE RD", "CITYNAME": "DAYTONA BEACH", "PHONE": null, "LOCATION": null }, "geometry": { "type": "Point", "coordinates": [ -81.023098595170296, 29.178338810821174 ] } },
{ "type": "Feature", "properties": { "PRECINCT": "638", "NAME": "COLONIAL COLONY SOUTH", "ADDRESS": "SOUTH REC LOUNGE, 1275 BEVILLE RD", "CITYNAME": "DAYTONA BEACH", "PHONE": null, "LOCATION": null }, "geometry": { "type": "Point", "coordinates": [ -81.032842480440621, 29.164496140524097 ] } },
{ "type": "Feature", "properties": { "PRECINCT": "701", "NAME": "SOUTH DAYTONA CHRISTIAN CHURCH", "ADDRESS": "2121 KENILWORTH AVE", "CITYNAME": "SOUTH DAYTONA", "PHONE": null, "LOCATION": null }, "geometry": { "type": "Point", "coordinates": [ -81.010296065964667, 29.16914517773025 ] } },
{ "type": "Feature", "properties": { "PRECINCT": "703", "NAME": "PIGGOTTE COMMUNITY CENTER", "ADDRESS": "504 BIG TREE RD", "CITYNAME": "SOUTH DAYTONA", "PHONE": null, "LOCATION": null }, "geometry": { "type": "Point", "coordinates": [ -81.007559170381228, 29.173488534808016 ] } },
{ "type": "Feature", "properties": { "PRECINCT": "705", "NAME": "WESTMINSTER BY THE SEA PRES CHURCH", "ADDRESS": "3221 S PENINSULA", "CITYNAME": "DAYTONA BEACH", "PHONE": null, "LOCATION": null }, "geometry": { "type": "Point", "coordinates": [ -80.975390385109691, 29.157654459761645 ] } },
{ "type": "Feature", "properties": { "PRECINCT": "714", "NAME": "PORT ORANGE PRESBYTERIAN CHURCH", "ADDRESS": "4662 CLYDE MORRIS BLVD", "CITYNAME": "PORT ORANGE", "PHONE": null, "LOCATION": null }, "geometry": { "type": "Point", "coordinates": [ -81.026184402396822, 29.127313596284754 ] } },
{ "type": "Feature", "properties": { "PRECINCT": "717", "NAME": "PORT ORANGE PRESBYTERIAN CHURCH", "ADDRESS": "4662 CLYDE MORRIS BLVD", "CITYNAME": "PORT ORANGE", "PHONE": null, "LOCATION": null }, "geometry": { "type": "Point", "coordinates": [ -81.026184402396822, 29.127313596284754 ] } },
{ "type": "Feature", "properties": { "PRECINCT": "716", "NAME": "SPRUCE CREEK PRESBYTERIAN CHURCH", "ADDRESS": "1705 TAYLOR RD", "CITYNAME": "PORT ORANGE", "PHONE": null, "LOCATION": null }, "geometry": { "type": "Point", "coordinates": [ -81.039543683730315, 29.100268088455749 ] } },
{ "type": "Feature", "properties": { "PRECINCT": "718", "NAME": "PORT ORANGE UNITED CHURCH OF CHRIST", "ADDRESS": "651 TAYLOR RD", "CITYNAME": "PORT ORANGE", "PHONE": null, "LOCATION": null }, "geometry": { "type": "Point", "coordinates": [ -81.005728668679836, 29.107338240579011 ] } },
{ "type": "Feature", "properties": { "PRECINCT": "722", "NAME": "PARKWOOD MOBILE HOME COMM NORTH", "ADDRESS": "4000 NOVA RD", "CITYNAME": "PORT ORANGE", "PHONE": null, "LOCATION": null }, "geometry": { "type": "Point", "coordinates": [ -80.99620955983319, 29.117120634339372 ] } },
{ "type": "Feature", "properties": { "PRECINCT": "725", "NAME": "IBEW (INTL BROTHERHOOD OF ELECTRICAL WORKERS)", "ADDRESS": "5901 S WILLIAMSON BLVD", "CITYNAME": "PORT ORANGE", "PHONE": null, "LOCATION": null }, "geometry": { "type": "Point", "coordinates": [ -81.028156722958911, 29.10030558623485 ] } },
{ "type": "Feature", "properties": { "PRECINCT": "726", "NAME": "PONCE INLET COMMUNITY CENTER", "ADDRESS": "4670 S PENINSULA DR", "CITYNAME": "PONCE INLET", "PHONE": null, "LOCATION": null }, "geometry": { "type": "Point", "coordinates": [ -80.941317120856084, 29.099199999707242 ] } },
{ "type": "Feature", "properties": { "PRECINCT": "732", "NAME": "CRANE LAKES GOLF AND COUNTRY CLUB", "ADDRESS": "1850 CRANE LAKES BLVD", "CITYNAME": "PORT ORANGE", "PHONE": null, "LOCATION": null }, "geometry": { "type": "Point", "coordinates": [ -81.048562592511075, 29.101437489332767 ] } },
{ "type": "Feature", "properties": { "PRECINCT": "733", "NAME": "PORT ORANGE CHRISTIAN CHURCH", "ADDRESS": "904 TAYLOR ROAD", "CITYNAME": "PORT ORANGE", "PHONE": null, "LOCATION": null }, "geometry": { "type": "Point", "coordinates": [ -81.025287939902341, 29.106067015629254 ] } },
{ "type": "Feature", "properties": { "PRECINCT": "803", "NAME": "SUGAR MILL COUNTRY CLUB", "ADDRESS": "100 CLUB HOUSE CIR", "CITYNAME": "NEW SMYRNA BEACH", "PHONE": null, "LOCATION": null }, "geometry": { "type": "Point", "coordinates": [ -80.985056324852707, 29.043947111478566 ] } },
{ "type": "Feature", "properties": { "PRECINCT": "807", "NAME": "LIGHTHOUSE WORSHIP CENTER", "ADDRESS": "190 WALLACE RD", "CITYNAME": "NEW SMYRNA BEACH", "PHONE": null, "LOCATION": null }, "geometry": { "type": "Point", "coordinates": [ -80.944755619750026, 29.017215524051764 ] } },
{ "type": "Feature", "properties": { "PRECINCT": "812", "NAME": "OUR LADY STAR OF THE SEA CATHOLIC CHURCH", "ADDRESS": "4000 S ATLANTIC AVE", "CITYNAME": "NEW SMYRNA BEACH", "PHONE": null, "LOCATION": null }, "geometry": { "type": "Point", "coordinates": [ -80.877734942868017, 29.005711761718707 ] } },
{ "type": "Feature", "properties": { "PRECINCT": "814", "NAME": "FRATERNAL ORDER OF POLICE LODGE NO 40", "ADDRESS": "471 OLD MISSION ROAD", "CITYNAME": "NEW SMYRNA BEACH", "PHONE": null, "LOCATION": null }, "geometry": { "type": "Point", "coordinates": [ -80.93601531260758, 29.012787684748645 ] } },
{ "type": "Feature", "properties": { "PRECINCT": "910", "NAME": "EDGEWATER COUNCIL CHAMBERS", "ADDRESS": "102 N RIVERSIDE DR", "CITYNAME": "EDGEWATER", "PHONE": null, "LOCATION": null }, "geometry": { "type": "Point", "coordinates": [ -80.905128069657721, 28.992932688926278 ] } },
{ "type": "Feature", "properties": { "PRECINCT": "901", "NAME": "EDGEWATER COUNCIL CHAMBERS", "ADDRESS": "102 N RIVERSIDE DR", "CITYNAME": "EDGEWATER", "PHONE": null, "LOCATION": null }, "geometry": { "type": "Point", "coordinates": [ -80.905128069657721, 28.992932688926278 ] } },
{ "type": "Feature", "properties": { "PRECINCT": "902", "NAME": "FRIENDSHIP BAPTIST CHURCH", "ADDRESS": "2108 HIBISCUS DR", "CITYNAME": "EDGEWATER", "PHONE": null, "LOCATION": null }, "geometry": { "type": "Point", "coordinates": [ -80.90018208015681, 28.963475908436966 ] } },
{ "type": "Feature", "properties": { "PRECINCT": "903", "NAME": "FL SHORES PROPERTY OWNERS CLUBHOUSE", "ADDRESS": "2932 LIME TREE DR", "CITYNAME": "EDGEWATER", "PHONE": null, "LOCATION": null }, "geometry": { "type": "Point", "coordinates": [ -80.897204016278934, 28.947198527455829 ] } },
{ "type": "Feature", "properties": { "PRECINCT": "907", "NAME": "FIRST BAPTIST CHURCH", "ADDRESS": "192 E HALIFAX AVE", "CITYNAME": "OAK HILL", "PHONE": null, "LOCATION": null }, "geometry": { "type": "Point", "coordinates": [ -80.847500655950611, 28.864411957713987 ] } },
{ "type": "Feature", "properties": { "PRECINCT": "909", "NAME": "OAK HILL CITY HALL", "ADDRESS": "234 SOUTH US HWY 1", "CITYNAME": "OAK HILL", "PHONE": null, "LOCATION": null }, "geometry": { "type": "Point", "coordinates": [ -80.851237872847221, 28.858872748114457 ] } },
{ "type": "Feature", "properties": { "PRECINCT": "503", "NAME": "ORMOND LAKES CLUBHOUSE", "ADDRESS": "70 ORMOND LAKES BLVD", "CITYNAME": "ORMOND BEACH", "PHONE": null, "LOCATION": null }, "geometry": { "type": "Point", "coordinates": [ -81.102740219336937, 29.324211040039053 ] } },
{ "type": "Feature", "properties": { "PRECINCT": "224", "NAME": "THE SANCTUARY CHURCH OF GOD", "ADDRESS": "401 E TAYLOR RD", "CITYNAME": "DELAND", "PHONE": null, "LOCATION": null }, "geometry": { "type": "Point", "coordinates": [ -81.295662667809992, 28.999760257063532 ] } },
{ "type": "Feature", "properties": { "PRECINCT": "728", "NAME": "PARKWOOD M.H.P. SOUTH CLUBHOUSE", "ADDRESS": "601 AZALEA CIR", "CITYNAME": "PORT ORANGE", "PHONE": null, "LOCATION": null }, "geometry": { "type": "Point", "coordinates": [ -80.995566267353567, 29.107473414924506 ] } },
{ "type": "Feature", "properties": { "PRECINCT": "306", "NAME": "ST ANNS CATHOLIC CHURCH", "ADDRESS": "26 DOGWOOD TRL", "CITYNAME": "DEBARY", "PHONE": null, "LOCATION": null }, "geometry": { "type": "Point", "coordinates": [ -81.307873852542613, 28.897784924626983 ] } },
{ "type": "Feature", "properties": { "PRECINCT": "304", "NAME": "ST ANNS CATHOLIC CHURCH", "ADDRESS": "26 DOGWOOD TRL", "CITYNAME": "DEBARY", "PHONE": null, "LOCATION": null }, "geometry": { "type": "Point", "coordinates": [ -81.307873852542613, 28.897784924626983 ] } },
{ "type": "Feature", "properties": { "PRECINCT": "202", "NAME": "FIRST BAPTIST CHURCH OF DELEON SPRINGS", "ADDRESS": "4970 UPSON AVE", "CITYNAME": "DELEON SPRINGS", "PHONE": null, "LOCATION": null }, "geometry": { "type": "Point", "coordinates": [ -81.349293813317047, 29.117408355158553 ] } },
{ "type": "Feature", "properties": { "PRECINCT": "203", "NAME": "FIRST BAPTIST CHURCH OF DELEON SPRINGS", "ADDRESS": "4970 UPSON AVE", "CITYNAME": "DELEON SPRINGS", "PHONE": null, "LOCATION": null }, "geometry": { "type": "Point", "coordinates": [ -81.349293813317047, 29.117408355158553 ] } },
{ "type": "Feature", "properties": { "PRECINCT": "512", "NAME": "PROVIDENCE CHURCH", "ADDRESS": "1151 W GRANADA BLVD", "CITYNAME": "ORMOND BEACH", "PHONE": null, "LOCATION": null }, "geometry": { "type": "Point", "coordinates": [ -81.09995152216851, 29.270030044881636 ] } },
{ "type": "Feature", "properties": { "PRECINCT": "808", "NAME": "BABE JAMES COMM CENTER", "ADDRESS": "201 N MYRTLE AVE", "CITYNAME": "NEW SMYRNA BEACH", "PHONE": null, "LOCATION": null }, "geometry": { "type": "Point", "coordinates": [ -80.930724009152996, 29.023525977272531 ] } },
{ "type": "Feature", "properties": { "PRECINCT": "804", "NAME": "BABE JAMES COMM CENTER", "ADDRESS": "201 N MYRTLE AVE", "CITYNAME": "NEW SMYRNA BEACH", "PHONE": null, "LOCATION": null }, "geometry": { "type": "Point", "coordinates": [ -80.930724009152996, 29.023525977272531 ] } },
{ "type": "Feature", "properties": { "PRECINCT": "641", "NAME": "BEVILLE ROAD CHURCH OF CHRIST", "ADDRESS": "850 BEVILLE RD", "CITYNAME": "DAYTONA BEACH", "PHONE": null, "LOCATION": null }, "geometry": { "type": "Point", "coordinates": [ -81.023098595170296, 29.178338810821174 ] } },
{ "type": "Feature", "properties": { "PRECINCT": "816", "NAME": "CROSSROADS CHRISTIAN CHURCH", "ADDRESS": "3838 STATE ROAD 44", "CITYNAME": "NEW SMYRNA BEACH", "PHONE": null, "LOCATION": null }, "geometry": { "type": "Point", "coordinates": [ -81.061983406564053, 29.010086882170878 ] } },
{ "type": "Feature", "properties": { "PRECINCT": "515", "NAME": "ORMOND BEACH LIBRARY-AUDITORIUM", "ADDRESS": "30 S BEACH ST", "CITYNAME": "ORMOND BEACH", "PHONE": null, "LOCATION": null }, "geometry": { "type": "Point", "coordinates": [ -81.0554706286445, 29.284630468431295 ] } },
{ "type": "Feature", "properties": { "PRECINCT": "517", "NAME": "CITY OF ORMOND BEACH CASEMENTS", "ADDRESS": "25 RIVERSIDE DR", "CITYNAME": "ORMOND BEACH", "PHONE": null, "LOCATION": null }, "geometry": { "type": "Point", "coordinates": [ -81.046805533191957, 29.288415120116035 ] } }
]
}
