{
"type": "FeatureCollection",
"crs": { "type": "name", "properties": { "name": "urn:ogc:def:crs:OGC:1.3:CRS84" } },
                                                                                
"features": [
{ "type": "Feature", "properties": { "OBJECTID": 317, "NAME": "INTERNATIONAL ACADEMY OF HAIR DESIGN", "ADDRESS": "2827 S RIDGEWOOD AVE", "CITY": "SOUTH DAYTONA", "STATE": "FL", "ZIPCODE": "32119", "PHONE": "386-767-4600", "THEME": "VO TECH", "FAC": "NA", "SCHOOLCODE": 8, "ZIP4": null, "TYPE": "12", "CURAPPLY": null, "PERMIT": null, "URL": "http:\/\/www.iahd.net\/", "PERM_ID": "12127SCH6", "SOURCE_FID": "SCH", "SOURCE_DID": "6", "LOAD_DATE": "2009\/02\/17", "DATA_QUALI": 2, "FTYPE": 730, "FCODE": 73002, "IsLANDMARK": 2, "LATITUDE": 29.157775940000001, "LONGITUDE": -80.994041640000006, "USNG": "17R NN 0057925466", "TractID": "12127082401" }, "geometry": { "type": "Point", "coordinates": [ -80.994041647642177, 29.157775942569401 ] } },
{ "type": "Feature", "properties": { "OBJECTID": 318, "NAME": "STARKE ELEMENTARY SCHOOL", "ADDRESS": "730 S PARSONS AVE", "CITY": "DELAND", "STATE": "FL", "ZIPCODE": "32720", "PHONE": "386-943-9651", "THEME": "PUBLIC", "FAC": "6441", "SCHOOLCODE": 1, "ZIP4": "32720-6883", "TYPE": "13", "CURAPPLY": "2002\/10\/14", "PERMIT": "64-51-01585", "URL": "http:\/\/myvolusiaschools.org\/schools\/Pages\/default.aspx", "PERM_ID": "12127SCH180", "SOURCE_FID": "SCH", "SOURCE_DID": "180", "LOAD_DATE": "2009\/02\/17", "DATA_QUALI": 1, "FTYPE": 730, "FCODE": 73003, "IsLANDMARK": 2, "LATITUDE": 29.014756219999999, "LONGITUDE": -81.308704939999998, "USNG": "17R MN 6993609660", "TractID": "12127090600" }, "geometry": { "type": "Point", "coordinates": [ -81.308704939739712, 29.014756220842028 ] } },
{ "type": "Feature", "properties": { "OBJECTID": 319, "NAME": "IVY HAWN CHARTER SCHOOL OF THE ARTS", "ADDRESS": "565 S LAKEVIEW DR", "CITY": "LAKE HELEN", "STATE": "FL", "ZIPCODE": "32744", "PHONE": "386-228-3900", "THEME": "PUBLIC", "FAC": "7621", "SCHOOLCODE": 7, "ZIP4": null, "TYPE": "13", "CURAPPLY": "2011\/08\/04", "PERMIT": "64-51-1362746", "URL": "http:\/\/myvolusiaschools.org\/schools\/Pages\/default.aspx", "PERM_ID": "12127SCH183", "SOURCE_FID": "SCH", "SOURCE_DID": "183", "LOAD_DATE": "2013\/08\/15", "DATA_QUALI": 1, "FTYPE": 730, "FCODE": 73002, "IsLANDMARK": 2, "LATITUDE": 28.97647576, "LONGITUDE": -81.230702309999998, "USNG": "17R MN 7752405401", "TractID": "12127091001" }, "geometry": { "type": "Point", "coordinates": [ -81.230702315931623, 28.976475765261039 ] } },
{ "type": "Feature", "properties": { "OBJECTID": 320, "NAME": "ESFORMES HEBREW ACADEMY", "ADDRESS": "1079 W GRANDA BLVD", "CITY": "ORMOND BEACH", "STATE": "FL", "ZIPCODE": "32174", "PHONE": "386-672-9300", "THEME": "PRIVATE", "FAC": "4607", "SCHOOLCODE": 8, "ZIP4": "32174", "TYPE": "12", "CURAPPLY": "2009\/01\/13", "PERMIT": "64-51-02330", "URL": "http:\/\/www.chabaddaytona.org\/", "PERM_ID": "12127SCH185", "SOURCE_FID": "SCH", "SOURCE_DID": "185", "LOAD_DATE": "2013\/08\/15", "DATA_QUALI": 1, "FTYPE": 730, "FCODE": 73002, "IsLANDMARK": 2, "LATITUDE": 29.274049219999998, "LONGITUDE": -81.095044549999997, "USNG": "17R MN 9076738352", "TractID": "12127080806" }, "geometry": { "type": "Point", "coordinates": [ -81.095044550104376, 29.274049227847613 ] } },
{ "type": "Feature", "properties": { "OBJECTID": 321, "NAME": "FOREST LAKE ELEMENTARY SCHOOL", "ADDRESS": "1600 DOYLE RD", "CITY": "DELTONA", "STATE": "FL", "ZIPCODE": "32725", "PHONE": "386-575-4166", "THEME": "PUBLIC", "FAC": "7751", "SCHOOLCODE": 1, "ZIP4": "32725-8522", "TYPE": "13", "CURAPPLY": "2002\/10\/14", "PERMIT": "64-51-01547", "URL": "http:\/\/myvolusiaschools.org\/schools\/Pages\/default.aspx", "PERM_ID": "12127SCH198", "SOURCE_FID": "SCH", "SOURCE_DID": "198", "LOAD_DATE": "2009\/02\/17", "DATA_QUALI": 1, "FTYPE": 730, "FCODE": 73003, "IsLANDMARK": 2, "LATITUDE": 28.87277276, "LONGITUDE": -81.228784020000006, "USNG": "17R MM 7768993912", "TractID": "12127091028" }, "geometry": { "type": "Point", "coordinates": [ -81.228784023566675, 28.872772760929493 ] } },
{ "type": "Feature", "properties": { "OBJECTID": 322, "NAME": "OSTEEN ELEMENTARY SCHOOL", "ADDRESS": "500 DOYLE RD", "CITY": "OSTEEN", "STATE": "FL", "ZIPCODE": "32764", "PHONE": "386-575-4255", "THEME": "PUBLIC", "FAC": "2021", "SCHOOLCODE": 1, "ZIP4": "32764-9621", "TYPE": "13", "CURAPPLY": "2002\/10\/14", "PERMIT": "64-51-01568", "URL": "http:\/\/myvolusiaschools.org\/schools\/Pages\/default.aspx", "PERM_ID": "12127SCH208", "SOURCE_FID": "SCH", "SOURCE_DID": "208", "LOAD_DATE": "2009\/02\/17", "DATA_QUALI": 1, "FTYPE": 730, "FCODE": 73003, "IsLANDMARK": 2, "LATITUDE": 28.85435403, "LONGITUDE": -81.174997700000006, "USNG": "17R MM 8293191862", "TractID": "12127091013" }, "geometry": { "type": "Point", "coordinates": [ -81.174997703411847, 28.854354037551495 ] } },
{ "type": "Feature", "properties": { "OBJECTID": 323, "NAME": "SUNSHINE STATE SCHOOL OF LEADERSHIP", "ADDRESS": "2700 ENTERPRISE RD", "CITY": "ORANGE CITY", "STATE": "FL", "ZIPCODE": "32763", "PHONE": "386-218-3906", "THEME": "PRIVATE", "FAC": "7214", "SCHOOLCODE": 8, "ZIP4": null, "TYPE": "12", "CURAPPLY": "2012\/02\/21", "PERMIT": "64-51-1394344", "URL": "https:\/\/www.facebook.com\/", "PERM_ID": "12127SCH194", "SOURCE_FID": "SCH", "SOURCE_DID": "194", "LOAD_DATE": "2013\/08\/15", "DATA_QUALI": 1, "FTYPE": 730, "FCODE": 73002, "IsLANDMARK": 2, "LATITUDE": 28.908631669999998, "LONGITUDE": -81.290948040000004, "USNG": "17R MM 7163597898", "TractID": "12127090902" }, "geometry": { "type": "Point", "coordinates": [ -81.29094804145106, 28.908631677211751 ] } },
{ "type": "Feature", "properties": { "OBJECTID": 324, "NAME": "ALDERSGATE ACADEMY", "ADDRESS": "51 CHILDREN'S WAY", "CITY": "ENTERPRISE", "STATE": "FL", "ZIPCODE": "32738", "PHONE": "386-668-4774", "THEME": "PRIVATE", "FAC": "3917", "SCHOOLCODE": 8, "ZIP4": null, "TYPE": "12", "CURAPPLY": null, "PERMIT": null, "URL": "http:\/\/www.allchildrenfirst.org\/", "PERM_ID": "12127SCH201", "SOURCE_FID": "SCH", "SOURCE_DID": "201", "LOAD_DATE": "2014\/08\/20", "DATA_QUALI": 2, "FTYPE": 730, "FCODE": 73002, "IsLANDMARK": 2, "LATITUDE": 28.868004819999999, "LONGITUDE": -81.266286559999998, "USNG": "17R MM7403193390", "TractID": "12127091018" }, "geometry": { "type": "Point", "coordinates": [ -81.266286565085593, 28.868004825195069 ] } },
{ "type": "Feature", "properties": { "OBJECTID": 325, "NAME": "SUNRISE ELEMENTARY SCHOOL", "ADDRESS": "3155 PHONETIA DR", "CITY": "DELTONA", "STATE": "FL", "ZIPCODE": "32738", "PHONE": "386-575-4103", "THEME": "PUBLIC", "FAC": "6841", "SCHOOLCODE": 1, "ZIP4": "32738-9422", "TYPE": "13", "CURAPPLY": "2002\/10\/14", "PERMIT": "64-51-01587", "URL": "http:\/\/myvolusiaschools.org\/schools\/Pages\/default.aspx", "PERM_ID": "12127SCH21", "SOURCE_FID": "SCH", "SOURCE_DID": "21", "LOAD_DATE": "2009\/02\/17", "DATA_QUALI": 1, "FTYPE": 730, "FCODE": 73003, "IsLANDMARK": 2, "LATITUDE": 28.88145098, "LONGITUDE": -81.175486109999994, "USNG": "17R MM 8288894864", "TractID": "12127091025" }, "geometry": { "type": "Point", "coordinates": [ -81.17548611401476, 28.881450981669698 ] } },
{ "type": "Feature", "properties": { "OBJECTID": 326, "NAME": "HERITAGE MIDDLE SCHOOL", "ADDRESS": "1001 PARNELL CT", "CITY": "DELTONA", "STATE": "FL", "ZIPCODE": "32738", "PHONE": "386-575-4113", "THEME": "PUBLIC", "FAC": "7771", "SCHOOLCODE": 2, "ZIP4": "32738-7131", "TYPE": "13", "CURAPPLY": "2002\/10\/14", "PERMIT": "64-51-01551", "URL": "http:\/\/myvolusiaschools.org\/schools\/Pages\/default.aspx", "PERM_ID": "12127SCH22", "SOURCE_FID": "SCH", "SOURCE_DID": "22", "LOAD_DATE": "2009\/02\/17", "DATA_QUALI": 1, "FTYPE": 730, "FCODE": 73004, "IsLANDMARK": 2, "LATITUDE": 28.89193234, "LONGITUDE": -81.172221500000006, "USNG": "17R MM 8320896025", "TractID": "12127091025" }, "geometry": { "type": "Point", "coordinates": [ -81.172221509298424, 28.891932347449092 ] } },
{ "type": "Feature", "properties": { "OBJECTID": 327, "NAME": "PINE RIDGE HIGH SCHOOL", "ADDRESS": "926 HOWLAND BLVD", "CITY": "DELTONA", "STATE": "FL", "ZIPCODE": "32738", "PHONE": "386-575-4195", "THEME": "PUBLIC", "FAC": "6881", "SCHOOLCODE": 4, "ZIP4": "32738-7149", "TYPE": "13", "CURAPPLY": "2002\/10\/14", "PERMIT": "64-51-01572", "URL": "http:\/\/myvolusiaschools.org\/schools\/Pages\/default.aspx", "PERM_ID": "12127SCH23", "SOURCE_FID": "SCH", "SOURCE_DID": "23", "LOAD_DATE": "2009\/02\/17", "DATA_QUALI": 1, "FTYPE": 730, "FCODE": 73005, "IsLANDMARK": 1, "LATITUDE": 28.887490410000002, "LONGITUDE": -81.162805539999994, "USNG": "17R MM 8412695532", "TractID": "12127091024" }, "geometry": { "type": "Point", "coordinates": [ -81.162805546301527, 28.8874904160715 ] } },
{ "type": "Feature", "properties": { "OBJECTID": 328, "NAME": "ENTERPRISE ELEMENTARY SCHOOL", "ADDRESS": "211 MAIN ST", "CITY": "ENTERPRISE", "STATE": "FL", "ZIPCODE": "32725", "PHONE": "386-575-4135", "THEME": "PUBLIC", "FAC": "1931", "SCHOOLCODE": 1, "ZIP4": "32725-8140", "TYPE": "13", "CURAPPLY": "2002\/10\/14", "PERMIT": "64-51-01546", "URL": "http:\/\/myvolusiaschools.org\/schools\/Pages\/default.aspx", "PERM_ID": "12127SCH24", "SOURCE_FID": "SCH", "SOURCE_DID": "24", "LOAD_DATE": "2009\/02\/17", "DATA_QUALI": 1, "FTYPE": 730, "FCODE": 73003, "IsLANDMARK": 2, "LATITUDE": 28.8709709, "LONGITUDE": -81.265804349999996, "USNG": "17R MM 7407993719", "TractID": "12127091018" }, "geometry": { "type": "Point", "coordinates": [ -81.265804359089657, 28.870970903653589 ] } },
{ "type": "Feature", "properties": { "OBJECTID": 329, "NAME": "DISCOVERY ELEMENTARY SCHOOL", "ADDRESS": "975 ABAGAIL DR", "CITY": "DELTONA", "STATE": "FL", "ZIPCODE": "32725", "PHONE": "386-575-4133", "THEME": "PUBLIC", "FAC": "6751", "SCHOOLCODE": 1, "ZIP4": "32725-7237", "TYPE": "13", "CURAPPLY": "2002\/10\/14", "PERMIT": "64-51-01544", "URL": "http:\/\/myvolusiaschools.org\/schools\/Pages\/default.aspx", "PERM_ID": "12127SCH25", "SOURCE_FID": "SCH", "SOURCE_DID": "25", "LOAD_DATE": "2009\/02\/17", "DATA_QUALI": 1, "FTYPE": 730, "FCODE": 73003, "IsLANDMARK": 2, "LATITUDE": 28.892147869999999, "LONGITUDE": -81.250661769999994, "USNG": "17R MM 7556096062", "TractID": "12127091017" }, "geometry": { "type": "Point", "coordinates": [ -81.250661779800708, 28.892147877895162 ] } },
{ "type": "Feature", "properties": { "OBJECTID": 330, "NAME": "DELTONA MIDDLE SCHOOL", "ADDRESS": "250 ENTERPRISE RD", "CITY": "DELTONA", "STATE": "FL", "ZIPCODE": "32725", "PHONE": "386-575-4150", "THEME": "PUBLIC", "FAC": "1702", "SCHOOLCODE": 2, "ZIP4": "32725-8053", "TYPE": "13", "CURAPPLY": "2002\/10\/14", "PERMIT": "64-51-01543", "URL": "http:\/\/myvolusiaschools.org\/schools\/Pages\/default.aspx", "PERM_ID": "12127SCH26", "SOURCE_FID": "SCH", "SOURCE_DID": "26", "LOAD_DATE": "2009\/02\/17", "DATA_QUALI": 1, "FTYPE": 730, "FCODE": 73004, "IsLANDMARK": 2, "LATITUDE": 28.877615639999998, "LONGITUDE": -81.272322270000004, "USNG": "17R MM 7344594457", "TractID": "12127091018" }, "geometry": { "type": "Point", "coordinates": [ -81.272322270004793, 28.877615641969633 ] } },
{ "type": "Feature", "properties": { "OBJECTID": 331, "NAME": "DEBARY ELEMENTARY SCHOOL", "ADDRESS": "88 W HIGHBANKS RD", "CITY": "DEBARY", "STATE": "FL", "ZIPCODE": "32713", "PHONE": "386-575-4230", "THEME": "PUBLIC", "FAC": "7761", "SCHOOLCODE": 1, "ZIP4": "32713-2855", "TYPE": "13", "CURAPPLY": "2002\/10\/14", "PERMIT": "64-51-01538", "URL": "http:\/\/myvolusiaschools.org\/schools\/Pages\/default.aspx", "PERM_ID": "12127SCH27", "SOURCE_FID": "SCH", "SOURCE_DID": "27", "LOAD_DATE": "2009\/02\/17", "DATA_QUALI": 1, "FTYPE": 730, "FCODE": 73003, "IsLANDMARK": 2, "LATITUDE": 28.89061122, "LONGITUDE": -81.320724600000005, "USNG": "17R MM 6872995909", "TractID": "12127090903" }, "geometry": { "type": "Point", "coordinates": [ -81.320724605302416, 28.890611226742298 ] } },
{ "type": "Feature", "properties": { "OBJECTID": 332, "NAME": "GALAXY MIDDLE SCHOOL", "ADDRESS": "2400 EUSTACE AVE", "CITY": "DELTONA", "STATE": "FL", "ZIPCODE": "32725", "PHONE": "386-575-4144", "THEME": "PUBLIC", "FAC": "6791", "SCHOOLCODE": 2, "ZIP4": "32725-1765", "TYPE": "13", "CURAPPLY": "2002\/10\/14", "PERMIT": "64-51-01550", "URL": "http:\/\/myvolusiaschools.org\/schools\/Pages\/default.aspx", "PERM_ID": "12127SCH28", "SOURCE_FID": "SCH", "SOURCE_DID": "28", "LOAD_DATE": "2009\/02\/17", "DATA_QUALI": 1, "FTYPE": 730, "FCODE": 73004, "IsLANDMARK": 2, "LATITUDE": 28.929942499999999, "LONGITUDE": -81.231146010000003, "USNG": "17R MN 7747100246", "TractID": "12127091022" }, "geometry": { "type": "Point", "coordinates": [ -81.231146012591992, 28.929942501643342 ] } },
{ "type": "Feature", "properties": { "OBJECTID": 333, "NAME": "TIMBERCREST ELEMENTARY SCHOOL", "ADDRESS": "2401 EUSTACE AVE", "CITY": "DELTONA", "STATE": "FL", "ZIPCODE": "32725", "PHONE": "386-575-4221", "THEME": "PUBLIC", "FAC": "6781", "SCHOOLCODE": 1, "ZIP4": "32725-1763", "TYPE": "13", "CURAPPLY": "2002\/10\/14", "PERMIT": "64-51-01590", "URL": "http:\/\/myvolusiaschools.org\/schools\/Pages\/default.aspx", "PERM_ID": "12127SCH29", "SOURCE_FID": "SCH", "SOURCE_DID": "29", "LOAD_DATE": "2009\/02\/17", "DATA_QUALI": 1, "FTYPE": 730, "FCODE": 73003, "IsLANDMARK": 2, "LATITUDE": 28.93206077, "LONGITUDE": -81.230316920000007, "USNG": "17R MN 7755200480", "TractID": "12127091022" }, "geometry": { "type": "Point", "coordinates": [ -81.230316925256432, 28.932060775245589 ] } },
{ "type": "Feature", "properties": { "OBJECTID": 334, "NAME": "DELTONA LAKES ELEMENTARY SCHOOL", "ADDRESS": "2022 ADELIA BLVD", "CITY": "DELTONA", "STATE": "FL", "ZIPCODE": "32725", "PHONE": "386-575-4115", "THEME": "PUBLIC", "FAC": "1811", "SCHOOLCODE": 1, "ZIP4": "32725-3976", "TYPE": "13", "CURAPPLY": "2002\/10\/14", "PERMIT": "64-51-01542", "URL": "http:\/\/myvolusiaschools.org\/schools\/Pages\/default.aspx", "PERM_ID": "12127SCH30", "SOURCE_FID": "SCH", "SOURCE_DID": "30", "LOAD_DATE": "2009\/02\/17", "DATA_QUALI": 1, "FTYPE": 730, "FCODE": 73003, "IsLANDMARK": 2, "LATITUDE": 28.921349360000001, "LONGITUDE": -81.217391919999997, "USNG": "17R MM 7881099291", "TractID": "12127091019" }, "geometry": { "type": "Point", "coordinates": [ -81.21739192633629, 28.921349368313471 ] } },
{ "type": "Feature", "properties": { "OBJECTID": 335, "NAME": "FRIENDSHIP ELEMENTARY SCHOOL", "ADDRESS": "2746 FULFORD ST", "CITY": "DELTONA", "STATE": "FL", "ZIPCODE": "32738", "PHONE": "386-575-4130", "THEME": "PUBLIC", "FAC": "6851", "SCHOOLCODE": 1, "ZIP4": "32738-3037", "TYPE": "13", "CURAPPLY": "2002\/10\/14", "PERMIT": "64-51-01549", "URL": "http:\/\/myvolusiaschools.org\/schools\/Pages\/default.aspx", "PERM_ID": "12127SCH31", "SOURCE_FID": "SCH", "SOURCE_DID": "31", "LOAD_DATE": "2009\/02\/17", "DATA_QUALI": 1, "FTYPE": 730, "FCODE": 73003, "IsLANDMARK": 2, "LATITUDE": 28.934124300000001, "LONGITUDE": -81.188569670000007, "USNG": "17R MN 8162200702", "TractID": "12127091019" }, "geometry": { "type": "Point", "coordinates": [ -81.188569674178765, 28.934124303930385 ] } },
{ "type": "Feature", "properties": { "OBJECTID": 336, "NAME": "ORANGE CITY ELEMENTARY SCHOOL", "ADDRESS": "555 E UNIVERSITY AVE", "CITY": "ORANGE CITY", "STATE": "FL", "ZIPCODE": "32763", "PHONE": "386-575-4215", "THEME": "PUBLIC", "FAC": "4131", "SCHOOLCODE": 1, "ZIP4": "32763-5264", "TYPE": "13", "CURAPPLY": "2002\/10\/14", "PERMIT": "64-51-01563", "URL": "http:\/\/myvolusiaschools.org\/schools\/Pages\/default.aspx", "PERM_ID": "12127SCH32", "SOURCE_FID": "SCH", "SOURCE_DID": "32", "LOAD_DATE": "2009\/02\/17", "DATA_QUALI": 1, "FTYPE": 730, "FCODE": 73003, "IsLANDMARK": 2, "LATITUDE": 28.950792419999999, "LONGITUDE": -81.29152972, "USNG": "17R MN 7159202569", "TractID": "12127090805" }, "geometry": { "type": "Point", "coordinates": [ -81.29152972822618, 28.950792422335432 ] } },
{ "type": "Feature", "properties": { "OBJECTID": 337, "NAME": "DELTONA HIGH SCHOOL", "ADDRESS": "100 WOLF PACK RUN", "CITY": "DELTONA", "STATE": "FL", "ZIPCODE": "32725", "PHONE": "386-575-4153", "THEME": "PUBLIC", "FAC": "6761", "SCHOOLCODE": 4, "ZIP4": "32725-2923", "TYPE": "13", "CURAPPLY": "2002\/10\/14", "PERMIT": "64-51-01541", "URL": "http:\/\/myvolusiaschools.org\/schools\/Pages\/default.aspx", "PERM_ID": "12127SCH33", "SOURCE_FID": "SCH", "SOURCE_DID": "33", "LOAD_DATE": "2009\/02\/17", "DATA_QUALI": 1, "FTYPE": 730, "FCODE": 73005, "IsLANDMARK": 1, "LATITUDE": 28.94662349, "LONGITUDE": -81.24563483, "USNG": "17R MN 7606302097", "TractID": "12127091022" }, "geometry": { "type": "Point", "coordinates": [ -81.245634837625857, 28.946623491616101 ] } },
{ "type": "Feature", "properties": { "OBJECTID": 338, "NAME": "VOLUSIA PINES ELEMENTARY SCHOOL", "ADDRESS": "500 E KICKLIGHTER RD", "CITY": "LAKE HELEN", "STATE": "FL", "ZIPCODE": "32744", "PHONE": "386-575-4125", "THEME": "PUBLIC", "FAC": "6871", "SCHOOLCODE": 1, "ZIP4": "32744-3500", "TYPE": "13", "CURAPPLY": "2002\/10\/14", "PERMIT": "64-51-01592", "URL": "http:\/\/myvolusiaschools.org\/schools\/Pages\/default.aspx", "PERM_ID": "12127SCH34", "SOURCE_FID": "SCH", "SOURCE_DID": "34", "LOAD_DATE": "2009\/02\/17", "DATA_QUALI": 1, "FTYPE": 730, "FCODE": 73003, "IsLANDMARK": 2, "LATITUDE": 28.971289410000001, "LONGITUDE": -81.22636876, "USNG": "17R MN 7794604826", "TractID": "12127091001" }, "geometry": { "type": "Point", "coordinates": [ -81.226368767147321, 28.971289417065115 ] } },
{ "type": "Feature", "properties": { "OBJECTID": 339, "NAME": "WOODWARD AVENUE ELEMENTARY SCHOOL", "ADDRESS": "1201 S WOODWARD AVE", "CITY": "DELAND", "STATE": "FL", "ZIPCODE": "32720", "PHONE": "386-740-7910", "THEME": "PUBLIC", "FAC": "1491", "SCHOOLCODE": 1, "ZIP4": "32720-6539", "TYPE": "13", "CURAPPLY": "2002\/10\/14", "PERMIT": "64-51-01594", "URL": "http:\/\/myvolusiaschools.org\/schools\/Pages\/default.aspx", "PERM_ID": "12127SCH35", "SOURCE_FID": "SCH", "SOURCE_DID": "35", "LOAD_DATE": "2009\/02\/17", "DATA_QUALI": 1, "FTYPE": 730, "FCODE": 73003, "IsLANDMARK": 2, "LATITUDE": 29.01081297, "LONGITUDE": -81.330997449999998, "USNG": "17R MN 6776409229", "TractID": "12127090701" }, "geometry": { "type": "Point", "coordinates": [ -81.330997459162788, 29.010812970741686 ] } },
{ "type": "Feature", "properties": { "OBJECTID": 340, "NAME": "SOUTHWESTERN MIDDLE SCHOOL", "ADDRESS": "605 W NEW HAMPSHIRE AVE", "CITY": "DELAND", "STATE": "FL", "ZIPCODE": "32720", "PHONE": "386-822-6815", "THEME": "PUBLIC", "FAC": "6343", "SCHOOLCODE": 2, "ZIP4": "32720-7228", "TYPE": "13", "CURAPPLY": "2002\/10\/14", "PERMIT": "64-51-01582", "URL": "http:\/\/myvolusiaschools.org\/schools\/Pages\/default.aspx", "PERM_ID": "12127SCH36", "SOURCE_FID": "SCH", "SOURCE_DID": "36", "LOAD_DATE": "2009\/02\/17", "DATA_QUALI": 1, "FTYPE": 730, "FCODE": 73004, "IsLANDMARK": 2, "LATITUDE": 29.00674871, "LONGITUDE": -81.314381900000001, "USNG": "17R MN 6938108774", "TractID": "12127090702" }, "geometry": { "type": "Point", "coordinates": [ -81.314381906234715, 29.006748718318235 ] } },
{ "type": "Feature", "properties": { "OBJECTID": 341, "NAME": "DELAND MIDDLE SCHOOL", "ADDRESS": "1400 AQUARIUS AVE", "CITY": "DELAND", "STATE": "FL", "ZIPCODE": "32724", "PHONE": "386-822-5678", "THEME": "PUBLIC", "FAC": "1531", "SCHOOLCODE": 2, "ZIP4": "32724-7835", "TYPE": "13", "CURAPPLY": "2002\/10\/14", "PERMIT": "64-51-01540", "URL": "http:\/\/myvolusiaschools.org\/schools\/Pages\/default.aspx", "PERM_ID": "12127SCH37", "SOURCE_FID": "SCH", "SOURCE_DID": "37", "LOAD_DATE": "2009\/02\/17", "DATA_QUALI": 1, "FTYPE": 730, "FCODE": 73004, "IsLANDMARK": 2, "LATITUDE": 29.00427934, "LONGITUDE": -81.297697170000006, "USNG": "17R MN 7100508496", "TractID": "12127090307" }, "geometry": { "type": "Point", "coordinates": [ -81.297697171054253, 29.004279348440299 ] } },
{ "type": "Feature", "properties": { "OBJECTID": 342, "NAME": "DELAND HIGH SCHOOL", "ADDRESS": "800 N HILL AVE", "CITY": "DELAND", "STATE": "FL", "ZIPCODE": "32724", "PHONE": "386-822-6909", "THEME": "PUBLIC", "FAC": "1453", "SCHOOLCODE": 4, "ZIP4": "32724-3726", "TYPE": "13", "CURAPPLY": "2002\/10\/14", "PERMIT": "64-51-01539", "URL": "http:\/\/myvolusiaschools.org\/schools\/Pages\/default.aspx", "PERM_ID": "12127SCH38", "SOURCE_FID": "SCH", "SOURCE_DID": "38", "LOAD_DATE": "2009\/02\/17", "DATA_QUALI": 1, "FTYPE": 730, "FCODE": 73005, "IsLANDMARK": 1, "LATITUDE": 29.041267319999999, "LONGITUDE": -81.283779809999999, "USNG": "17R MN 7237112591", "TractID": "12127090400" }, "geometry": { "type": "Point", "coordinates": [ -81.283779817141152, 29.041267329105075 ] } },
{ "type": "Feature", "properties": { "OBJECTID": 343, "NAME": "BLUE LAKE ELEMENTARY SCHOOL", "ADDRESS": "282 N BLUE LAKE AVE", "CITY": "DELAND", "STATE": "FL", "ZIPCODE": "32724", "PHONE": "386-822-4070", "THEME": "PUBLIC", "FAC": "0621", "SCHOOLCODE": 1, "ZIP4": "32724-4603", "TYPE": "13", "CURAPPLY": "2002\/10\/14", "PERMIT": "64-51-01530", "URL": "http:\/\/myvolusiaschools.org\/schools\/Pages\/default.aspx", "PERM_ID": "12127SCH39", "SOURCE_FID": "SCH", "SOURCE_DID": "39", "LOAD_DATE": "2009\/02\/17", "DATA_QUALI": 1, "FTYPE": 730, "FCODE": 73003, "IsLANDMARK": 2, "LATITUDE": 29.03104158, "LONGITUDE": -81.275909740000003, "USNG": "17R MN 7313411456", "TractID": "12127090304" }, "geometry": { "type": "Point", "coordinates": [ -81.275909743132729, 29.031041586747271 ] } },
{ "type": "Feature", "properties": { "OBJECTID": 344, "NAME": "GEORGE W MARKS ELEMENTARY SCHOOL", "ADDRESS": "1000 N GARFIELD AVE", "CITY": "DELAND", "STATE": "FL", "ZIPCODE": "32724", "PHONE": "386-822-6986", "THEME": "PUBLIC", "FAC": "3631", "SCHOOLCODE": 1, "ZIP4": "32724-2928", "TYPE": "13", "CURAPPLY": "2002\/10\/14", "PERMIT": "64-51-01559", "URL": "http:\/\/myvolusiaschools.org\/schools\/Pages\/default.aspx", "PERM_ID": "12127SCH40", "SOURCE_FID": "SCH", "SOURCE_DID": "40", "LOAD_DATE": "2009\/02\/17", "DATA_QUALI": 1, "FTYPE": 730, "FCODE": 73003, "IsLANDMARK": 2, "LATITUDE": 29.046010670000001, "LONGITUDE": -81.296945989999998, "USNG": "17R MN 7109013120", "TractID": "12127090304" }, "geometry": { "type": "Point", "coordinates": [ -81.296945993845497, 29.046010671460785 ] } },
{ "type": "Feature", "properties": { "OBJECTID": 345, "NAME": "STETSON UNIVERSITY", "ADDRESS": "421 N WOODLAND BLVD", "CITY": "DELAND", "STATE": "FL", "ZIPCODE": "32720", "PHONE": "386-822-7100", "THEME": "PRIVATE", "FAC": "NA", "SCHOOLCODE": 6, "ZIP4": null, "TYPE": "12", "CURAPPLY": null, "PERMIT": null, "URL": "http:\/\/www.stetson.edu\/home\/", "PERM_ID": "12127SCH42", "SOURCE_FID": "SCH", "SOURCE_DID": "42", "LOAD_DATE": "2009\/02\/17", "DATA_QUALI": 2, "FTYPE": 730, "FCODE": 73006, "IsLANDMARK": 1, "LATITUDE": 29.034832229999999, "LONGITUDE": -81.303119629999998, "USNG": "17R MN 7048611883", "TractID": "12127090400" }, "geometry": { "type": "Point", "coordinates": [ -81.303119632008674, 29.034832236017809 ] } },
{ "type": "Feature", "properties": { "OBJECTID": 346, "NAME": "DAYTONA STATE COLLEGE- WEST CAMPUS", "ADDRESS": "1155 CR 4139", "CITY": "DELAND", "STATE": "FL", "ZIPCODE": "32724", "PHONE": "386-785-2000", "THEME": "PUBLIC", "FAC": "NA", "SCHOOLCODE": 6, "ZIP4": null, "TYPE": "13", "CURAPPLY": null, "PERMIT": null, "URL": "http:\/\/www.daytonastate.edu\/", "PERM_ID": "12127SCH43", "SOURCE_FID": "SCH", "SOURCE_DID": "43", "LOAD_DATE": "2009\/02\/17", "DATA_QUALI": 2, "FTYPE": 730, "FCODE": 73006, "IsLANDMARK": 2, "LATITUDE": 29.011952699999998, "LONGITUDE": -81.243153190000001, "USNG": "17R MN 7632009334", "TractID": "12127090306" }, "geometry": { "type": "Point", "coordinates": [ -81.243153195281138, 29.01195270245778 ] } },
{ "type": "Feature", "properties": { "OBJECTID": 347, "NAME": "McINNIS ELEMENTARY SCHOOL", "ADDRESS": "5175 N US HWY 17", "CITY": "DELEON SPRINGS", "STATE": "FL", "ZIPCODE": "32130", "PHONE": "386-943-6384", "THEME": "PUBLIC", "FAC": "1631", "SCHOOLCODE": 1, "ZIP4": "32130-4224", "TYPE": "13", "CURAPPLY": "2002\/10\/14", "PERMIT": "64-51-01560", "URL": "http:\/\/myvolusiaschools.org\/schools\/Pages\/default.aspx", "PERM_ID": "12127SCH44", "SOURCE_FID": "SCH", "SOURCE_DID": "44", "LOAD_DATE": "2009\/02\/17", "DATA_QUALI": 1, "FTYPE": 730, "FCODE": 73003, "IsLANDMARK": 2, "LATITUDE": 29.12313825, "LONGITUDE": -81.350618490000002, "USNG": "17R MN 6589021679", "TractID": "12127090203" }, "geometry": { "type": "Point", "coordinates": [ -81.350618500378417, 29.123138257253615 ] } },
{ "type": "Feature", "properties": { "OBJECTID": 348, "NAME": "PIERSON ELEMENTARY SCHOOL", "ADDRESS": "1 W FIRST AVE", "CITY": "PIERSON", "STATE": "FL", "ZIPCODE": "32180", "PHONE": "386-740-0850", "THEME": "PUBLIC", "FAC": "4831", "SCHOOLCODE": 1, "ZIP4": "32180-2271", "TYPE": "13", "CURAPPLY": "2002\/10\/14", "PERMIT": "64-51-01571", "URL": "http:\/\/myvolusiaschools.org\/schools\/Pages\/default.aspx", "PERM_ID": "12127SCH45", "SOURCE_FID": "SCH", "SOURCE_DID": "45", "LOAD_DATE": "2009\/02\/17", "DATA_QUALI": 1, "FTYPE": 730, "FCODE": 73003, "IsLANDMARK": 2, "LATITUDE": 29.243777949999998, "LONGITUDE": -81.463484500000007, "USNG": "17R MN 5496335084", "TractID": "12127090102" }, "geometry": { "type": "Point", "coordinates": [ -81.463484507683603, 29.243777955942971 ] } },
{ "type": "Feature", "properties": { "OBJECTID": 349, "NAME": "TAYLOR MIDDLE-HIGH SCHOOL", "ADDRESS": "100 E WASHINGTON AVE", "CITY": "PIERSON", "STATE": "FL", "ZIPCODE": "32180", "PHONE": "386-740-9800", "THEME": "PUBLIC", "FAC": "6633", "SCHOOLCODE": 3, "ZIP4": "32180-2305", "TYPE": "13", "CURAPPLY": "2002\/10\/14", "PERMIT": "64-51-01589", "URL": "http:\/\/myvolusiaschools.org\/schools\/Pages\/default.aspx", "PERM_ID": "12127SCH46", "SOURCE_FID": "SCH", "SOURCE_DID": "46", "LOAD_DATE": "2009\/02\/17", "DATA_QUALI": 1, "FTYPE": 730, "FCODE": 73002, "IsLANDMARK": 1, "LATITUDE": 29.245826650000001, "LONGITUDE": -81.461295809999996, "USNG": "17R MN 5517635310", "TractID": "12127090101" }, "geometry": { "type": "Point", "coordinates": [ -81.461295809784943, 29.245826660063653 ] } },
{ "type": "Feature", "properties": { "OBJECTID": 350, "NAME": "ORMOND BEACH MIDDLE SCHOOL", "ADDRESS": "151 DOMICILIO AVE", "CITY": "ORMOND BEACH", "STATE": "FL", "ZIPCODE": "32174", "PHONE": "386-258-4667", "THEME": "PUBLIC", "FAC": "4235", "SCHOOLCODE": 2, "ZIP4": "32174-3918", "TYPE": "13", "CURAPPLY": "2002\/10\/14", "PERMIT": "64-51-01565", "URL": "http:\/\/myvolusiaschools.org\/schools\/Pages\/default.aspx", "PERM_ID": "12127SCH48", "SOURCE_FID": "SCH", "SOURCE_DID": "48", "LOAD_DATE": "2009\/02\/17", "DATA_QUALI": 1, "FTYPE": 730, "FCODE": 73004, "IsLANDMARK": 2, "LATITUDE": 29.306952469999999, "LONGITUDE": -81.070287750000006, "USNG": "17R MN 9317441996", "TractID": "12127080700" }, "geometry": { "type": "Point", "coordinates": [ -81.070287750880681, 29.306952480411034 ] } },
{ "type": "Feature", "properties": { "OBJECTID": 351, "NAME": "BURNS SCIENCE & TECHNOLOGY CHARTER", "ADDRESS": "160 RIDGE RD", "CITY": "OAK HILL", "STATE": "FL", "ZIPCODE": "32759", "PHONE": "386-210-4915", "THEME": "PUBLIC", "FAC": "7631", "SCHOOLCODE": 7, "ZIP4": "32759-9773", "TYPE": "13", "CURAPPLY": "2002\/10\/14", "PERMIT": "64-51-01533", "URL": "http:\/\/myvolusiaschools.org\/schools\/Pages\/default.aspx", "PERM_ID": "12127SCH87", "SOURCE_FID": "SCH", "SOURCE_DID": "87", "LOAD_DATE": "2009\/02\/17", "DATA_QUALI": 1, "FTYPE": 730, "FCODE": 73002, "IsLANDMARK": 2, "LATITUDE": 28.862115660000001, "LONGITUDE": -80.848835710000003, "USNG": "17R NM 1474392719", "TractID": "12127083003" }, "geometry": { "type": "Point", "coordinates": [ -80.84883571838337, 28.862115669199529 ] } },
{ "type": "Feature", "properties": { "OBJECTID": 352, "NAME": "ORMOND BEACH ELEMENTARY SCHOOL", "ADDRESS": "100 CORBIN AVE", "CITY": "ORMOND BEACH", "STATE": "FL", "ZIPCODE": "32174", "PHONE": "386-258-4666", "THEME": "PUBLIC", "FAC": "1114", "SCHOOLCODE": 1, "ZIP4": "32174-6301", "TYPE": "13", "CURAPPLY": "2002\/10\/14", "PERMIT": "64-51-01564", "URL": "http:\/\/myvolusiaschools.org\/schools\/Pages\/default.aspx", "PERM_ID": "12127SCH49", "SOURCE_FID": "SCH", "SOURCE_DID": "49", "LOAD_DATE": "2009\/02\/17", "DATA_QUALI": 1, "FTYPE": 730, "FCODE": 73003, "IsLANDMARK": 2, "LATITUDE": 29.28385613, "LONGITUDE": -81.057709840000001, "USNG": "17R MN 9439439436", "TractID": "12127080600" }, "geometry": { "type": "Point", "coordinates": [ -81.057709840065527, 29.283856133123962 ] } },
{ "type": "Feature", "properties": { "OBJECTID": 353, "NAME": "TOMOKA ELEMENTARY SCHOOL", "ADDRESS": "999 OLD TOMOKA RD", "CITY": "ORMOND BEACH", "STATE": "FL", "ZIPCODE": "32174", "PHONE": "386-258-4676", "THEME": "PUBLIC", "FAC": "0734", "SCHOOLCODE": 1, "ZIP4": "32174-5979", "TYPE": "13", "CURAPPLY": "2002\/10\/14", "PERMIT": "64-51-01591", "URL": "http:\/\/myvolusiaschools.org\/schools\/Pages\/default.aspx", "PERM_ID": "12127SCH50", "SOURCE_FID": "SCH", "SOURCE_DID": "50", "LOAD_DATE": "2009\/02\/17", "DATA_QUALI": 1, "FTYPE": 730, "FCODE": 73003, "IsLANDMARK": 2, "LATITUDE": 29.274482339999999, "LONGITUDE": -81.091024570000002, "USNG": "17R MN 9115838400", "TractID": "12127080804" }, "geometry": { "type": "Point", "coordinates": [ -81.091024572964415, 29.274482346123911 ] } },
{ "type": "Feature", "properties": { "OBJECTID": 354, "NAME": "PINE TRAIL ELEMENTARY SCHOOL", "ADDRESS": "300 AIRPORT RD", "CITY": "ORMOND BEACH", "STATE": "FL", "ZIPCODE": "32174", "PHONE": "386-258-4672", "THEME": "PUBLIC", "FAC": "0821", "SCHOOLCODE": 1, "ZIP4": "32174-2917", "TYPE": "13", "CURAPPLY": "2002\/10\/14", "PERMIT": "64-51-01573", "URL": "http:\/\/myvolusiaschools.org\/schools\/Pages\/default.aspx", "PERM_ID": "12127SCH51", "SOURCE_FID": "SCH", "SOURCE_DID": "51", "LOAD_DATE": "2009\/02\/17", "DATA_QUALI": 1, "FTYPE": 730, "FCODE": 73003, "IsLANDMARK": 2, "LATITUDE": 29.275076500000001, "LONGITUDE": -81.113627190000003, "USNG": "17R MN 8896238468", "TractID": "12127080100" }, "geometry": { "type": "Point", "coordinates": [ -81.113627197287556, 29.27507649972954 ] } },
{ "type": "Feature", "properties": { "OBJECTID": 355, "NAME": "PATHWAYS ELEMENTARY SCHOOL", "ADDRESS": "2100 AIRPORT RD", "CITY": "ORMOND BEACH", "STATE": "FL", "ZIPCODE": "32174", "PHONE": "386-258-4671", "THEME": "PUBLIC", "FAC": "0761", "SCHOOLCODE": 1, "ZIP4": "32174-2463", "TYPE": "13", "CURAPPLY": "2002\/10\/14", "PERMIT": "64-51-01570", "URL": "http:\/\/myvolusiaschools.org\/schools\/Pages\/default.aspx", "PERM_ID": "12127SCH52", "SOURCE_FID": "SCH", "SOURCE_DID": "52", "LOAD_DATE": "2009\/02\/17", "DATA_QUALI": 1, "FTYPE": 730, "FCODE": 73003, "IsLANDMARK": 2, "LATITUDE": 29.27273405, "LONGITUDE": -81.135121170000005, "USNG": "17R MN 8687438210", "TractID": "12127083203" }, "geometry": { "type": "Point", "coordinates": [ -81.135121178443072, 29.272734057385875 ] } },
{ "type": "Feature", "properties": { "OBJECTID": 356, "NAME": "OSCEOLA ELEMENTARY SCHOOL", "ADDRESS": "100 OSCEOLA AVE", "CITY": "ORMOND BEACH", "STATE": "FL", "ZIPCODE": "32176", "PHONE": "386-258-4669", "THEME": "PUBLIC", "FAC": "4634", "SCHOOLCODE": 1, "ZIP4": "32176-6655", "TYPE": "13", "CURAPPLY": "2002\/10\/14", "PERMIT": "64-51-01567", "URL": "http:\/\/myvolusiaschools.org\/schools\/Pages\/default.aspx", "PERM_ID": "12127SCH53", "SOURCE_FID": "SCH", "SOURCE_DID": "53", "LOAD_DATE": "2009\/02\/17", "DATA_QUALI": 1, "FTYPE": 730, "FCODE": 73003, "IsLANDMARK": 2, "LATITUDE": 29.28709134, "LONGITUDE": -81.039859179999993, "USNG": "17R MN 9612839794", "TractID": "12127080400" }, "geometry": { "type": "Point", "coordinates": [ -81.039859188026938, 29.287091344514426 ] } },
{ "type": "Feature", "properties": { "OBJECTID": 357, "NAME": "HOLLY HILL SCHOOL", "ADDRESS": "1500 CENTER AVE", "CITY": "HOLLY HILL", "STATE": "FL", "ZIPCODE": "32117", "PHONE": "386-258-4662", "THEME": "PUBLIC", "FAC": "2721", "SCHOOLCODE": 1, "ZIP4": "32117-2022", "TYPE": "13", "CURAPPLY": "2002\/10\/14", "PERMIT": "64-51-01552", "URL": "http:\/\/myvolusiaschools.org\/schools\/Pages\/default.aspx", "PERM_ID": "12127SCH56", "SOURCE_FID": "SCH", "SOURCE_DID": "56", "LOAD_DATE": "2009\/02\/17", "DATA_QUALI": 1, "FTYPE": 730, "FCODE": 73002, "IsLANDMARK": 2, "LATITUDE": 29.2493011, "LONGITUDE": -81.05481279, "USNG": "17R MN 9467435608", "TractID": "12127080901" }, "geometry": { "type": "Point", "coordinates": [ -81.054812796585466, 29.249301103366484 ] } },
{ "type": "Feature", "properties": { "OBJECTID": 358, "NAME": "ORTONA ELEMENTARY SCHOOL", "ADDRESS": "1265 N GRANDVIEW AVE", "CITY": "DAYTONA BEACH", "STATE": "FL", "ZIPCODE": "32118", "PHONE": "386-258-4668", "THEME": "PUBLIC", "FAC": "4334", "SCHOOLCODE": 1, "ZIP4": "32118-3650", "TYPE": "13", "CURAPPLY": "2002\/10\/14", "PERMIT": "64-51-01566", "URL": "http:\/\/myvolusiaschools.org\/schools\/Pages\/default.aspx", "PERM_ID": "12127SCH57", "SOURCE_FID": "SCH", "SOURCE_DID": "57", "LOAD_DATE": "2009\/02\/17", "DATA_QUALI": 1, "FTYPE": 730, "FCODE": 73003, "IsLANDMARK": 2, "LATITUDE": 29.247282649999999, "LONGITUDE": -81.023267250000004, "USNG": "17R MN 9773935383", "TractID": "12127081102" }, "geometry": { "type": "Point", "coordinates": [ -81.023267256190564, 29.247282651623618 ] } },
{ "type": "Feature", "properties": { "OBJECTID": 359, "NAME": "SEABREEZE HIGH SCHOOL", "ADDRESS": "2700 N OLEANDER AVE", "CITY": "DAYTONA BEACH", "STATE": "FL", "ZIPCODE": "32118", "PHONE": "386-258-4674", "THEME": "PUBLIC", "FAC": "5836", "SCHOOLCODE": 4, "ZIP4": "32118-3115", "TYPE": "13", "CURAPPLY": "2002\/10\/14", "PERMIT": "64-51-01577", "URL": "http:\/\/www.seabreezehigh.org\/", "PERM_ID": "12127SCH58", "SOURCE_FID": "SCH", "SOURCE_DID": "58", "LOAD_DATE": "2009\/02\/17", "DATA_QUALI": 1, "FTYPE": 730, "FCODE": 73005, "IsLANDMARK": 1, "LATITUDE": 29.26601415, "LONGITUDE": -81.029541629999997, "USNG": "17R MN 9713037459", "TractID": "12127081101" }, "geometry": { "type": "Point", "coordinates": [ -81.029541631388625, 29.266014150711602 ] } },
{ "type": "Feature", "properties": { "OBJECTID": 360, "NAME": "RIVERVIEW LEARNING CENTER", "ADDRESS": "801 N WILD OLIVE AVE", "CITY": "DAYTONA BEACH", "STATE": "FL", "ZIPCODE": "32118", "PHONE": "386-258-4673", "THEME": "PUBLIC", "FAC": "5434", "SCHOOLCODE": 5, "ZIP4": "32118-3726", "TYPE": "13", "CURAPPLY": "2005\/09\/09", "PERMIT": "64-51-02015", "URL": "http:\/\/myvolusiaschools.org\/schools\/Pages\/default.aspx", "PERM_ID": "12127SCH59", "SOURCE_FID": "SCH", "SOURCE_DID": "59", "LOAD_DATE": "2009\/02\/17", "DATA_QUALI": 1, "FTYPE": 730, "FCODE": 73002, "IsLANDMARK": 2, "LATITUDE": 29.238498409999998, "LONGITUDE": -81.01663155, "USNG": "17R MN 9838434410", "TractID": "12127081200" }, "geometry": { "type": "Point", "coordinates": [ -81.01663154975131, 29.238498420874272 ] } },
{ "type": "Feature", "properties": { "OBJECTID": 361, "NAME": "BETHUNE COOKMAN UNIVERSITY", "ADDRESS": "640 DR MARY MCLEOD BETHUNE BLVD", "CITY": "DAYTONA BEACH", "STATE": "FL", "ZIPCODE": "32114", "PHONE": "386-481-2000", "THEME": "PRIVATE", "FAC": "NA", "SCHOOLCODE": 6, "ZIP4": null, "TYPE": "12", "CURAPPLY": null, "PERMIT": null, "URL": "http:\/\/www.Bethune.cookman.edu", "PERM_ID": "12127SCH60", "SOURCE_FID": "SCH", "SOURCE_DID": "60", "LOAD_DATE": "2009\/02\/17", "DATA_QUALI": 2, "FTYPE": 730, "FCODE": 73006, "IsLANDMARK": 1, "LATITUDE": 29.211998220000002, "LONGITUDE": -81.032203249999995, "USNG": "17R MN 9687031474", "TractID": "12127082000" }, "geometry": { "type": "Point", "coordinates": [ -81.0322032531666, 29.211998223881878 ] } },
{ "type": "Feature", "properties": { "OBJECTID": 362, "NAME": "THE CHILES ACADEMY", "ADDRESS": "868 GEORGE W ENGRAM BLVD", "CITY": "DAYTONA BEACH", "STATE": "FL", "ZIPCODE": "32114", "PHONE": "386-322-6102", "THEME": "PUBLIC", "FAC": "0344", "SCHOOLCODE": 7, "ZIP4": "32114-1859", "TYPE": "13", "CURAPPLY": "1996\/11\/25", "PERMIT": "64-51-01599", "URL": "http:\/\/www.thechilesacademy.com\/", "PERM_ID": "12127SCH61", "SOURCE_FID": "SCH", "SOURCE_DID": "61", "LOAD_DATE": "2009\/07\/29", "DATA_QUALI": 2, "FTYPE": 730, "FCODE": 73002, "IsLANDMARK": 2, "LATITUDE": 29.213203660000001, "LONGITUDE": -81.039602979999998, "USNG": "17R MN 9615131608", "TractID": "12127081900" }, "geometry": { "type": "Point", "coordinates": [ -81.039602984767043, 29.213203662086723 ] } },
{ "type": "Feature", "properties": { "OBJECTID": 363, "NAME": "WESTSIDE ELEMENTARY SCHOOL", "ADDRESS": "1210 JIMMY ANN DR", "CITY": "DAYTONA BEACH", "STATE": "FL", "ZIPCODE": "32117", "PHONE": "386-258-4678", "THEME": "PUBLIC", "FAC": "3251", "SCHOOLCODE": 1, "ZIP4": "32117-3818", "TYPE": "13", "CURAPPLY": "2002\/10\/14", "PERMIT": "64-51-01593", "URL": "http:\/\/myvolusiaschools.org\/schools\/Pages\/default.aspx", "PERM_ID": "12127SCH62", "SOURCE_FID": "SCH", "SOURCE_DID": "62", "LOAD_DATE": "2009\/02\/17", "DATA_QUALI": 1, "FTYPE": 730, "FCODE": 73003, "IsLANDMARK": 2, "LATITUDE": 29.223983950000001, "LONGITUDE": -81.071222910000003, "USNG": "17R MN 9307832804", "TractID": "12127082301" }, "geometry": { "type": "Point", "coordinates": [ -81.071222915534335, 29.223983956724599 ] } },
{ "type": "Feature", "properties": { "OBJECTID": 364, "NAME": "PALM TERRACE ELEMENTARY SCHOOL", "ADDRESS": "1825 DUNN AVE", "CITY": "DAYTONA BEACH", "STATE": "FL", "ZIPCODE": "32114", "PHONE": "386-258-4670", "THEME": "PUBLIC", "FAC": "2451", "SCHOOLCODE": 1, "ZIP4": "32114-1250", "TYPE": "13", "CURAPPLY": "2002\/10\/14", "PERMIT": "64-51-01569", "URL": "http:\/\/myvolusiaschools.org\/schools\/Pages\/default.aspx", "PERM_ID": "12127SCH63", "SOURCE_FID": "SCH", "SOURCE_DID": "63", "LOAD_DATE": "2009\/02\/17", "DATA_QUALI": 1, "FTYPE": 730, "FCODE": 73003, "IsLANDMARK": 2, "LATITUDE": 29.198700819999999, "LONGITUDE": -81.074368199999995, "USNG": "17R MN 9277030003", "TractID": "12127082301" }, "geometry": { "type": "Point", "coordinates": [ -81.074368206749796, 29.198700824279481 ] } },
{ "type": "Feature", "properties": { "OBJECTID": 365, "NAME": "UNIVERSITY OF CENTRAL FLORIDA", "ADDRESS": "1200 W INTERNATIONAL SPEEDWAY BLVD", "CITY": "DAYTONA BEACH", "STATE": "FL", "ZIPCODE": "32114", "PHONE": "386-506-4021", "THEME": "PUBLIC", "FAC": "NA", "SCHOOLCODE": 6, "ZIP4": null, "TYPE": "12", "CURAPPLY": null, "PERMIT": null, "URL": "http:\/\/regionalcampuses.ucf.edu\/campus\/daytona-beach\/", "PERM_ID": "12127SCH64", "SOURCE_FID": "SCH", "SOURCE_DID": "64", "LOAD_DATE": "2009\/02\/17", "DATA_QUALI": 2, "FTYPE": 730, "FCODE": 73006, "IsLANDMARK": 2, "LATITUDE": 29.201948349999999, "LONGITUDE": -81.048770570000002, "USNG": "17R MN 9525930361", "TractID": "12127081800" }, "geometry": { "type": "Point", "coordinates": [ -81.048770573000454, 29.201948351778281 ] } },
{ "type": "Feature", "properties": { "OBJECTID": 366, "NAME": "EMBRY RIDDLE AERONAUTICAL UNIVERSITY", "ADDRESS": "600 S CLYDE MORRIS BLVD", "CITY": "DAYTONA BEACH", "STATE": "FL", "ZIPCODE": "32114", "PHONE": "386-226-6100", "THEME": "PRIVATE", "FAC": "NA", "SCHOOLCODE": 6, "ZIP4": "32114-3900", "TYPE": "12", "CURAPPLY": null, "PERMIT": null, "URL": "http:\/\/www.erau.edu\/db\/index.html", "PERM_ID": "12127SCH65", "SOURCE_FID": "SCH", "SOURCE_DID": "65", "LOAD_DATE": "2009\/02\/17", "DATA_QUALI": 2, "FTYPE": 730, "FCODE": 73006, "IsLANDMARK": 1, "LATITUDE": 29.18985391, "LONGITUDE": -81.048280700000007, "USNG": "17R MN 9530629021", "TractID": "12127092500" }, "geometry": { "type": "Point", "coordinates": [ -81.048280708554444, 29.189853914132311 ] } },
{ "type": "Feature", "properties": { "OBJECTID": 367, "NAME": "DAYTONA STATE COLLEGE", "ADDRESS": "1200 W INTERNATIONAL SPEEDWAY BLVD", "CITY": "DAYTONA BEACH", "STATE": "FL", "ZIPCODE": "32114", "PHONE": "386-506-3000", "THEME": "PUBLIC", "FAC": "NA", "SCHOOLCODE": 6, "ZIP4": null, "TYPE": "13", "CURAPPLY": null, "PERMIT": null, "URL": "http:\/\/www.daytonastate.edu\/", "PERM_ID": "12127SCH66", "SOURCE_FID": "SCH", "SOURCE_DID": "66", "LOAD_DATE": "2009\/02\/17", "DATA_QUALI": 2, "FTYPE": 730, "FCODE": 73006, "IsLANDMARK": 1, "LATITUDE": 29.201941340000001, "LONGITUDE": -81.048921960000001, "USNG": "17R MN 9524430360", "TractID": "12127081800" }, "geometry": { "type": "Point", "coordinates": [ -81.048921961227919, 29.201941349116556 ] } },
{ "type": "Feature", "properties": { "OBJECTID": 368, "NAME": "MAINLAND HIGH SCHOOL", "ADDRESS": "1255 W INTERNATIONAL SPEEDWAY BLVD", "CITY": "DAYTONA BEACH", "STATE": "FL", "ZIPCODE": "32114", "PHONE": "386-258-4665", "THEME": "PUBLIC", "FAC": "3436", "SCHOOLCODE": 4, "ZIP4": "32114-3954", "TYPE": "13", "CURAPPLY": "2002\/10\/14", "PERMIT": "64-51-01558", "URL": "http:\/\/www.mainlandhighschool.org\/", "PERM_ID": "12127SCH67", "SOURCE_FID": "SCH", "SOURCE_DID": "67", "LOAD_DATE": "2009\/02\/17", "DATA_QUALI": 1, "FTYPE": 730, "FCODE": 73005, "IsLANDMARK": 1, "LATITUDE": 29.19780772, "LONGITUDE": -81.050856300000007, "USNG": "17R MN 9505629902", "TractID": "12127092500" }, "geometry": { "type": "Point", "coordinates": [ -81.050856306101608, 29.197807721266027 ] } },
{ "type": "Feature", "properties": { "OBJECTID": 369, "NAME": "TURIE T SMALL ELEMENTARY SCHOOL", "ADDRESS": "800 SOUTH ST", "CITY": "DAYTONA BEACH", "STATE": "FL", "ZIPCODE": "32114", "PHONE": "386-258-4675", "THEME": "PUBLIC", "FAC": "6144", "SCHOOLCODE": 1, "ZIP4": "32114-5126", "TYPE": "13", "CURAPPLY": "2002\/10\/14", "PERMIT": "64-51-01580", "URL": "http:\/\/myvolusiaschools.org\/schools\/Pages\/default.aspx", "PERM_ID": "12127SCH68", "SOURCE_FID": "SCH", "SOURCE_DID": "68", "LOAD_DATE": "2009\/02\/17", "DATA_QUALI": 1, "FTYPE": 730, "FCODE": 73003, "IsLANDMARK": 2, "LATITUDE": 29.195625150000001, "LONGITUDE": -81.027056740000006, "USNG": "17R MN 9737029660", "TractID": "12127082100" }, "geometry": { "type": "Point", "coordinates": [ -81.027056748687954, 29.195625154488425 ] } },
{ "type": "Feature", "properties": { "OBJECTID": 370, "NAME": "CAMPBELL MIDDLE SCHOOL", "ADDRESS": "625 S KEECH ST", "CITY": "DAYTONA BEACH", "STATE": "FL", "ZIPCODE": "32114", "PHONE": "386-258-4661", "THEME": "PUBLIC", "FAC": "0745", "SCHOOLCODE": 2, "ZIP4": "32114-4627", "TYPE": "13", "CURAPPLY": "2002\/10\/14", "PERMIT": "64-51-01534", "URL": "http:\/\/myvolusiaschools.org\/schools\/Pages\/default.aspx", "PERM_ID": "12127SCH69", "SOURCE_FID": "SCH", "SOURCE_DID": "69", "LOAD_DATE": "2009\/02\/17", "DATA_QUALI": 1, "FTYPE": 730, "FCODE": 73004, "IsLANDMARK": 2, "LATITUDE": 29.194704420000001, "LONGITUDE": -81.030756370000006, "USNG": "17R MN 9701029558", "TractID": "12127082100" }, "geometry": { "type": "Point", "coordinates": [ -81.030756375236862, 29.194704429420202 ] } },
{ "type": "Feature", "properties": { "OBJECTID": 371, "NAME": "SOUTH DAYTONA ELEMENTARY SCHOOL", "ADDRESS": "600 ELIZABETH PL", "CITY": "SOUTH DAYTONA", "STATE": "FL", "ZIPCODE": "32119", "PHONE": "386-322-6180", "THEME": "PUBLIC", "FAC": "6234", "SCHOOLCODE": 1, "ZIP4": "32119-2824", "TYPE": "13", "CURAPPLY": "2002\/10\/14", "PERMIT": "64-51-01581", "URL": "http:\/\/myvolusiaschools.org\/schools\/Pages\/default.aspx", "PERM_ID": "12127SCH70", "SOURCE_FID": "SCH", "SOURCE_DID": "70", "LOAD_DATE": "2009\/02\/17", "DATA_QUALI": 1, "FTYPE": 730, "FCODE": 73003, "IsLANDMARK": 2, "LATITUDE": 29.167900329999998, "LONGITUDE": -81.007811910000001, "USNG": "17R MN 9924026588", "TractID": "12127082405" }, "geometry": { "type": "Point", "coordinates": [ -81.00781191590869, 29.16790033067603 ] } },
{ "type": "Feature", "properties": { "OBJECTID": 372, "NAME": "SUGAR MILL ELEMENTARY SCHOOL", "ADDRESS": "1101 CHARLES ST", "CITY": "PORT ORANGE", "STATE": "FL", "ZIPCODE": "32129", "PHONE": "386-322-6171", "THEME": "PUBLIC", "FAC": "4621", "SCHOOLCODE": 1, "ZIP4": "32129-3834", "TYPE": "13", "CURAPPLY": "2002\/10\/14", "PERMIT": "64-51-01586", "URL": "http:\/\/myvolusiaschools.org\/schools\/Pages\/default.aspx", "PERM_ID": "12127SCH71", "SOURCE_FID": "SCH", "SOURCE_DID": "71", "LOAD_DATE": "2009\/02\/17", "DATA_QUALI": 1, "FTYPE": 730, "FCODE": 73003, "IsLANDMARK": 2, "LATITUDE": 29.146959330000001, "LONGITUDE": -81.001038359999995, "USNG": "17R MN 9989924268", "TractID": "12127082503" }, "geometry": { "type": "Point", "coordinates": [ -81.001038369458797, 29.146959338826967 ] } },
{ "type": "Feature", "properties": { "OBJECTID": 373, "NAME": "ATLANTIC HIGH SCHOOL", "ADDRESS": "1250 REED CANAL RD", "CITY": "PORT ORANGE", "STATE": "FL", "ZIPCODE": "32129", "PHONE": "386-322-6100", "THEME": "PUBLIC", "FAC": "4941", "SCHOOLCODE": 4, "ZIP4": "32129-9106", "TYPE": "13", "CURAPPLY": "2002\/10\/14", "PERMIT": "64-51-01529", "URL": "http:\/\/myvolusiaschools.org\/schools\/Pages\/default.aspx", "PERM_ID": "12127SCH72", "SOURCE_FID": "SCH", "SOURCE_DID": "72", "LOAD_DATE": "2009\/02\/17", "DATA_QUALI": 1, "FTYPE": 730, "FCODE": 73005, "IsLANDMARK": 1, "LATITUDE": 29.148429620000002, "LONGITUDE": -81.027089950000004, "USNG": "17R MN 9736524431", "TractID": "12127082414" }, "geometry": { "type": "Point", "coordinates": [ -81.027089956167657, 29.148429627363075 ] } },
{ "type": "Feature", "properties": { "OBJECTID": 374, "NAME": "PORT ORANGE ELEMENTARY SCHOOL", "ADDRESS": "402 DUNLAWTON AVE", "CITY": "PORT ORANGE", "STATE": "FL", "ZIPCODE": "32127", "PHONE": "386-322-6271", "THEME": "PUBLIC", "FAC": "4934", "SCHOOLCODE": 1, "ZIP4": "32127-4454", "TYPE": "13", "CURAPPLY": "2002\/10\/14", "PERMIT": "64-51-01574", "URL": "http:\/\/myvolusiaschools.org\/schools\/Pages\/default.aspx", "PERM_ID": "12127SCH73", "SOURCE_FID": "SCH", "SOURCE_DID": "73", "LOAD_DATE": "2009\/02\/17", "DATA_QUALI": 1, "FTYPE": 730, "FCODE": 73003, "IsLANDMARK": 2, "LATITUDE": 29.142450839999999, "LONGITUDE": -80.991233949999994, "USNG": "17R NN 0085323768", "TractID": "12127082511" }, "geometry": { "type": "Point", "coordinates": [ -80.991233950193916, 29.142450846067817 ] } },
{ "type": "Feature", "properties": { "OBJECTID": 375, "NAME": "SILVER SANDS MIDDLE SCHOOL", "ADDRESS": "1300 HERBERT ST", "CITY": "PORT ORANGE", "STATE": "FL", "ZIPCODE": "32129", "PHONE": "386-322-6175", "THEME": "PUBLIC", "FAC": "3431", "SCHOOLCODE": 2, "ZIP4": "32129-4134", "TYPE": "13", "CURAPPLY": "2002\/10\/14", "PERMIT": "64-51-01579", "URL": "http:\/\/myvolusiaschools.org\/schools\/Pages\/default.aspx", "PERM_ID": "12127SCH74", "SOURCE_FID": "SCH", "SOURCE_DID": "74", "LOAD_DATE": "2009\/02\/17", "DATA_QUALI": 1, "FTYPE": 730, "FCODE": 73004, "IsLANDMARK": 2, "LATITUDE": 29.131879359999999, "LONGITUDE": -81.017161200000004, "USNG": "17R MN 9833122597", "TractID": "12127082506" }, "geometry": { "type": "Point", "coordinates": [ -81.017161198796799, 29.13187936994656 ] } },
{ "type": "Feature", "properties": { "OBJECTID": 376, "NAME": "LONGSTREET ELEMENTARY SCHOOL", "ADDRESS": "2745 S PENINSULA DR", "CITY": "DAYTONA BEACH", "STATE": "FL", "ZIPCODE": "32118", "PHONE": "386-322-6172", "THEME": "PUBLIC", "FAC": "3234", "SCHOOLCODE": 1, "ZIP4": "32118-5713", "TYPE": "13", "CURAPPLY": "2002\/10\/14", "PERMIT": "64-51-01557", "URL": "http:\/\/myvolusiaschools.org\/schools\/Pages\/default.aspx", "PERM_ID": "12127SCH75", "SOURCE_FID": "SCH", "SOURCE_DID": "75", "LOAD_DATE": "2009\/02\/17", "DATA_QUALI": 1, "FTYPE": 730, "FCODE": 73003, "IsLANDMARK": 2, "LATITUDE": 29.17725008, "LONGITUDE": -80.986761029999997, "USNG": "17R NN 0128727624", "TractID": "12127082605" }, "geometry": { "type": "Point", "coordinates": [ -80.986761031295075, 29.177250082631669 ] } },
{ "type": "Feature", "properties": { "OBJECTID": 377, "NAME": "HORIZON ELEMENTARY SCHOOL", "ADDRESS": "4751 HIDDEN LAKE DR", "CITY": "PORT ORANGE", "STATE": "FL", "ZIPCODE": "32119", "PHONE": "386-322-6150", "THEME": "PUBLIC", "FAC": "3451", "SCHOOLCODE": 1, "ZIP4": "32129-7477", "TYPE": "13", "CURAPPLY": "2002\/10\/14", "PERMIT": "64-51-01554", "URL": "http:\/\/myvolusiaschools.org\/schools\/Pages\/default.aspx", "PERM_ID": "12127SCH76", "SOURCE_FID": "SCH", "SOURCE_DID": "76", "LOAD_DATE": "2009\/02\/17", "DATA_QUALI": 1, "FTYPE": 730, "FCODE": 73003, "IsLANDMARK": 2, "LATITUDE": 29.119768050000001, "LONGITUDE": -81.038408110000006, "USNG": "17R MN 9626321256", "TractID": "12127082410" }, "geometry": { "type": "Point", "coordinates": [ -81.038408120545569, 29.119768053496148 ] } },
{ "type": "Feature", "properties": { "OBJECTID": 378, "NAME": "SPRUCE CREEK HIGH SCHOOL", "ADDRESS": "801 TAYLOR RD", "CITY": "PORT ORANGE", "STATE": "FL", "ZIPCODE": "32127", "PHONE": "386-322-6272", "THEME": "PUBLIC", "FAC": "4436", "SCHOOLCODE": 4, "ZIP4": "32127-4715", "TYPE": "13", "CURAPPLY": "2002\/10\/14", "PERMIT": "64-51-01584", "URL": "http:\/\/www.sprucecreekhigh.com\/", "PERM_ID": "12127SCH77", "SOURCE_FID": "SCH", "SOURCE_DID": "77", "LOAD_DATE": "2009\/02\/17", "DATA_QUALI": 1, "FTYPE": 730, "FCODE": 73005, "IsLANDMARK": 1, "LATITUDE": 29.108139739999999, "LONGITUDE": -81.015625830000005, "USNG": "17R MN 9848019967", "TractID": "12127082507" }, "geometry": { "type": "Point", "coordinates": [ -81.015625833987059, 29.108139741699318 ] } },
{ "type": "Feature", "properties": { "OBJECTID": 379, "NAME": "SWEETWATER ELEMENTARY", "ADDRESS": "5800 VICTORIA GARDENS BLVD", "CITY": "PORT ORANGE", "STATE": "FL", "ZIPCODE": "32127", "PHONE": "386-322-6230", "THEME": "PUBLIC", "FAC": "4951", "SCHOOLCODE": 1, "ZIP4": "32127-7977", "TYPE": "13", "CURAPPLY": "2002\/10\/14", "PERMIT": "64-51-01588", "URL": "http:\/\/myvolusiaschools.org\/schools\/Pages\/default.aspx", "PERM_ID": "12127SCH78", "SOURCE_FID": "SCH", "SOURCE_DID": "78", "LOAD_DATE": "2009\/02\/17", "DATA_QUALI": 1, "FTYPE": 730, "FCODE": 73003, "IsLANDMARK": 2, "LATITUDE": 29.116335459999998, "LONGITUDE": -81.017567869999993, "USNG": "17R MN 9829120875", "TractID": "12127082507" }, "geometry": { "type": "Point", "coordinates": [ -81.017567877632089, 29.116335459786907 ] } },
{ "type": "Feature", "properties": { "OBJECTID": 380, "NAME": "SPRUCE CREEK ELEMENTARY SCHOOL", "ADDRESS": "642 TAYLOR RD", "CITY": "PORT ORANGE", "STATE": "FL", "ZIPCODE": "32127", "PHONE": "386-322-6200", "THEME": "PUBLIC", "FAC": "4531", "SCHOOLCODE": 1, "ZIP4": "32127-4712", "TYPE": "13", "CURAPPLY": "2002\/10\/14", "PERMIT": "64-51-01583", "URL": "http:\/\/myvolusiaschools.org\/schools\/Pages\/default.aspx", "PERM_ID": "12127SCH79", "SOURCE_FID": "SCH", "SOURCE_DID": "79", "LOAD_DATE": "2009\/02\/17", "DATA_QUALI": 1, "FTYPE": 730, "FCODE": 73003, "IsLANDMARK": 2, "LATITUDE": 29.106096220000001, "LONGITUDE": -81.004787500000006, "USNG": "17R MN 9953419740", "TractID": "12127082508" }, "geometry": { "type": "Point", "coordinates": [ -81.004787507176971, 29.106096227212195 ] } },
{ "type": "Feature", "properties": { "OBJECTID": 381, "NAME": "CHISHOLM ELEMENTARY SCHOOL", "ADDRESS": "557 RONNOC LN", "CITY": "NEW SMYRNA BEACH", "STATE": "FL", "ZIPCODE": "32168", "PHONE": "386-424-2540", "THEME": "PUBLIC", "FAC": "0949", "SCHOOLCODE": 1, "ZIP4": "32168-6621", "TYPE": "13", "CURAPPLY": "2002\/10\/14", "PERMIT": "64-51-01535", "URL": "http:\/\/myvolusiaschools.org\/schools\/Pages\/default.aspx", "PERM_ID": "12127SCH80", "SOURCE_FID": "SCH", "SOURCE_DID": "80", "LOAD_DATE": "2009\/02\/17", "DATA_QUALI": 1, "FTYPE": 730, "FCODE": 73003, "IsLANDMARK": 2, "LATITUDE": 29.029955000000001, "LONGITUDE": -80.932601930000004, "USNG": "17R NN 0656311306", "TractID": "12127082903" }, "geometry": { "type": "Point", "coordinates": [ -80.932601937778031, 29.029955004419786 ] } },
{ "type": "Feature", "properties": { "OBJECTID": 382, "NAME": "READ-PATTILLO ELEMENTARY SCHOOL", "ADDRESS": "400 SIXTH ST", "CITY": "NEW SMYRNA BEACH", "STATE": "FL", "ZIPCODE": "32168", "PHONE": "386-424-2600", "THEME": "PUBLIC", "FAC": "5037", "SCHOOLCODE": 1, "ZIP4": "32168-7645", "TYPE": "13", "CURAPPLY": "2002\/10\/14", "PERMIT": "64-51-01575", "URL": "http:\/\/myvolusiaschools.org\/schools\/Pages\/default.aspx", "PERM_ID": "12127SCH81", "SOURCE_FID": "SCH", "SOURCE_DID": "81", "LOAD_DATE": "2009\/02\/17", "DATA_QUALI": 1, "FTYPE": 730, "FCODE": 73003, "IsLANDMARK": 2, "LATITUDE": 29.01052365, "LONGITUDE": -80.919434760000001, "USNG": "17R NN 0784609154", "TractID": "12127082802" }, "geometry": { "type": "Point", "coordinates": [ -80.919434766203466, 29.010523651188311 ] } },
{ "type": "Feature", "properties": { "OBJECTID": 383, "NAME": "SAMSULA ACADEMY CHARTER SCHOOL", "ADDRESS": "248 N SAMSULA DR", "CITY": "NEW SMYRNA BEACH", "STATE": "FL", "ZIPCODE": "32168", "PHONE": "386-423-6650", "THEME": "PUBLIC", "FAC": "7951", "SCHOOLCODE": 7, "ZIP4": "32168-8762", "TYPE": "13", "CURAPPLY": "2002\/10\/14", "PERMIT": "64-51-01576", "URL": "http:\/\/www.samsulaacademy.org\/", "PERM_ID": "12127SCH82", "SOURCE_FID": "SCH", "SOURCE_DID": "82", "LOAD_DATE": "2009\/02\/17", "DATA_QUALI": 1, "FTYPE": 730, "FCODE": 73002, "IsLANDMARK": 2, "LATITUDE": 29.022651549999999, "LONGITUDE": -81.050916729999997, "USNG": "17R MN 9504210496", "TractID": "12127083209" }, "geometry": { "type": "Point", "coordinates": [ -81.050916735984998, 29.022651556510016 ] } },
{ "type": "Feature", "properties": { "OBJECTID": 384, "NAME": "NEW SMYRNA BEACH MIDDLE SCHOOL", "ADDRESS": "1200 S MYRTLE AVE", "CITY": "NEW SMYRNA BEACH", "STATE": "FL", "ZIPCODE": "32169", "PHONE": "386-424-2550", "THEME": "PUBLIC", "FAC": "3931", "SCHOOLCODE": 2, "ZIP4": "32168-7551", "TYPE": "13", "CURAPPLY": "2002\/10\/14", "PERMIT": "64-51-01562", "URL": "http:\/\/myvolusiaschools.org\/schools\/Pages\/default.aspx", "PERM_ID": "12127SCH83", "SOURCE_FID": "SCH", "SOURCE_DID": "83", "LOAD_DATE": "2009\/02\/17", "DATA_QUALI": 1, "FTYPE": 730, "FCODE": 73004, "IsLANDMARK": 2, "LATITUDE": 29.004422219999999, "LONGITUDE": -80.923319649999996, "USNG": "17R NN 0746808478", "TractID": "12127082902" }, "geometry": { "type": "Point", "coordinates": [ -80.923319656596988, 29.004422223252757 ] } },
{ "type": "Feature", "properties": { "OBJECTID": 385, "NAME": "CORONADO BEACH ELEMENTARY SCHOOL", "ADDRESS": "3550 MICHIGAN AVE", "CITY": "NEW SMYRNA BEACH", "STATE": "FL", "ZIPCODE": "32169", "PHONE": "386-424-2525", "THEME": "PUBLIC", "FAC": "1237", "SCHOOLCODE": 1, "ZIP4": "32169-3815", "TYPE": "13", "CURAPPLY": "2002\/10\/14", "PERMIT": "64-51-01536", "URL": "http:\/\/myvolusiaschools.org\/schools\/Pages\/default.aspx", "PERM_ID": "12127SCH84", "SOURCE_FID": "SCH", "SOURCE_DID": "84", "LOAD_DATE": "2009\/02\/17", "DATA_QUALI": 1, "FTYPE": 730, "FCODE": 73003, "IsLANDMARK": 2, "LATITUDE": 29.00272739, "LONGITUDE": -80.878117950000004, "USNG": "17R NN 1187108294", "TractID": "12127082705" }, "geometry": { "type": "Point", "coordinates": [ -80.878117953262276, 29.002727400467784 ] } },
{ "type": "Feature", "properties": { "OBJECTID": 386, "NAME": "EDGEWATER PUBLIC SCHOOL", "ADDRESS": "801 S OLD COUNTY RD", "CITY": "EDGEWATER", "STATE": "FL", "ZIPCODE": "32132", "PHONE": "386-424-2573", "THEME": "PUBLIC", "FAC": "3697", "SCHOOLCODE": 1, "ZIP4": "32132-2248", "TYPE": "13", "CURAPPLY": "2002\/10\/14", "PERMIT": "64-51-01545", "URL": "http:\/\/myvolusiaschools.org\/schools\/Pages\/default.aspx", "PERM_ID": "12127SCH85", "SOURCE_FID": "SCH", "SOURCE_DID": "85", "LOAD_DATE": "2009\/02\/17", "DATA_QUALI": 1, "FTYPE": 730, "FCODE": 73003, "IsLANDMARK": 2, "LATITUDE": 28.98384119, "LONGITUDE": -80.907242170000004, "USNG": "17R NN 0903606199", "TractID": "12127083008" }, "geometry": { "type": "Point", "coordinates": [ -80.907242171801926, 28.983841197510174 ] } },
{ "type": "Feature", "properties": { "OBJECTID": 387, "NAME": "INDIAN RIVER ELEMENTARY SCHOOL", "ADDRESS": "650 ROBERTS RD", "CITY": "EDGEWATER", "STATE": "FL", "ZIPCODE": "32141", "PHONE": "386-424-2650", "THEME": "PUBLIC", "FAC": "3651", "SCHOOLCODE": 1, "ZIP4": "32141-5832", "TYPE": "13", "CURAPPLY": "2002\/10\/14", "PERMIT": "64-51-01556", "URL": "http:\/\/myvolusiaschools.org\/schools\/Pages\/default.aspx", "PERM_ID": "12127SCH86", "SOURCE_FID": "SCH", "SOURCE_DID": "86", "LOAD_DATE": "2009\/02\/17", "DATA_QUALI": 1, "FTYPE": 730, "FCODE": 73003, "IsLANDMARK": 2, "LATITUDE": 28.946408510000001, "LONGITUDE": -80.89114223, "USNG": "17R NN 1060802053", "TractID": "12127083005" }, "geometry": { "type": "Point", "coordinates": [ -80.891142235035062, 28.946408512547283 ] } },
{ "type": "Feature", "properties": { "OBJECTID": 388, "NAME": "FREEDOM ELEMENTARY SCHOOL", "ADDRESS": "1395 S BLUE LAKE AVE", "CITY": "DELAND", "STATE": "FL", "ZIPCODE": "32724", "PHONE": "386-943-4375", "THEME": "PUBLIC", "FAC": "7781", "SCHOOLCODE": 1, "ZIP4": "32724-7958", "TYPE": "13", "CURAPPLY": "2002\/10\/14", "PERMIT": "64-51-01548", "URL": "http:\/\/myvolusiaschools.org\/schools\/Pages\/default.aspx", "PERM_ID": "12127SCH88", "SOURCE_FID": "SCH", "SOURCE_DID": "88", "LOAD_DATE": "2009\/02\/17", "DATA_QUALI": 1, "FTYPE": 730, "FCODE": 73003, "IsLANDMARK": 2, "LATITUDE": 28.994151930000001, "LONGITUDE": -81.271805950000001, "USNG": "17R MN 7352507368", "TractID": "12127090306" }, "geometry": { "type": "Point", "coordinates": [ -81.271805957565476, 28.994151935372287 ] } },
{ "type": "Feature", "properties": { "OBJECTID": 389, "NAME": "CREEKSIDE MIDDLE SCHOOL", "ADDRESS": "6801 AIRPORT RD", "CITY": "PORT ORANGE", "STATE": "FL", "ZIPCODE": "32128", "PHONE": "386-322-6155", "THEME": "PUBLIC", "FAC": "7791", "SCHOOLCODE": 2, "ZIP4": "32128-7411", "TYPE": "13", "CURAPPLY": "2002\/10\/14", "PERMIT": "64-51-01537", "URL": "http:\/\/myvolusiaschools.org\/schools\/Pages\/default.aspx", "PERM_ID": "12127SCH89", "SOURCE_FID": "SCH", "SOURCE_DID": "89", "LOAD_DATE": "2009\/02\/17", "DATA_QUALI": 1, "FTYPE": 730, "FCODE": 73004, "IsLANDMARK": 2, "LATITUDE": 29.066185059999999, "LONGITUDE": -81.041643120000003, "USNG": "17R MN 9594715319", "TractID": "12127083208" }, "geometry": { "type": "Point", "coordinates": [ -81.041643120293529, 29.066185062628595 ] } },
{ "type": "Feature", "properties": { "OBJECTID": 390, "NAME": "ADVANCED TECHNOLOGY COLLEGE", "ADDRESS": "1770 TECHNOLOGY BLVD", "CITY": "DAYTONA BEACH", "STATE": "FL", "ZIPCODE": "32124", "PHONE": "386-506-4100", "THEME": "PUBLIC", "FAC": "7821", "SCHOOLCODE": 6, "ZIP4": "32117-7136", "TYPE": "13", "CURAPPLY": "2002\/10\/17", "PERMIT": null, "URL": "http:\/\/www.daytonastate.edu\/catalog\/facts\/atc.html", "PERM_ID": "12127SCH90", "SOURCE_FID": "SCH", "SOURCE_DID": "90", "LOAD_DATE": "2009\/02\/17", "DATA_QUALI": 1, "FTYPE": 730, "FCODE": 73006, "IsLANDMARK": 2, "LATITUDE": 29.231761800000001, "LONGITUDE": -81.099126389999995, "USNG": "17R MN 9036733667", "TractID": "12127080804" }, "geometry": { "type": "Point", "coordinates": [ -81.099126391247864, 29.231761809627521 ] } },
{ "type": "Feature", "properties": { "OBJECTID": 391, "NAME": "READING EDGE ACADEMY", "ADDRESS": "2975 ENTERPRISE RD", "CITY": "DEBARY", "STATE": "FL", "ZIPCODE": "32713", "PHONE": "386-668-8911", "THEME": "PUBLIC", "FAC": "6891", "SCHOOLCODE": 7, "ZIP4": "32713-2708", "TYPE": "13", "CURAPPLY": "2002\/10\/17", "PERMIT": "64-51-01600", "URL": "http:\/\/www.readingedgeacademy.org\/", "PERM_ID": "12127SCH91", "SOURCE_FID": "SCH", "SOURCE_DID": "91", "LOAD_DATE": "2009\/02\/17", "DATA_QUALI": 1, "FTYPE": 730, "FCODE": 73002, "IsLANDMARK": 2, "LATITUDE": 28.895143239999999, "LONGITUDE": -81.282858709999999, "USNG": "17R MM 7242296401", "TractID": "12127090902" }, "geometry": { "type": "Point", "coordinates": [ -81.282858712030347, 28.895143242410722 ] } },
{ "type": "Feature", "properties": { "OBJECTID": 392, "NAME": "SPIRIT ELEMENTARY SCHOOL", "ADDRESS": "1500 MEADOWLARK DR", "CITY": "DELTONA", "STATE": "FL", "ZIPCODE": "32725", "PHONE": "386-575-4080", "THEME": "PUBLIC", "FAC": "7871", "SCHOOLCODE": 1, "ZIP4": "32725-4600", "TYPE": "13", "CURAPPLY": "2008\/09\/24", "PERMIT": "64-51-02312", "URL": "http:\/\/myvolusiaschools.org\/schools\/Pages\/default.aspx", "PERM_ID": "12127SCH92", "SOURCE_FID": "SCH", "SOURCE_DID": "92", "LOAD_DATE": "2009\/02\/17", "DATA_QUALI": 1, "FTYPE": 730, "FCODE": 73003, "IsLANDMARK": 2, "LATITUDE": 28.905966060000001, "LONGITUDE": -81.242273519999998, "USNG": "17R MM 7638197592", "TractID": "12127091015" }, "geometry": { "type": "Point", "coordinates": [ -81.242273521256521, 28.905966069909603 ] } },
{ "type": "Feature", "properties": { "OBJECTID": 393, "NAME": "DAVID C HINSON SR MIDDLE SCHOOL", "ADDRESS": "1860 N CLYDE MORRIS BLVD", "CITY": "DAYTONA BEACH", "STATE": "FL", "ZIPCODE": "32117", "PHONE": "386-258-4682", "THEME": "PUBLIC", "FAC": "7831", "SCHOOLCODE": 2, "ZIP4": null, "TYPE": "13", "CURAPPLY": "2005\/06\/07", "PERMIT": "64-51-01988", "URL": "http:\/\/myvolusiaschools.org\/schools\/Pages\/default.aspx", "PERM_ID": "12127SCH93", "SOURCE_FID": "SCH", "SOURCE_DID": "93", "LOAD_DATE": "2009\/02\/17", "DATA_QUALI": 1, "FTYPE": 730, "FCODE": 73004, "IsLANDMARK": 2, "LATITUDE": 29.239913170000001, "LONGITUDE": -81.094135899999998, "USNG": "17R MN 9085234570", "TractID": "12127080804" }, "geometry": { "type": "Point", "coordinates": [ -81.094135908419645, 29.239913174674356 ] } },
{ "type": "Feature", "properties": { "OBJECTID": 394, "NAME": "PACE CENTER FOR GIRLS", "ADDRESS": "208 CENTRAL AVE", "CITY": "ORMOND BEACH", "STATE": "FL", "ZIPCODE": "32174", "PHONE": "386-944-1111", "THEME": "PUBLIC", "FAC": "9808", "SCHOOLCODE": 5, "ZIP4": "32114-4306", "TYPE": "13", "CURAPPLY": "1997\/06\/18", "PERMIT": "64-51-00487", "URL": "http:\/\/www.pacecenter.org\/centers\/volusia-flagler", "PERM_ID": "12127SCH96", "SOURCE_FID": "SCH", "SOURCE_DID": "96", "LOAD_DATE": "2009\/02\/17", "DATA_QUALI": 2, "FTYPE": 730, "FCODE": 73002, "IsLANDMARK": 2, "LATITUDE": 29.278852180000001, "LONGITUDE": -81.059176050000005, "USNG": "17R MN 9425238882", "TractID": "12127080600" }, "geometry": { "type": "Point", "coordinates": [ -81.059176054736767, 29.278852190107365 ] } },
{ "type": "Feature", "properties": { "OBJECTID": 395, "NAME": "HIGHBANKS LEARNING CENTER", "ADDRESS": "336 E HIGHBANKS RD", "CITY": "DEBARY", "STATE": "FL", "ZIPCODE": "32713", "PHONE": "386-575-4076", "THEME": "PUBLIC", "FAC": "7861", "SCHOOLCODE": 5, "ZIP4": "32713-2604", "TYPE": "13", "CURAPPLY": "2005\/10\/27", "PERMIT": null, "URL": "http:\/\/myvolusiaschools.org\/schools\/Pages\/default.aspx", "PERM_ID": "12127SCH97", "SOURCE_FID": "SCH", "SOURCE_DID": "97", "LOAD_DATE": "2009\/02\/17", "DATA_QUALI": 2, "FTYPE": 730, "FCODE": 73002, "IsLANDMARK": 2, "LATITUDE": 28.890743489999998, "LONGITUDE": -81.285024320000005, "USNG": "17R MM 7220995914", "TractID": "12127090902" }, "geometry": { "type": "Point", "coordinates": [ -81.285024319997945, 28.890743497441118 ] } },
{ "type": "Feature", "properties": { "OBJECTID": 396, "NAME": "RICHARD MILBURN ACADEMY EAST", "ADDRESS": "1031 MASON  AVENUE", "CITY": "SOUTH DAYTONA", "STATE": "FL", "ZIPCODE": "32119", "PHONE": "386-304-0086", "THEME": "PUBLIC", "FAC": "7891", "SCHOOLCODE": 7, "ZIP4": "32119-3097", "TYPE": "13", "CURAPPLY": "2005\/10\/26", "PERMIT": "64-51-1281791", "URL": "http:\/\/daytonabeach.rmaschools.org\/", "PERM_ID": "12127SCH99", "SOURCE_FID": "SCH", "SOURCE_DID": "99", "LOAD_DATE": "2009\/02\/17", "DATA_QUALI": 1, "FTYPE": 730, "FCODE": 73002, "IsLANDMARK": 2, "LATITUDE": 29.21753189, "LONGITUDE": -81.049237009999999, "USNG": "17R MN 9521432088", "TractID": "12127081800" }, "geometry": { "type": "Point", "coordinates": [ -81.049237015043332, 29.217531896443951 ] } },
{ "type": "Feature", "properties": { "OBJECTID": 397, "NAME": "IMAGINATION STATION MONTESSORI SCHOOL", "ADDRESS": "528 PENINSULA DRIVE N", "CITY": "DAYTONA BEACH", "STATE": "FL", "ZIPCODE": "32118", "PHONE": "386-255-3755", "THEME": "PRIVATE", "FAC": "5750", "SCHOOLCODE": 8, "ZIP4": null, "TYPE": "12", "CURAPPLY": "2010\/10\/18", "PERMIT": "64-51-1283550", "URL": "http:\/\/www.imaginationstationmontessori.com\/", "PERM_ID": "12127SCH186", "SOURCE_FID": "SCH", "SOURCE_DID": "186", "LOAD_DATE": "2013\/08\/15", "DATA_QUALI": 1, "FTYPE": 730, "FCODE": 73002, "IsLANDMARK": 2, "LATITUDE": 29.23338287, "LONGITUDE": -81.016236219999996, "USNG": "17R MN 9842233843", "TractID": "12127081200" }, "geometry": { "type": "Point", "coordinates": [ -81.016236224228592, 29.233382876322548 ] } },
{ "type": "Feature", "properties": { "OBJECTID": 398, "NAME": "BLAKE MEMORIAL DAY SCHOOL", "ADDRESS": "134 EUCLID AVENUE N", "CITY": "LAKE HELEN", "STATE": "FL", "ZIPCODE": "32744", "PHONE": "386-228-2151", "THEME": "PRIVATE", "FAC": "5976", "SCHOOLCODE": 8, "ZIP4": null, "TYPE": "12", "CURAPPLY": "1998\/08\/25", "PERMIT": "64-51-00748", "URL": "https:\/\/www.facebook.com\/BlakeDayschool", "PERM_ID": "12127SCH187", "SOURCE_FID": "SCH", "SOURCE_DID": "187", "LOAD_DATE": "2013\/08\/15", "DATA_QUALI": 1, "FTYPE": 730, "FCODE": 73002, "IsLANDMARK": 2, "LATITUDE": 28.985375350000002, "LONGITUDE": -81.234158160000007, "USNG": "17R MN 7719006388", "TractID": "12127091001" }, "geometry": { "type": "Point", "coordinates": [ -81.23415816864474, 28.985375349588494 ] } },
{ "type": "Feature", "properties": { "OBJECTID": 399, "NAME": "GOOD SHEPHERD ACADEMY", "ADDRESS": "751 HOWLAND BOULEVARD", "CITY": "DELTONA", "STATE": "FL", "ZIPCODE": "32738", "PHONE": "386-324-2274", "THEME": "PRIVATE", "FAC": "5508", "SCHOOLCODE": 8, "ZIP4": null, "TYPE": "12", "CURAPPLY": "1999\/07\/15", "PERMIT": "64-51-00914", "URL": "http:\/\/www.gslcdeltona.com\/site\/default.asp?sec_id=180004789", "PERM_ID": "12127SCH188", "SOURCE_FID": "SCH", "SOURCE_DID": "188", "LOAD_DATE": "2013\/08\/15", "DATA_QUALI": 1, "FTYPE": 730, "FCODE": 73002, "IsLANDMARK": 2, "LATITUDE": 28.88353627, "LONGITUDE": -81.16623783, "USNG": "17R MM 8379095094", "TractID": "12127091025" }, "geometry": { "type": "Point", "coordinates": [ -81.166237834711268, 28.883536275914501 ] } },
{ "type": "Feature", "properties": { "OBJECTID": 400, "NAME": "EASTER SEALS CHARTER SCHOOL", "ADDRESS": "1219 DUNN AVE", "CITY": "DAYTONA BEACH", "STATE": "FL", "ZIPCODE": "32114", "PHONE": "386-255-4568", "THEME": "PUBLIC", "FAC": "9895", "SCHOOLCODE": 7, "ZIP4": "32114-2405", "TYPE": "13", "CURAPPLY": "2000\/04\/06", "PERMIT": "64-51-02352", "URL": "http:\/\/www.easterseals.com\/fl-vf\/", "PERM_ID": "12127SCH100", "SOURCE_FID": "SCH", "SOURCE_DID": "100", "LOAD_DATE": "2009\/02\/17", "DATA_QUALI": 1, "FTYPE": 730, "FCODE": 73002, "IsLANDMARK": 2, "LATITUDE": 29.2069473, "LONGITUDE": -81.054369570000006, "USNG": "17R MN 9471530915", "TractID": "12127081800" }, "geometry": { "type": "Point", "coordinates": [ -81.054369570970579, 29.206947304689265 ] } },
{ "type": "Feature", "properties": { "OBJECTID": 401, "NAME": "EASTER SEALS CHARTER SCHOOL", "ADDRESS": "2219 S WOODLAND BLVD", "CITY": "DELAND", "STATE": "FL", "ZIPCODE": "32720", "PHONE": "386-736-9849", "THEME": "PUBLIC", "FAC": "9897", "SCHOOLCODE": 7, "ZIP4": "32720-8628", "TYPE": "13", "CURAPPLY": "1996\/11\/25", "PERMIT": null, "URL": "http:\/\/www.easterseals.com\/fl-vf\/", "PERM_ID": "12127SCH101", "SOURCE_FID": "SCH", "SOURCE_DID": "101", "LOAD_DATE": "2009\/02\/17", "DATA_QUALI": 1, "FTYPE": 730, "FCODE": 73002, "IsLANDMARK": 2, "LATITUDE": 28.989647000000001, "LONGITUDE": -81.300199890000002, "USNG": "17R MN 9471530915", "TractID": "12127090307" }, "geometry": { "type": "Point", "coordinates": [ -81.300141238671642, 28.989645219762007 ] } },
{ "type": "Feature", "properties": { "OBJECTID": 402, "NAME": "TEMPLE BETH-EL SCHOOL", "ADDRESS": "579 N NOVA RD", "CITY": "ORMOND BEACH", "STATE": "FL", "ZIPCODE": "32174", "PHONE": "386-267-0952", "THEME": "PRIVATE", "FAC": "5482", "SCHOOLCODE": 8, "ZIP4": "32174-4445", "TYPE": "12", "CURAPPLY": "2002\/10\/08", "PERMIT": "64-51-01490", "URL": "http:\/\/www.tbeschool.com\/", "PERM_ID": "12127SCH103", "SOURCE_FID": "SCH", "SOURCE_DID": "103", "LOAD_DATE": "2009\/02\/17", "DATA_QUALI": 2, "FTYPE": 730, "FCODE": 73002, "IsLANDMARK": 2, "LATITUDE": 29.292848670000001, "LONGITUDE": -81.086411519999999, "USNG": "17R MN 9160740435", "TractID": "12127080807" }, "geometry": { "type": "Point", "coordinates": [ -81.086411522822047, 29.292848676980586 ] } },
{ "type": "Feature", "properties": { "OBJECTID": 403, "NAME": "CALVARY CHRISTIAN ACADEMY", "ADDRESS": "1687 W GRANADA BLVD", "CITY": "ORMOND BEACH", "STATE": "FL", "ZIPCODE": "32174", "PHONE": "386-672-2081", "THEME": "PRIVATE", "FAC": "2242", "SCHOOLCODE": 8, "ZIP4": "32174-6709", "TYPE": "12", "CURAPPLY": "2002\/10\/30", "PERMIT": "64-51-01608", "URL": "http:\/\/www.ccalions.com\/", "PERM_ID": "12127SCH105", "SOURCE_FID": "SCH", "SOURCE_DID": "105", "LOAD_DATE": "2009\/02\/17", "DATA_QUALI": 2, "FTYPE": 730, "FCODE": 73002, "IsLANDMARK": 2, "LATITUDE": 29.2578508, "LONGITUDE": -81.118909740000007, "USNG": "17R MN 8844736560", "TractID": "12127083203" }, "geometry": { "type": "Point", "coordinates": [ -81.118664447586411, 29.257600365883306 ] } },
{ "type": "Feature", "properties": { "OBJECTID": 404, "NAME": "CENTRAL FELLOWSHIP CHRISTIAN ACADEMY", "ADDRESS": "626 E KICKLIGHTER RD", "CITY": "LAKE HELEN", "STATE": "FL", "ZIPCODE": "32744", "PHONE": "386-228-2803", "THEME": "PRIVATE", "FAC": "NA", "SCHOOLCODE": 8, "ZIP4": "32744-3625", "TYPE": "12", "CURAPPLY": "2002\/10\/30", "PERMIT": "64-51-01609", "URL": "http:\/\/www.centralfellowshipbaptistchurch.com\/christianacademy.htm", "PERM_ID": "12127SCH106", "SOURCE_FID": "SCH", "SOURCE_DID": "106", "LOAD_DATE": "2009\/02\/17", "DATA_QUALI": 2, "FTYPE": 730, "FCODE": 73002, "IsLANDMARK": 2, "LATITUDE": 28.97133869, "LONGITUDE": -81.222720289999998, "USNG": "17R MN 7830104831", "TractID": "12127091001" }, "geometry": { "type": "Point", "coordinates": [ -81.222720297692348, 28.971338696432479 ] } },
{ "type": "Feature", "properties": { "OBJECTID": 405, "NAME": "CHILDREN'S HOUSE MONTESSORI SCHOOL", "ADDRESS": "509 E PENNSYLVANIA AVE", "CITY": "DELAND", "STATE": "FL", "ZIPCODE": "32724", "PHONE": "386-736-3632", "THEME": "PRIVATE", "FAC": "2416", "SCHOOLCODE": 8, "ZIP4": "32724-3616", "TYPE": "12", "CURAPPLY": "2002\/10\/30", "PERMIT": "64-51-01610", "URL": "http:\/\/www.delandmontessori.com\/", "PERM_ID": "12127SCH107", "SOURCE_FID": "SCH", "SOURCE_DID": "107", "LOAD_DATE": "2009\/02\/17", "DATA_QUALI": 2, "FTYPE": 730, "FCODE": 73002, "IsLANDMARK": 2, "LATITUDE": 29.039518999999999, "LONGITUDE": -81.293751589999999, "USNG": "17R MN 7140012400", "TractID": "12127090400" }, "geometry": { "type": "Point", "coordinates": [ -81.293751596564178, 29.039519007029096 ] } },
{ "type": "Feature", "properties": { "OBJECTID": 406, "NAME": "DAYTONA BEACH CHRISTIAN SCHOOL", "ADDRESS": "1851 S CLYDE MORRIS BLVD", "CITY": "DAYTONA BEACH", "STATE": "FL", "ZIPCODE": "32119", "PHONE": "386-760-4808", "THEME": "PRIVATE", "FAC": "2475", "SCHOOLCODE": 8, "ZIP4": "32119-1580", "TYPE": "12", "CURAPPLY": "2002\/10\/30", "PERMIT": "64-51-01611", "URL": "http:\/\/www.dbchristianschool.com\/", "PERM_ID": "12127SCH108", "SOURCE_FID": "SCH", "SOURCE_DID": "108", "LOAD_DATE": "2009\/02\/17", "DATA_QUALI": 2, "FTYPE": 730, "FCODE": 73002, "IsLANDMARK": 2, "LATITUDE": 29.158456999999999, "LONGITUDE": -81.039077000000006, "USNG": "17R MN 9620025542", "TractID": "12127082415" }, "geometry": { "type": "Point", "coordinates": [ -81.039070627165316, 29.158454008979952 ] } },
{ "type": "Feature", "properties": { "OBJECTID": 407, "NAME": "DELTONA 7TH DAY ADVENTIST SCHOOL", "ADDRESS": "1725 CATALINA BLVD", "CITY": "DELTONA", "STATE": "FL", "ZIPCODE": "32738", "PHONE": "386-532-9333", "THEME": "PRIVATE", "FAC": "1244", "SCHOOLCODE": 8, "ZIP4": "32738-9541", "TYPE": "12", "CURAPPLY": "2002\/10\/30", "PERMIT": "64-51-01612", "URL": "http:\/\/www.tagnet.org\/deltonafl\/school1.htm", "PERM_ID": "12127SCH109", "SOURCE_FID": "SCH", "SOURCE_DID": "109", "LOAD_DATE": "2009\/02\/17", "DATA_QUALI": 2, "FTYPE": 730, "FCODE": 73002, "IsLANDMARK": 2, "LATITUDE": 28.946538910000001, "LONGITUDE": -81.223770520000002, "USNG": "17R MN 7819402083", "TractID": "12127091021" }, "geometry": { "type": "Point", "coordinates": [ -81.223770518885743, 28.94653891769001 ] } },
{ "type": "Feature", "properties": { "OBJECTID": 408, "NAME": "DELTONA CHRISTIAN SCHOOL", "ADDRESS": "1200 PROVIDENCE BLVD", "CITY": "DELTONA", "STATE": "FL", "ZIPCODE": "32725", "PHONE": "386-574-1971", "THEME": "PRIVATE", "FAC": "1404", "SCHOOLCODE": 8, "ZIP4": "32725-7327", "TYPE": "12", "CURAPPLY": "2002\/10\/30", "PERMIT": "64-51-01614", "URL": "http:\/\/www.deltonachristianschool.org\/", "PERM_ID": "12127SCH110", "SOURCE_FID": "SCH", "SOURCE_DID": "110", "LOAD_DATE": "2009\/02\/17", "DATA_QUALI": 2, "FTYPE": 730, "FCODE": 73002, "IsLANDMARK": 2, "LATITUDE": 28.881047550000002, "LONGITUDE": -81.243098119999999, "USNG": "17R MM 7629594831", "TractID": "12127091017" }, "geometry": { "type": "Point", "coordinates": [ -81.243098127713765, 28.881047555571719 ] } },
{ "type": "Feature", "properties": { "OBJECTID": 409, "NAME": "GRACE ACADEMY", "ADDRESS": "1060A W GRANADA BLVD", "CITY": "ORMOND BEACH", "STATE": "FL", "ZIPCODE": "32174", "PHONE": "386-673-5166", "THEME": "PRIVATE", "FAC": "1688", "SCHOOLCODE": 8, "ZIP4": "32174-5911", "TYPE": "12", "CURAPPLY": "2002\/10\/31", "PERMIT": "64-51-01622", "URL": "http:\/\/www.graceacademy21.com\/", "PERM_ID": "12127SCH115", "SOURCE_FID": "SCH", "SOURCE_DID": "115", "LOAD_DATE": "2009\/02\/17", "DATA_QUALI": 2, "FTYPE": 730, "FCODE": 73002, "IsLANDMARK": 2, "LATITUDE": 29.2736068, "LONGITUDE": -81.09415138, "USNG": "17R MN 9085438303", "TractID": "12127080804" }, "geometry": { "type": "Point", "coordinates": [ -81.094151383327741, 29.273606805015508 ] } },
{ "type": "Feature", "properties": { "OBJECTID": 410, "NAME": "LIGHTHOUSE CHRISTIAN ACADEMY", "ADDRESS": "126 S RIDGEWOOD AVE", "CITY": "DELAND", "STATE": "FL", "ZIPCODE": "32720", "PHONE": "386-734-5380", "THEME": "PRIVATE", "FAC": "3684", "SCHOOLCODE": 8, "ZIP4": "32720-2938", "TYPE": "12", "CURAPPLY": "2002\/10\/31", "PERMIT": "64-51-01625", "URL": "http:\/\/lighthousechristianacademy.fl.vca.schoolinsites.com\/", "PERM_ID": "12127SCH116", "SOURCE_FID": "SCH", "SOURCE_DID": "116", "LOAD_DATE": "2009\/02\/17", "DATA_QUALI": 2, "FTYPE": 730, "FCODE": 73002, "IsLANDMARK": 2, "LATITUDE": 29.02367709, "LONGITUDE": -81.34106491, "USNG": "17R MN 6678810657", "TractID": "12127090701" }, "geometry": { "type": "Point", "coordinates": [ -81.341064915656219, 29.023677093483752 ] } },
{ "type": "Feature", "properties": { "OBJECTID": 411, "NAME": "MOUNT CALVARY ACADEMY", "ADDRESS": "700 BELLEVUE AVE", "CITY": "DAYTONA BEACH", "STATE": "FL", "ZIPCODE": "32114", "PHONE": "386-258 0456", "THEME": "PRIVATE", "FAC": "2374", "SCHOOLCODE": 8, "ZIP4": "32114-5104", "TYPE": "12", "CURAPPLY": "2002\/10\/31", "PERMIT": "64-51-01628", "URL": "http:\/\/www.mtcalvaryassembly.com\/", "PERM_ID": "12127SCH117", "SOURCE_FID": "SCH", "SOURCE_DID": "117", "LOAD_DATE": "2009\/02\/17", "DATA_QUALI": 2, "FTYPE": 730, "FCODE": 73002, "IsLANDMARK": 2, "LATITUDE": 29.194270719999999, "LONGITUDE": -81.023941410000006, "USNG": "17R MN 9767229510", "TractID": "12127082100" }, "geometry": { "type": "Point", "coordinates": [ -81.023941416929532, 29.194270725360052 ] } },
{ "type": "Feature", "properties": { "OBJECTID": 412, "NAME": "LOURDES ACADEMY", "ADDRESS": "1014 N HALIFAX AVE", "CITY": "DAYTONA BEACH", "STATE": "FL", "ZIPCODE": "32118", "PHONE": "386-252-0391", "THEME": "PRIVATE", "FAC": "0816", "SCHOOLCODE": 8, "ZIP4": "32118-3614", "TYPE": "12", "CURAPPLY": "2002\/10\/31", "PERMIT": "64-51-01631", "URL": "http:\/\/www.lourdesacademy.net\/", "PERM_ID": "12127SCH119", "SOURCE_FID": "SCH", "SOURCE_DID": "119", "LOAD_DATE": "2009\/02\/17", "DATA_QUALI": 2, "FTYPE": 730, "FCODE": 73002, "IsLANDMARK": 2, "LATITUDE": 29.241553759999999, "LONGITUDE": -81.021417869999993, "USNG": "17R MN 9791934748", "TractID": "12127081102" }, "geometry": { "type": "Point", "coordinates": [ -81.021417878004314, 29.241553759710097 ] } },
{ "type": "Feature", "properties": { "OBJECTID": 413, "NAME": "RIVERBEND ACADEMY", "ADDRESS": "2080 W GRANADA BLVD", "CITY": "ORMOND BEACH", "STATE": "FL", "ZIPCODE": "32174", "PHONE": "386-615-0986", "THEME": "PRIVATE", "FAC": "3597", "SCHOOLCODE": 8, "ZIP4": "32174-2531", "TYPE": "12", "CURAPPLY": "2002\/10\/31", "PERMIT": "64-51-01632", "URL": "http:\/\/www.riverbendacademy.org\/", "PERM_ID": "12127SCH120", "SOURCE_FID": "SCH", "SOURCE_DID": "120", "LOAD_DATE": "2009\/02\/17", "DATA_QUALI": 2, "FTYPE": 730, "FCODE": 73002, "IsLANDMARK": 2, "LATITUDE": 29.250037720000002, "LONGITUDE": -81.135319530000004, "USNG": "17R MN 8685235696", "TractID": "12127083205" }, "geometry": { "type": "Point", "coordinates": [ -81.135319530266116, 29.250037725757018 ] } },
{ "type": "Feature", "properties": { "OBJECTID": 414, "NAME": "ROCK CHURCH ACADEMY", "ADDRESS": "1818 TAYLOR RD", "CITY": "PORT ORANGE", "STATE": "FL", "ZIPCODE": "32128", "PHONE": "386-788-1517", "THEME": "PRIVATE", "FAC": "1373", "SCHOOLCODE": 8, "ZIP4": "32128-6783", "TYPE": "12", "CURAPPLY": "2002\/10\/31", "PERMIT": "64-51-01633", "URL": "http:\/\/rockdaytona.com\/about-us\/rock-church-academy-2\/", "PERM_ID": "12127SCH121", "SOURCE_FID": "SCH", "SOURCE_DID": "121", "LOAD_DATE": "2009\/02\/17", "DATA_QUALI": 2, "FTYPE": 730, "FCODE": 73002, "IsLANDMARK": 2, "LATITUDE": 29.091209580000001, "LONGITUDE": -81.050890199999998, "USNG": "17R MN 9504818092", "TractID": "12127083207" }, "geometry": { "type": "Point", "coordinates": [ -81.050890204932827, 29.091209588187986 ] } },
{ "type": "Feature", "properties": { "OBJECTID": 415, "NAME": "SACRED HEART SCHOOL", "ADDRESS": "1003 TURNBULL ST", "CITY": "NEW SMYRNA BEACH", "STATE": "FL", "ZIPCODE": "32168", "PHONE": "386-428-4732", "THEME": "PRIVATE", "FAC": "0876", "SCHOOLCODE": 8, "ZIP4": "32168-6229", "TYPE": "12", "CURAPPLY": "2002\/10\/31", "PERMIT": "64-51-01634", "URL": "http:\/\/school.sacredheartcatholic.com\/", "PERM_ID": "12127SCH122", "SOURCE_FID": "SCH", "SOURCE_DID": "122", "LOAD_DATE": "2009\/02\/17", "DATA_QUALI": 2, "FTYPE": 730, "FCODE": 73002, "IsLANDMARK": 2, "LATITUDE": 29.039239909999999, "LONGITUDE": -80.935070780000004, "USNG": "17R NN 0632212335", "TractID": "12127082802" }, "geometry": { "type": "Point", "coordinates": [ -80.935070791160314, 29.039239912075242 ] } },
{ "type": "Feature", "properties": { "OBJECTID": 416, "NAME": "ST BARNABAS EPISCOPAL SCHOOL", "ADDRESS": "319 W WISCONSIN AVE", "CITY": "DELAND", "STATE": "FL", "ZIPCODE": "32720", "PHONE": "386-734-3005", "THEME": "PRIVATE", "FAC": "0936", "SCHOOLCODE": 8, "ZIP4": "32720-4132", "TYPE": "12", "CURAPPLY": "2002\/10\/31", "PERMIT": "64-51-01635", "URL": "http:\/\/sbesyes.org\/", "PERM_ID": "12127SCH123", "SOURCE_FID": "SCH", "SOURCE_DID": "123", "LOAD_DATE": "2009\/02\/17", "DATA_QUALI": 2, "FTYPE": 730, "FCODE": 73002, "IsLANDMARK": 2, "LATITUDE": 29.033021189999999, "LONGITUDE": -81.308438100000004, "USNG": "17R MN 6996611685", "TractID": "12127090400" }, "geometry": { "type": "Point", "coordinates": [ -81.308438105652542, 29.033021194752507 ] } },
{ "type": "Feature", "properties": { "OBJECTID": 417, "NAME": "ST BRENDAN SCHOOL", "ADDRESS": "1000 OCEAN SHORE BLVD", "CITY": "ORMOND BEACH", "STATE": "FL", "ZIPCODE": "32176", "PHONE": "386-441-1331", "THEME": "PRIVATE", "FAC": "2759", "SCHOOLCODE": 8, "ZIP4": "32176-4106", "TYPE": "12", "CURAPPLY": "2002\/10\/31", "PERMIT": "64-51-01636", "URL": "http:\/\/www.stbrendanormond.org\/", "PERM_ID": "12127SCH124", "SOURCE_FID": "SCH", "SOURCE_DID": "124", "LOAD_DATE": "2009\/02\/17", "DATA_QUALI": 2, "FTYPE": 730, "FCODE": 73002, "IsLANDMARK": 2, "LATITUDE": 29.31524671, "LONGITUDE": -81.053331900000003, "USNG": "17R MN 9482142914", "TractID": "12127080400" }, "geometry": { "type": "Point", "coordinates": [ -81.053331901189523, 29.31524671504684 ] } },
{ "type": "Feature", "properties": { "OBJECTID": 418, "NAME": "BASILICA SCHOOL OF ST PAUL", "ADDRESS": "317 MULLALLY ST", "CITY": "DAYTONA BEACH", "STATE": "FL", "ZIPCODE": "32114", "PHONE": "386-252-7915", "THEME": "PRIVATE", "FAC": "1056", "SCHOOLCODE": 8, "ZIP4": "32114-3105", "TYPE": "12", "CURAPPLY": "2002\/10\/31", "PERMIT": "64-51-01638", "URL": "http:\/\/www.stpaulpanthers.org\/", "PERM_ID": "12127SCH126", "SOURCE_FID": "SCH", "SOURCE_DID": "126", "LOAD_DATE": "2009\/02\/17", "DATA_QUALI": 2, "FTYPE": 730, "FCODE": 73002, "IsLANDMARK": 2, "LATITUDE": 29.217453150000001, "LONGITUDE": -81.02729626, "USNG": "17R MN 9734732078", "TractID": "12127081500" }, "geometry": { "type": "Point", "coordinates": [ -81.027296266444196, 29.217453152326069 ] } },
{ "type": "Feature", "properties": { "OBJECTID": 419, "NAME": "ST PETER CATHOLIC SCHOOL", "ADDRESS": "421 W NEW YORK AVE", "CITY": "DELAND", "STATE": "FL", "ZIPCODE": "32720", "PHONE": "386-822-6010", "THEME": "PRIVATE", "FAC": "1096", "SCHOOLCODE": 8, "ZIP4": "32720-5348", "TYPE": "12", "CURAPPLY": "2002\/10\/31", "PERMIT": "64-51-01639", "URL": "http:\/\/stpeter-deland.org\/", "PERM_ID": "12127SCH127", "SOURCE_FID": "SCH", "SOURCE_DID": "127", "LOAD_DATE": "2009\/02\/17", "DATA_QUALI": 2, "FTYPE": 730, "FCODE": 73002, "IsLANDMARK": 2, "LATITUDE": 29.028559680000001, "LONGITUDE": -81.310512209999999, "USNG": "17R MN 6976411190", "TractID": "12127090500" }, "geometry": { "type": "Point", "coordinates": [ -81.310512211694245, 29.028559683305676 ] } },
{ "type": "Feature", "properties": { "OBJECTID": 420, "NAME": "STETSON BAPTIST CHRISTIAN SCHOOL", "ADDRESS": "1025 W MINNESOTA AVE", "CITY": "DELAND", "STATE": "FL", "ZIPCODE": "32720", "PHONE": "386-734-7791", "THEME": "PRIVATE", "FAC": "1666", "SCHOOLCODE": 8, "ZIP4": "32720-3108", "TYPE": "12", "CURAPPLY": "2002\/10\/31", "PERMIT": "64-51-01640", "URL": "http:\/\/sbcsed.org\/", "PERM_ID": "12127SCH128", "SOURCE_FID": "SCH", "SOURCE_DID": "128", "LOAD_DATE": "2009\/02\/17", "DATA_QUALI": 2, "FTYPE": 730, "FCODE": 73002, "IsLANDMARK": 2, "LATITUDE": 29.035785109999999, "LONGITUDE": -81.323920790000003, "USNG": "17R MN 6846111994", "TractID": "12127090202" }, "geometry": { "type": "Point", "coordinates": [ -81.323920895538279, 29.035816734030966 ] } },
{ "type": "Feature", "properties": { "OBJECTID": 421, "NAME": "TRINITY CHRISTIAN ACADEMY SCHOOL", "ADDRESS": "875 ELKCAM BLVD", "CITY": "DELTONA", "STATE": "FL", "ZIPCODE": "32725", "PHONE": "386-789-4515", "THEME": "PRIVATE", "FAC": "1563", "SCHOOLCODE": 8, "ZIP4": "32725-2730", "TYPE": "12", "CURAPPLY": "2002\/10\/31", "PERMIT": "64-51-01642", "URL": "http:\/\/www.trinitychristianacademy.com\/", "PERM_ID": "12127SCH129", "SOURCE_FID": "SCH", "SOURCE_DID": "129", "LOAD_DATE": "2009\/02\/17", "DATA_QUALI": 2, "FTYPE": 730, "FCODE": 73002, "IsLANDMARK": 2, "LATITUDE": 28.924753979999998, "LONGITUDE": -81.253033869999996, "USNG": "17R MM 7533799675", "TractID": "12127091022" }, "geometry": { "type": "Point", "coordinates": [ -81.253033870235882, 28.9247539831808 ] } },
{ "type": "Feature", "properties": { "OBJECTID": 422, "NAME": "WARNER CHRISTIAN ACADEMY SCHOOL", "ADDRESS": "1730 S RIDGEWOOD AVE", "CITY": "SOUTH DAYTONA", "STATE": "FL", "ZIPCODE": "32119", "PHONE": "386-767-5451", "THEME": "PRIVATE", "FAC": "1305", "SCHOOLCODE": 8, "ZIP4": "32119-8411", "TYPE": "12", "CURAPPLY": "2002\/10\/31", "PERMIT": "64-51-01647", "URL": "http:\/\/wcaeagles.org\/", "PERM_ID": "12127SCH131", "SOURCE_FID": "SCH", "SOURCE_DID": "131", "LOAD_DATE": "2009\/02\/17", "DATA_QUALI": 2, "FTYPE": 730, "FCODE": 73002, "IsLANDMARK": 2, "LATITUDE": 29.179590869999998, "LONGITUDE": -81.007163160000005, "USNG": "17R MN 9930427883", "TractID": "12127082401" }, "geometry": { "type": "Point", "coordinates": [ -81.007163161966162, 29.179590877161655 ] } },
{ "type": "Feature", "properties": { "OBJECTID": 423, "NAME": "DISCOVERY DAYS INSTITUTE. OF LEARNING", "ADDRESS": "227 N RIDGEWOOD AVE", "CITY": "EDGEWATER", "STATE": "FL", "ZIPCODE": "32132", "PHONE": "386-428-0860", "THEME": "PRIVATE", "FAC": "1805", "SCHOOLCODE": 8, "ZIP4": "32132-1707", "TYPE": "12", "CURAPPLY": "2002\/10\/31", "PERMIT": "64-51-01648", "URL": "http:\/\/www.discovery-academy.org\/", "PERM_ID": "12127SCH132", "SOURCE_FID": "SCH", "SOURCE_DID": "132", "LOAD_DATE": "2009\/02\/17", "DATA_QUALI": 2, "FTYPE": 730, "FCODE": 73002, "IsLANDMARK": 2, "LATITUDE": 28.995316320000001, "LONGITUDE": -80.908992870000006, "USNG": "17R NN 0886407470", "TractID": "12127083008" }, "geometry": { "type": "Point", "coordinates": [ -80.90897628203453, 28.995268777324181 ] } },
{ "type": "Feature", "properties": { "OBJECTID": 424, "NAME": "HALIFAX ACADEMY", "ADDRESS": "275 N WILLIAMSON BLVD", "CITY": "DAYTONA BEACH", "STATE": "FL", "ZIPCODE": "32114", "PHONE": "386-677-7944", "THEME": "PRIVATE", "FAC": "2439", "SCHOOLCODE": 8, "ZIP4": "32114-1112", "TYPE": "12", "CURAPPLY": "2002\/10\/31", "PERMIT": "64-51-01651", "URL": "http:\/\/halifaxacademy.net\/", "PERM_ID": "12127SCH133", "SOURCE_FID": "SCH", "SOURCE_DID": "133", "LOAD_DATE": "2009\/02\/17", "DATA_QUALI": 2, "FTYPE": 730, "FCODE": 73002, "IsLANDMARK": 2, "LATITUDE": 29.189133900000002, "LONGITUDE": -81.081265700000003, "USNG": "17R MN 9209928943", "TractID": "12127082301" }, "geometry": { "type": "Point", "coordinates": [ -81.081265704521215, 29.189133901887871 ] } },
{ "type": "Feature", "properties": { "OBJECTID": 425, "NAME": "INDIGO CHRISTIAN SCHOOL", "ADDRESS": "401 N WILLIAMSON BLVD", "CITY": "DAYTONA BEACH", "STATE": "FL", "ZIPCODE": "32114", "PHONE": "386-255-5917", "THEME": "PRIVATE", "FAC": "1785", "SCHOOLCODE": 8, "ZIP4": "32114-7185", "TYPE": "12", "CURAPPLY": "2004\/03\/24", "PERMIT": "64-51-01860", "URL": "http:\/\/www.indigochristianacademy.com\/", "PERM_ID": "12127SCH137", "SOURCE_FID": "SCH", "SOURCE_DID": "137", "LOAD_DATE": "2009\/02\/17", "DATA_QUALI": 2, "FTYPE": 730, "FCODE": 73002, "IsLANDMARK": 2, "LATITUDE": 29.193118009999999, "LONGITUDE": -81.082813459999997, "USNG": "17R MN 9194929385", "TractID": "12127082301" }, "geometry": { "type": "Point", "coordinates": [ -81.082813463163561, 29.193118018647915 ] } },
{ "type": "Feature", "properties": { "OBJECTID": 426, "NAME": "DAYTONA STATE COLLEGE-DELTONA CENTER", "ADDRESS": "2351 PROVIDENCE BLVD", "CITY": "DELTONA", "STATE": "FL", "ZIPCODE": "32738", "PHONE": "386-789-7302", "THEME": "PUBLIC", "FAC": "NA", "SCHOOLCODE": 6, "ZIP4": "32738", "TYPE": "13", "CURAPPLY": null, "PERMIT": null, "URL": "http:\/\/www.daytonastate.edu\/", "PERM_ID": "12127SCH139", "SOURCE_FID": "SCH", "SOURCE_DID": "139", "LOAD_DATE": "2009\/02\/17", "DATA_QUALI": 2, "FTYPE": 730, "FCODE": 73006, "IsLANDMARK": 2, "LATITUDE": 28.929077660000001, "LONGITUDE": -81.221494570000004, "USNG": "17R MN 7841200148", "TractID": "12127091019" }, "geometry": { "type": "Point", "coordinates": [ -81.221494580157767, 28.929077663613132 ] } },
{ "type": "Feature", "properties": { "OBJECTID": 427, "NAME": "DAYTONA STATE COLLEGE-SOUTH CAMPUS", "ADDRESS": "940 10TH ST", "CITY": "EDGEWATER", "STATE": "FL", "ZIPCODE": "32168", "PHONE": "386-423-6300", "THEME": "PUBLIC", "FAC": "NA", "SCHOOLCODE": 6, "ZIP4": "32168", "TYPE": "13", "CURAPPLY": null, "PERMIT": null, "URL": "http:\/\/www.daytonastate.edu\/", "PERM_ID": "12127SCH140", "SOURCE_FID": "SCH", "SOURCE_DID": "140", "LOAD_DATE": "2009\/02\/17", "DATA_QUALI": 2, "FTYPE": 730, "FCODE": 73006, "IsLANDMARK": 2, "LATITUDE": 28.99956001, "LONGITUDE": -80.926568340000003, "USNG": "17R NN 0715207939", "TractID": "12127083009" }, "geometry": { "type": "Point", "coordinates": [ -80.9265683393117, 28.999560016883692 ] } },
{ "type": "Feature", "properties": { "OBJECTID": 428, "NAME": "MANATEE COVE ELEMENTARY", "ADDRESS": "734 W OHIO AVE", "CITY": "ORANGE CITY", "STATE": "FL", "ZIPCODE": "32763", "PHONE": "386-575-4076", "THEME": "PUBLIC", "FAC": "7881", "SCHOOLCODE": 1, "ZIP4": "32763-6565", "TYPE": "13", "CURAPPLY": "2006\/08\/01", "PERMIT": "64-51-02129", "URL": "http:\/\/myvolusiaschools.org\/schools\/Pages\/default.aspx", "PERM_ID": "12127SCH142", "SOURCE_FID": "SCH", "SOURCE_DID": "142", "LOAD_DATE": "2009\/02\/17", "DATA_QUALI": 1, "FTYPE": 730, "FCODE": 73003, "IsLANDMARK": 2, "LATITUDE": 28.938768249999999, "LONGITUDE": -81.309131669999999, "USNG": "17R MN 6987301241", "TractID": "12127090804" }, "geometry": { "type": "Point", "coordinates": [ -81.309131669865252, 28.938768255551615 ] } },
{ "type": "Feature", "properties": { "OBJECTID": 429, "NAME": "FLORIDA TECHNICAL COLLEGE", "ADDRESS": "1199 S WOODLAND BLVD", "CITY": "DELAND", "STATE": "FL", "ZIPCODE": "32720", "PHONE": "386-734-3303", "THEME": "PRIVATE", "FAC": "NA", "SCHOOLCODE": 6, "ZIP4": "32720", "TYPE": "12", "CURAPPLY": null, "PERMIT": null, "URL": "http:\/\/www.ftccollege.edu\/campuses\/college-in-deland.html", "PERM_ID": "12127SCH143", "SOURCE_FID": "SCH", "SOURCE_DID": "143", "LOAD_DATE": "2009\/02\/17", "DATA_QUALI": 2, "FTYPE": 730, "FCODE": 73006, "IsLANDMARK": 2, "LATITUDE": 29.00884997, "LONGITUDE": -81.300678980000001, "USNG": "17R MN 7071609003", "TractID": "12127090307" }, "geometry": { "type": "Point", "coordinates": [ -81.300678984244186, 29.008849974238643 ] } },
{ "type": "Feature", "properties": { "OBJECTID": 430, "NAME": "KEISER COLLEGE", "ADDRESS": "1800 BUSINESS PARK BLVD", "CITY": "DAYTONA BEACH", "STATE": "FL", "ZIPCODE": "32114", "PHONE": "386-274-5060", "THEME": "PRIVATE", "FAC": "NA", "SCHOOLCODE": 6, "ZIP4": null, "TYPE": "12", "CURAPPLY": null, "PERMIT": null, "URL": "http:\/\/www.keiseruniversity.edu\/daytona-beach.php", "PERM_ID": "12127SCH144", "SOURCE_FID": "SCH", "SOURCE_DID": "144", "LOAD_DATE": "2009\/02\/17", "DATA_QUALI": 2, "FTYPE": 730, "FCODE": 73006, "IsLANDMARK": 2, "LATITUDE": 29.204505170000001, "LONGITUDE": -81.074495990000003, "USNG": "17R MN 9275830646", "TractID": "12127082301" }, "geometry": { "type": "Point", "coordinates": [ -81.074495998591715, 29.204505179342995 ] } },
{ "type": "Feature", "properties": { "OBJECTID": 432, "NAME": "CASA MONTESSORI", "ADDRESS": "217 N STONE ST", "CITY": "DELAND", "STATE": "FL", "ZIPCODE": "32720", "PHONE": "386-490-3895", "THEME": "PRIVATE", "FAC": "4817", "SCHOOLCODE": 8, "ZIP4": "32720-3948", "TYPE": "12", "CURAPPLY": "2005\/09\/27", "PERMIT": "64-51-02021", "URL": "http:\/\/www.casamontessorideland.com\/", "PERM_ID": "12127SCH148", "SOURCE_FID": "SCH", "SOURCE_DID": "148", "LOAD_DATE": "2009\/02\/17", "DATA_QUALI": 2, "FTYPE": 730, "FCODE": 73002, "IsLANDMARK": 2, "LATITUDE": 29.03050374, "LONGITUDE": -81.315775990000006, "USNG": "17R MN 6925211406", "TractID": "12127090400" }, "geometry": { "type": "Point", "coordinates": [ -81.315775992682575, 29.030503739723965 ] } },
{ "type": "Feature", "properties": { "OBJECTID": 433, "NAME": "NEW SMYRNA BEACH HIGH SCHOOL", "ADDRESS": "1015 10TH ST", "CITY": "NEW SMYRNA BEACH", "STATE": "FL", "ZIPCODE": "32168", "PHONE": "386-423-7101", "THEME": "PUBLIC", "FAC": "3839", "SCHOOLCODE": 4, "ZIP4": "32168-7566", "TYPE": "13", "CURAPPLY": "2002\/10\/14", "PERMIT": "64-51-01561", "URL": "http:\/\/myvolusiaschools.org\/schools\/Pages\/default.aspx", "PERM_ID": "12127SCH154", "SOURCE_FID": "SCH", "SOURCE_DID": "154", "LOAD_DATE": "2009\/02\/17", "DATA_QUALI": 1, "FTYPE": 730, "FCODE": 73005, "IsLANDMARK": 1, "LATITUDE": 29.00317798, "LONGITUDE": -80.930405489999998, "USNG": "17R NN 0677808340", "TractID": "12127082902" }, "geometry": { "type": "Point", "coordinates": [ -80.930405496619812, 29.003177986933885 ] } },
{ "type": "Feature", "properties": { "OBJECTID": 434, "NAME": "RIVER SPRINGS MIDDLE SCHOOL", "ADDRESS": "900 W OHIO AVE", "CITY": "ORANGE CITY", "STATE": "FL", "ZIPCODE": "32763", "PHONE": "386-968-0011", "THEME": "PUBLIC", "FAC": "7741", "SCHOOLCODE": 2, "ZIP4": "32763-6410", "TYPE": "13", "CURAPPLY": "2008\/09\/24", "PERMIT": "64-51-02313", "URL": "http:\/\/myvolusiaschools.org\/schools\/Pages\/default.aspx", "PERM_ID": "12127SCH155", "SOURCE_FID": "SCH", "SOURCE_DID": "155", "LOAD_DATE": "2009\/02\/17", "DATA_QUALI": 1, "FTYPE": 730, "FCODE": 73004, "IsLANDMARK": 2, "LATITUDE": 28.939891630000002, "LONGITUDE": -81.311717380000005, "USNG": "17R MN 6962101366", "TractID": "12127090804" }, "geometry": { "type": "Point", "coordinates": [ -81.311717386131605, 28.939891632011264 ] } },
{ "type": "Feature", "properties": { "OBJECTID": 435, "NAME": "UNIVERSITY HIGH SCHOOL", "ADDRESS": "1000 W RHODE ISLAND AVE", "CITY": "ORANGE CITY", "STATE": "FL", "ZIPCODE": "32763", "PHONE": "386-968-0013", "THEME": "PUBLIC", "FAC": "1551", "SCHOOLCODE": 4, "ZIP4": "32763-8836", "TYPE": "13", "CURAPPLY": "2010\/02\/24", "PERMIT": "64-51-1122718", "URL": "http:\/\/myvolusiaschools.org\/schools\/Pages\/default.aspx", "PERM_ID": "12127SCH156", "SOURCE_FID": "SCH", "SOURCE_DID": "156", "LOAD_DATE": "2009\/02\/17", "DATA_QUALI": 2, "FTYPE": 730, "FCODE": 73005, "IsLANDMARK": 1, "LATITUDE": 28.931653010000002, "LONGITUDE": -81.312910650000006, "USNG": "17R MN 6950200454", "TractID": "12127090804" }, "geometry": { "type": "Point", "coordinates": [ -81.312910655061074, 28.931653011637028 ] } },
{ "type": "Feature", "properties": { "OBJECTID": 436, "NAME": "CYPRESS CREEK ELEMENTARY", "ADDRESS": "6100 S WILLIAMSON BLVD", "CITY": "PORT ORANGE", "STATE": "FL", "ZIPCODE": "32128", "PHONE": "386-322-6101", "THEME": "PUBLIC", "FAC": "7921", "SCHOOLCODE": 1, "ZIP4": "32128-6794", "TYPE": "13", "CURAPPLY": "2007\/06\/04", "PERMIT": "64-51-02202", "URL": "http:\/\/myvolusiaschools.org\/schools\/Pages\/default.aspx", "PERM_ID": "12127SCH157", "SOURCE_FID": "SCH", "SOURCE_DID": "157", "LOAD_DATE": "2009\/02\/17", "DATA_QUALI": 1, "FTYPE": 730, "FCODE": 73003, "IsLANDMARK": 2, "LATITUDE": 29.083331040000001, "LONGITUDE": -81.027198220000002, "USNG": "17R MN 9735317218", "TractID": "12127083208" }, "geometry": { "type": "Point", "coordinates": [ -81.027198226398696, 29.083331043603987 ] } },
{ "type": "Feature", "properties": { "OBJECTID": 437, "NAME": "PRIDE ELEMENTARY SCHOOL", "ADDRESS": "1100 LEARNING LANE", "CITY": "DELTONA", "STATE": "FL", "ZIPCODE": "32738", "PHONE": "386-968-0010", "THEME": "PUBLIC", "FAC": "7931", "SCHOOLCODE": 1, "ZIP4": "32738-6908", "TYPE": "13", "CURAPPLY": "2008\/09\/24", "PERMIT": "64-51-02311", "URL": "http:\/\/myvolusiaschools.org\/schools\/Pages\/default.aspx", "PERM_ID": "12127SCH158", "SOURCE_FID": "SCH", "SOURCE_DID": "158", "LOAD_DATE": "2009\/02\/17", "DATA_QUALI": 1, "FTYPE": 730, "FCODE": 73003, "IsLANDMARK": 2, "LATITUDE": 28.895397280000001, "LONGITUDE": -81.161666980000007, "USNG": "17R MM 8423896407", "TractID": "12127091024" }, "geometry": { "type": "Point", "coordinates": [ -81.16166697922111, 28.895397284726258 ] } },
{ "type": "Feature", "properties": { "OBJECTID": 438, "NAME": "FUTURE SCHOOL SITE 5", "ADDRESS": null, "CITY": null, "STATE": "FL", "ZIPCODE": "32174", "PHONE": null, "THEME": "PUBLIC", "FAC": "NA", "SCHOOLCODE": 99, "ZIP4": null, "TYPE": "12", "CURAPPLY": null, "PERMIT": null, "URL": null, "PERM_ID": "12127SCH171", "SOURCE_FID": "SCH", "SOURCE_DID": "171", "LOAD_DATE": "2009\/02\/17", "DATA_QUALI": 1, "FTYPE": 730, "FCODE": 73002, "IsLANDMARK": 2, "LATITUDE": 29.384119290000001, "LONGITUDE": -81.137500700000004, "USNG": "17R MN 8665750552", "TractID": "12127080100" }, "geometry": { "type": "Point", "coordinates": [ -81.137500703758505, 29.384119297461702 ] } },
{ "type": "Feature", "properties": { "OBJECTID": 439, "NAME": "FUTURE SCHOOL SITE 6", "ADDRESS": null, "CITY": null, "STATE": "FL", "ZIPCODE": "32738", "PHONE": null, "THEME": "PUBLIC", "FAC": "NA", "SCHOOLCODE": 99, "ZIP4": null, "TYPE": "12", "CURAPPLY": null, "PERMIT": null, "URL": null, "PERM_ID": "12127SCH172", "SOURCE_FID": "SCH", "SOURCE_DID": "172", "LOAD_DATE": "2009\/02\/17", "DATA_QUALI": 1, "FTYPE": 730, "FCODE": 73002, "IsLANDMARK": 2, "LATITUDE": 28.960424029999999, "LONGITUDE": -81.195208039999997, "USNG": "17R MN 8097903617", "TractID": "12127091021" }, "geometry": { "type": "Point", "coordinates": [ -81.195208048444613, 28.960424031318343 ] } },
{ "type": "Feature", "properties": { "OBJECTID": 440, "NAME": "CITRUS GROVE ELEMENTARY", "ADDRESS": "729 HAZEN RD", "CITY": "DELAND", "STATE": "FL", "ZIPCODE": "32720", "PHONE": "386-626-0053", "THEME": "PUBLIC", "FAC": "7981", "SCHOOLCODE": 1, "ZIP4": "32720-2602", "TYPE": "13", "CURAPPLY": "2011\/04\/05", "PERMIT": "64-51-1311247", "URL": "http:\/\/myvolusiaschools.org\/schools\/Pages\/default.aspx", "PERM_ID": "12127SCH173", "SOURCE_FID": "SCH", "SOURCE_DID": "173", "LOAD_DATE": "2009\/02\/17", "DATA_QUALI": 1, "FTYPE": 730, "FCODE": 73003, "IsLANDMARK": 2, "LATITUDE": 29.040120210000001, "LONGITUDE": -81.335837799999993, "USNG": "17R MN 6730212477", "TractID": "12127090204" }, "geometry": { "type": "Point", "coordinates": [ -81.335837805121287, 29.040120217055922 ] } },
{ "type": "Feature", "properties": { "OBJECTID": 441, "NAME": "CHAMPION ELEMENTARY SCHOOL", "ADDRESS": "921 TOURNAMENT DR", "CITY": "DAYTONA BEACH", "STATE": "FL", "ZIPCODE": "32124", "PHONE": "386-274-6500", "THEME": "PUBLIC", "FAC": "2734", "SCHOOLCODE": 1, "ZIP4": "32124", "TYPE": "13", "CURAPPLY": "2008\/02\/26", "PERMIT": "64-51-01555", "URL": "http:\/\/myvolusiaschools.org\/schools\/Pages\/default.aspx", "PERM_ID": "12127SCH174", "SOURCE_FID": "SCH", "SOURCE_DID": "174", "LOAD_DATE": "2009\/07\/29", "DATA_QUALI": 1, "FTYPE": 730, "FCODE": 73003, "IsLANDMARK": 2, "LATITUDE": 29.207789269999999, "LONGITUDE": -81.136878690000003, "USNG": "17R MN 8669531015", "TractID": "12127083205" }, "geometry": { "type": "Point", "coordinates": [ -81.136878696720274, 29.207789275914099 ] } },
{ "type": "Feature", "properties": { "OBJECTID": 442, "NAME": "ELEMENTARY SCHOOL D", "ADDRESS": null, "CITY": null, "STATE": "FL", "ZIPCODE": "32725", "PHONE": null, "THEME": "PUBLIC", "FAC": "NA", "SCHOOLCODE": 99, "ZIP4": null, "TYPE": "12", "CURAPPLY": null, "PERMIT": null, "URL": null, "PERM_ID": "12127SCH175", "SOURCE_FID": "SCH", "SOURCE_DID": "175", "LOAD_DATE": "2009\/02\/17", "DATA_QUALI": 1, "FTYPE": 730, "FCODE": 73002, "IsLANDMARK": 2, "LATITUDE": 28.95116011, "LONGITUDE": -81.234357529999997, "USNG": "17R MN 7716302597", "TractID": "12127091001" }, "geometry": { "type": "Point", "coordinates": [ -81.23435753644533, 28.951160115717553 ] } },
{ "type": "Feature", "properties": { "OBJECTID": 443, "NAME": "FUTURE SCHOOL SITE 7", "ADDRESS": null, "CITY": null, "STATE": "FL", "ZIPCODE": "32128", "PHONE": null, "THEME": "PUBLIC", "FAC": "NA", "SCHOOLCODE": 99, "ZIP4": null, "TYPE": "12", "CURAPPLY": null, "PERMIT": null, "URL": null, "PERM_ID": "12127SCH176", "SOURCE_FID": "SCH", "SOURCE_DID": "176", "LOAD_DATE": "2009\/02\/17", "DATA_QUALI": 1, "FTYPE": 730, "FCODE": 73002, "IsLANDMARK": 2, "LATITUDE": 29.120502940000002, "LONGITUDE": -81.060169909999999, "USNG": "17R MN 9414621338", "TractID": "12127083207" }, "geometry": { "type": "Point", "coordinates": [ -81.06016991275645, 29.120502944439195 ] } },
{ "type": "Feature", "properties": { "OBJECTID": 444, "NAME": "FUTURE SCHOOL SITE 8", "ADDRESS": null, "CITY": null, "STATE": "FL", "ZIPCODE": "32724", "PHONE": null, "THEME": "PUBLIC", "FAC": "NA", "SCHOOLCODE": 99, "ZIP4": null, "TYPE": "12", "CURAPPLY": null, "PERMIT": null, "URL": null, "PERM_ID": "12127SCH177", "SOURCE_FID": "SCH", "SOURCE_DID": "177", "LOAD_DATE": "2009\/02\/17", "DATA_QUALI": 1, "FTYPE": 730, "FCODE": 73002, "IsLANDMARK": 2, "LATITUDE": 29.00470022, "LONGITUDE": -81.246920349999996, "USNG": "17R MN 7595108531", "TractID": "12127090306" }, "geometry": { "type": "Point", "coordinates": [ -81.246920353730232, 29.004700229910572 ] } },
{ "type": "Feature", "properties": { "OBJECTID": 445, "NAME": "FATHER LOPEZ HIGH SCHOOL", "ADDRESS": "3918 LPGA BLVD", "CITY": "DAYTONA BEACH", "STATE": "FL", "ZIPCODE": "32124", "PHONE": "386-253-5213", "THEME": "PRIVATE", "FAC": "0523", "SCHOOLCODE": 4, "ZIP4": "32124-2082", "TYPE": "12", "CURAPPLY": "2008\/02\/26", "PERMIT": "64-51-02271", "URL": "http:\/\/www.fatherlopez.org\/", "PERM_ID": "12127SCH178", "SOURCE_FID": "SCH", "SOURCE_DID": "178", "LOAD_DATE": "2009\/02\/17", "DATA_QUALI": 1, "FTYPE": 730, "FCODE": 73005, "IsLANDMARK": 1, "LATITUDE": 29.17450247, "LONGITUDE": -81.121882709999994, "USNG": "17R MN 8814927325", "TractID": "12127083205" }, "geometry": { "type": "Point", "coordinates": [ -81.121882716966866, 29.174502472274291 ] } },
{ "type": "Feature", "properties": { "OBJECTID": 446, "NAME": "LITTLE EXPLORERS MONTESSORI SCHOOL", "ADDRESS": "410 N RIDGEWOOD AVE", "CITY": "EDGEWATER", "STATE": "FL", "ZIPCODE": "32132", "PHONE": "386-423-2044", "THEME": "PRIVATE", "FAC": "0730", "SCHOOLCODE": 8, "ZIP4": "32132-1620", "TYPE": "12", "CURAPPLY": "2008\/08\/18", "PERMIT": "64-51-02306", "URL": "https:\/\/www.facebook.com\/pages\/Little-Explorers-Montessori\/163770700301419", "PERM_ID": "12127SCH179", "SOURCE_FID": "SCH", "SOURCE_DID": "179", "LOAD_DATE": "2009\/02\/17", "DATA_QUALI": 1, "FTYPE": 730, "FCODE": 73002, "IsLANDMARK": 2, "LATITUDE": 29.000365160000001, "LONGITUDE": -80.912318510000006, "USNG": "17R NN 0854008028", "TractID": "12127083008" }, "geometry": { "type": "Point", "coordinates": [ -80.912318514563125, 29.000365162419893 ] } },
{ "type": "Feature", "properties": { "OBJECTID": 447, "NAME": "AMIKIDS VOLUSIA", "ADDRESS": "1420 MASON AVE", "CITY": "DAYTONA BEACH", "STATE": "FL", "ZIPCODE": "32117", "PHONE": "386-274-5786", "THEME": "PRIVATE", "FAC": "8031", "SCHOOLCODE": 5, "ZIP4": "32117-7801", "TYPE": "12", "CURAPPLY": "2006\/03\/29", "PERMIT": "64-51-02087", "URL": "http:\/\/www.amikids.org\/", "PERM_ID": "12127SCH160", "SOURCE_FID": "SCH", "SOURCE_DID": "160", "LOAD_DATE": "2009\/02\/17", "DATA_QUALI": 2, "FTYPE": 730, "FCODE": 73002, "IsLANDMARK": 2, "LATITUDE": 29.213368289999998, "LONGITUDE": -81.06352794, "USNG": "17R MN 9382531627", "TractID": "12127081700" }, "geometry": { "type": "Point", "coordinates": [ -81.063527947571984, 29.213368295488209 ] } },
{ "type": "Feature", "properties": { "OBJECTID": 448, "NAME": "RICHARD MILBURN ACADEMY WEST", "ADDRESS": "913 E NEW YORK AVE", "CITY": "DELAND", "STATE": "FL", "ZIPCODE": "32720", "PHONE": "386-738-9150", "THEME": "PUBLIC", "FAC": "7991", "SCHOOLCODE": 7, "ZIP4": "32720", "TYPE": "13", "CURAPPLY": "2009\/08\/27", "PERMIT": "64-51-02366", "URL": "http:\/\/deland.rmaschools.org\/", "PERM_ID": "12127SCH182", "SOURCE_FID": "SCH", "SOURCE_DID": "182", "LOAD_DATE": "2009\/07\/27", "DATA_QUALI": 1, "FTYPE": 730, "FCODE": 73002, "IsLANDMARK": 2, "LATITUDE": 29.028593449999999, "LONGITUDE": -81.28594185, "USNG": "17R MN 7215711187", "TractID": "12127090600" }, "geometry": { "type": "Point", "coordinates": [ -81.285941852903647, 29.028593459575021 ] } },
{ "type": "Feature", "properties": { "OBJECTID": 449, "NAME": "FUTURE SCHOOL SITE 1", "ADDRESS": null, "CITY": null, "STATE": "FL", "ZIPCODE": "32141", "PHONE": null, "THEME": "PUBLIC", "FAC": "NA", "SCHOOLCODE": 99, "ZIP4": null, "TYPE": "12", "CURAPPLY": null, "PERMIT": null, "URL": null, "PERM_ID": "12127SCH164", "SOURCE_FID": "SCH", "SOURCE_DID": "164", "LOAD_DATE": "2009\/02\/17", "DATA_QUALI": 1, "FTYPE": 730, "FCODE": 73002, "IsLANDMARK": 2, "LATITUDE": 28.962759439999999, "LONGITUDE": -80.918675570000005, "USNG": "17R NN 0792403862", "TractID": "12127083007" }, "geometry": { "type": "Point", "coordinates": [ -80.918675579592957, 28.96275944097335 ] } },
{ "type": "Feature", "properties": { "OBJECTID": 450, "NAME": "FUTURE SCHOOL SITE 2", "ADDRESS": null, "CITY": null, "STATE": "FL", "ZIPCODE": "32724", "PHONE": null, "THEME": "PUBLIC", "FAC": "NA", "SCHOOLCODE": 99, "ZIP4": null, "TYPE": "12", "CURAPPLY": null, "PERMIT": null, "URL": null, "PERM_ID": "12127SCH165", "SOURCE_FID": "SCH", "SOURCE_DID": "165", "LOAD_DATE": "2009\/02\/17", "DATA_QUALI": 1, "FTYPE": 730, "FCODE": 73002, "IsLANDMARK": 2, "LATITUDE": 29.01329355, "LONGITUDE": -81.246607539999999, "USNG": "17R MN 7598309483", "TractID": "12127090306" }, "geometry": { "type": "Point", "coordinates": [ -81.246607542328476, 29.013293550779917 ] } },
{ "type": "Feature", "properties": { "OBJECTID": 451, "NAME": "1ST CHOICE ACADEMY", "ADDRESS": "1128 BEVILLE RD STE A", "CITY": "DAYTONA BEACH", "STATE": "FL", "ZIPCODE": "32114", "PHONE": "386-267-3161", "THEME": "PRIVATE", "FAC": "2613", "SCHOOLCODE": 5, "ZIP4": "32114", "TYPE": "12", "CURAPPLY": "2009\/06\/23", "PERMIT": "64-51-02352", "URL": "http:\/\/www.floridaautismcenter.info\/locations", "PERM_ID": "12127SCH200", "SOURCE_FID": "SCH", "SOURCE_DID": "200", "LOAD_DATE": "2014\/08\/20", "DATA_QUALI": 2, "FTYPE": 730, "FCODE": 73002, "IsLANDMARK": 2, "LATITUDE": 29.17606967, "LONGITUDE": -81.031877800000004, "USNG": "17R MN9690027494", "TractID": "12127092500" }, "geometry": { "type": "Point", "coordinates": [ -81.031877807870131, 29.176069678289807 ] } },
{ "type": "Feature", "properties": { "OBJECTID": 452, "NAME": "APPLIED BEHAVIOR CENTER FOR AUTISM", "ADDRESS": "111 S ALABAMA AV", "CITY": "DELAND", "STATE": "FL", "ZIPCODE": "32724", "PHONE": "407-324-7772", "THEME": "PRIVATE", "FAC": "7315", "SCHOOLCODE": 5, "ZIP4": null, "TYPE": "12", "CURAPPLY": "2014\/08\/13", "PERMIT": "64-51-1554763", "URL": "http:\/\/www.appliedbehaviorcenter.com\/ContactUs.htm", "PERM_ID": "12127SCH202", "SOURCE_FID": "SCH", "SOURCE_DID": "202", "LOAD_DATE": "2014\/08\/20", "DATA_QUALI": 2, "FTYPE": 730, "FCODE": 73002, "IsLANDMARK": 2, "LATITUDE": 29.026765279999999, "LONGITUDE": -81.301038669999997, "USNG": "17R MN7068610990", "TractID": "12127090500" }, "geometry": { "type": "Point", "coordinates": [ -81.301038674056684, 29.026765285181803 ] } },
{ "type": "Feature", "properties": { "OBJECTID": 453, "NAME": "PIERSON\/SEVILLE ELEM REPLACEMENT", "ADDRESS": "N US HWY 17", "CITY": "PIERSON", "STATE": "FL", "ZIPCODE": "32108", "PHONE": null, "THEME": "PUBLIC", "FAC": "NA", "SCHOOLCODE": 99, "ZIP4": null, "TYPE": "12", "CURAPPLY": null, "PERMIT": null, "URL": null, "PERM_ID": "12127SCH166", "SOURCE_FID": "SCH", "SOURCE_DID": "166", "LOAD_DATE": "2009\/02\/17", "DATA_QUALI": 1, "FTYPE": 730, "FCODE": 73002, "IsLANDMARK": 2, "LATITUDE": 29.258986629999999, "LONGITUDE": -81.468594929999995, "USNG": "17R MN 5447336771", "TractID": "12127090101" }, "geometry": { "type": "Point", "coordinates": [ -81.468594937626136, 29.258986630193313 ] } },
{ "type": "Feature", "properties": { "OBJECTID": 454, "NAME": "FUTURE SCHOOL SITE 3", "ADDRESS": null, "CITY": null, "STATE": "FL", "ZIPCODE": "32725", "PHONE": null, "THEME": "PUBLIC", "FAC": "NA", "SCHOOLCODE": 99, "ZIP4": null, "TYPE": "12", "CURAPPLY": null, "PERMIT": null, "URL": null, "PERM_ID": "12127SCH167", "SOURCE_FID": "SCH", "SOURCE_DID": "167", "LOAD_DATE": "2009\/02\/17", "DATA_QUALI": 1, "FTYPE": 730, "FCODE": 73002, "IsLANDMARK": 2, "LATITUDE": 28.927720319999999, "LONGITUDE": -81.249430820000001, "USNG": "17R MN 7568900003", "TractID": "12127091022" }, "geometry": { "type": "Point", "coordinates": [ -81.24943082448155, 28.927720323826271 ] } },
{ "type": "Feature", "properties": { "OBJECTID": 455, "NAME": "FUTURE MIDDLE SCHOOL SITE", "ADDRESS": null, "CITY": null, "STATE": "FL", "ZIPCODE": "32738", "PHONE": null, "THEME": "PUBLIC", "FAC": "NA", "SCHOOLCODE": 99, "ZIP4": null, "TYPE": "12", "CURAPPLY": null, "PERMIT": null, "URL": null, "PERM_ID": "12127SCH168", "SOURCE_FID": "SCH", "SOURCE_DID": "168", "LOAD_DATE": "2009\/02\/17", "DATA_QUALI": 1, "FTYPE": 730, "FCODE": 73002, "IsLANDMARK": 2, "LATITUDE": 28.94725751, "LONGITUDE": -81.19056381, "USNG": "17R MN 8143002157", "TractID": "12127091020" }, "geometry": { "type": "Point", "coordinates": [ -81.190563812003148, 28.947257510112127 ] } },
{ "type": "Feature", "properties": { "OBJECTID": 456, "NAME": "FUTURE HIGH SCHOOL SITE", "ADDRESS": null, "CITY": null, "STATE": "FL", "ZIPCODE": "32738", "PHONE": null, "THEME": "PUBLIC", "FAC": "NA", "SCHOOLCODE": 99, "ZIP4": null, "TYPE": "12", "CURAPPLY": null, "PERMIT": null, "URL": null, "PERM_ID": "12127SCH169", "SOURCE_FID": "SCH", "SOURCE_DID": "169", "LOAD_DATE": "2009\/02\/17", "DATA_QUALI": 1, "FTYPE": 730, "FCODE": 73002, "IsLANDMARK": 2, "LATITUDE": 28.94353109, "LONGITUDE": -81.190446469999998, "USNG": "17R MN 8144001744", "TractID": "12127091020" }, "geometry": { "type": "Point", "coordinates": [ -81.190446470540834, 28.943531091822752 ] } },
{ "type": "Feature", "properties": { "OBJECTID": 457, "NAME": "FUTURE SCHOOL SITE 4", "ADDRESS": null, "CITY": null, "STATE": "FL", "ZIPCODE": "32168", "PHONE": null, "THEME": "PUBLIC", "FAC": "NA", "SCHOOLCODE": 99, "ZIP4": null, "TYPE": "12", "CURAPPLY": null, "PERMIT": null, "URL": null, "PERM_ID": "12127SCH170", "SOURCE_FID": "SCH", "SOURCE_DID": "170", "LOAD_DATE": "2009\/02\/17", "DATA_QUALI": 1, "FTYPE": 730, "FCODE": 73002, "IsLANDMARK": 2, "LATITUDE": 29.032436910000001, "LONGITUDE": -81.025652179999994, "USNG": "17R MN 9750211580", "TractID": "12127083209" }, "geometry": { "type": "Point", "coordinates": [ -81.02565218391473, 29.032436913386206 ] } },
{ "type": "Feature", "properties": { "OBJECTID": 458, "NAME": "THE CHASE ACADEMY", "ADDRESS": "2400 RIDGEWOOD AVENUE S, SUITE 16", "CITY": "SOUTH DAYTONA", "STATE": "FL", "ZIPCODE": "32119", "PHONE": "386-690-0893", "THEME": "PRIVATE", "FAC": "2693", "SCHOOLCODE": 5, "ZIP4": null, "TYPE": "13", "CURAPPLY": "2009\/08\/03", "PERMIT": "64-51-02359", "URL": "http:\/\/www.tcaofvolusia.org\/", "PERM_ID": "12127SCH189", "SOURCE_FID": "SCH", "SOURCE_DID": "189", "LOAD_DATE": "2013\/08\/15", "DATA_QUALI": 1, "FTYPE": 730, "FCODE": 73002, "IsLANDMARK": 2, "LATITUDE": 29.164775110000001, "LONGITUDE": -81.000592130000001, "USNG": "17R MN 9994226242", "TractID": "12127082401" }, "geometry": { "type": "Point", "coordinates": [ -81.000592130285028, 29.164775110383712 ] } },
{ "type": "Feature", "properties": { "OBJECTID": 459, "NAME": "THE CHILDREN'S HOUSE", "ADDRESS": "55 WASHINGTON STREET N", "CITY": "ORMOND BEACH", "STATE": "FL", "ZIPCODE": "32174", "PHONE": "386-672-1620", "THEME": "PRIVATE", "FAC": "3566", "SCHOOLCODE": 8, "ZIP4": null, "TYPE": "12", "CURAPPLY": "2009\/08\/26", "PERMIT": "64-51-02365", "URL": "http:\/\/www.childrenshouseormondbeach.com\/", "PERM_ID": "12127SCH190", "SOURCE_FID": "SCH", "SOURCE_DID": "190", "LOAD_DATE": "2013\/08\/15", "DATA_QUALI": 1, "FTYPE": 730, "FCODE": 73002, "IsLANDMARK": 2, "LATITUDE": 29.285403599999999, "LONGITUDE": -81.060918659999999, "USNG": "17R MN 9408339608", "TractID": "12127080600" }, "geometry": { "type": "Point", "coordinates": [ -81.060918668230215, 29.285403610776655 ] } },
{ "type": "Feature", "properties": { "OBJECTID": 460, "NAME": "THE WORD CENTER CHRISTIAN ACADEMY", "ADDRESS": "2120 RIDGEWOOD AV S, UNIT 8 & 9", "CITY": "EDGEWATER", "STATE": "FL", "ZIPCODE": "32141", "PHONE": "386-423-5355", "THEME": "PRIVATE", "FAC": "4492", "SCHOOLCODE": 8, "ZIP4": null, "TYPE": "12", "CURAPPLY": "2010\/03\/03", "PERMIT": "64-51-1123689", "URL": "http:\/\/twcca.org.iis2102.shared-servers.com\/Home.aspx", "PERM_ID": "12127SCH191", "SOURCE_FID": "SCH", "SOURCE_DID": "191", "LOAD_DATE": "2013\/08\/15", "DATA_QUALI": 1, "FTYPE": 730, "FCODE": 73002, "IsLANDMARK": 2, "LATITUDE": 28.966946199999999, "LONGITUDE": -80.893463179999998, "USNG": "17R NN 1038004328", "TractID": "12127083005" }, "geometry": { "type": "Point", "coordinates": [ -80.893463181208247, 28.966946200075498 ] } },
{ "type": "Feature", "properties": { "OBJECTID": 461, "NAME": "WORD & PRAISE CHRISTIAN LEARNING CENTER", "ADDRESS": "955 ORANGE AV, SUITE 130", "CITY": "DAYTONA BEACH", "STATE": "FL", "ZIPCODE": "32114", "PHONE": "386-257-2559", "THEME": "PRIVATE", "FAC": "5225", "SCHOOLCODE": 8, "ZIP4": null, "TYPE": "12", "CURAPPLY": "2010\/05\/06", "PERMIT": "64-51-1135262", "URL": "http:\/\/www.wpclc.org\/", "PERM_ID": "12127SCH192", "SOURCE_FID": "SCH", "SOURCE_DID": "192", "LOAD_DATE": "2013\/08\/15", "DATA_QUALI": 1, "FTYPE": 730, "FCODE": 73002, "IsLANDMARK": 2, "LATITUDE": 29.20064962, "LONGITUDE": -81.035571820000001, "USNG": "17R MN 9654230217", "TractID": "12127082100" }, "geometry": { "type": "Point", "coordinates": [ -81.035571830324912, 29.200649625409067 ] } },
{ "type": "Feature", "properties": { "OBJECTID": 462, "NAME": "LIVING FAITH ACADEMY", "ADDRESS": "950 DERBYSHIRE", "CITY": "DAYTONA BEACH", "STATE": "FL", "ZIPCODE": "32117", "PHONE": "386-257-6535", "THEME": "PRIVATE", "FAC": "3259", "SCHOOLCODE": 8, "ZIP4": null, "TYPE": "12", "CURAPPLY": "2010\/06\/01", "PERMIT": "64-51-1146181", "URL": "http:\/\/www.lfa1.org\/", "PERM_ID": "12127SCH193", "SOURCE_FID": "SCH", "SOURCE_DID": "193", "LOAD_DATE": "2013\/08\/15", "DATA_QUALI": 1, "FTYPE": 730, "FCODE": 73002, "IsLANDMARK": 2, "LATITUDE": 29.229313640000001, "LONGITUDE": -81.064219370000004, "USNG": "17R MN 9375933394", "TractID": "12127081700" }, "geometry": { "type": "Point", "coordinates": [ -81.064219377403717, 29.229313646985585 ] } },
{ "type": "Feature", "properties": { "OBJECTID": 463, "NAME": "SUNSHINE STATE SCHOOL OF LEADERSHIP", "ADDRESS": "2405 E GRAVES AV", "CITY": "ORANGE CITY", "STATE": "FL", "ZIPCODE": "32763", "PHONE": "386-218-3906", "THEME": "PRIVATE", "FAC": "2257", "SCHOOLCODE": 8, "ZIP4": null, "TYPE": "12", "CURAPPLY": "2012\/02\/21", "PERMIT": "64-51-1394344", "URL": "https:\/\/www.facebook.com\/", "PERM_ID": "12127SCH194", "SOURCE_FID": "SCH", "SOURCE_DID": "194", "LOAD_DATE": "2013\/08\/15", "DATA_QUALI": 1, "FTYPE": 730, "FCODE": 73002, "IsLANDMARK": 2, "LATITUDE": 28.949103740000002, "LONGITUDE": -81.261870500000001, "USNG": "17R MN 7448102375", "TractID": "12127090305" }, "geometry": { "type": "Point", "coordinates": [ -81.261870509511908, 28.949103749307071 ] } },
{ "type": "Feature", "properties": { "OBJECTID": 464, "NAME": "BETHEL CHRISTIAN ACADEMY", "ADDRESS": "1407 W ENTERPRISE AV", "CITY": "NEW SMYRNA BEACH", "STATE": "FL", "ZIPCODE": "32168", "PHONE": "386-427-8889", "THEME": "PRIVATE", "FAC": "6244", "SCHOOLCODE": 8, "ZIP4": null, "TYPE": "12", "CURAPPLY": "2012\/04\/10", "PERMIT": "64-51-1403721", "URL": "http:\/\/www.bethelnsb.org\/", "PERM_ID": "12127SCH196", "SOURCE_FID": "SCH", "SOURCE_DID": "196", "LOAD_DATE": "2013\/08\/15", "DATA_QUALI": 1, "FTYPE": 730, "FCODE": 73002, "IsLANDMARK": 2, "LATITUDE": 29.026316560000001, "LONGITUDE": -80.938928809999993, "USNG": "17R NN 0594710903", "TractID": "12127082903" }, "geometry": { "type": "Point", "coordinates": [ -80.938928814254339, 29.026316571115711 ] } },
{ "type": "Feature", "properties": { "OBJECTID": 465, "NAME": "EDGEHOP CHRISTIAN ACADEMY", "ADDRESS": "1402 S RIDGEWOOD AV", "CITY": "EDGEWATER", "STATE": "FL", "ZIPCODE": "32141", "PHONE": "386-585-0588", "THEME": "PRIVATE", "FAC": "6094", "SCHOOLCODE": 8, "ZIP4": null, "TYPE": "12", "CURAPPLY": "2011\/09\/27", "PERMIT": "64-51-1370845", "URL": "http:\/\/www.edgehop.org\/", "PERM_ID": "12127SCH197", "SOURCE_FID": "SCH", "SOURCE_DID": "197", "LOAD_DATE": "2013\/08\/15", "DATA_QUALI": 1, "FTYPE": 730, "FCODE": 73002, "IsLANDMARK": 2, "LATITUDE": 28.978123549999999, "LONGITUDE": -80.900004199999998, "USNG": "17R NN 0974205566", "TractID": "12127083008" }, "geometry": { "type": "Point", "coordinates": [ -80.900004207362329, 28.978123554321698 ] } },
{ "type": "Feature", "properties": { "OBJECTID": 466, "NAME": "BLUE JAY ACADEMY INC.", "ADDRESS": "960 ROOSTER RD", "CITY": "SOUTH DAYTONA", "STATE": "FL", "ZIPCODE": "32119", "PHONE": "386-868-1979", "THEME": "PRIVATE", "FAC": "6903", "SCHOOLCODE": 5, "ZIP4": null, "TYPE": "12", "CURAPPLY": "2014\/08\/06", "PERMIT": "64-51-1553395", "URL": "https:\/\/www.facebook.com\/bluejayacademy", "PERM_ID": "12127SCH203", "SOURCE_FID": "SCH", "SOURCE_DID": "203", "LOAD_DATE": "2014\/08\/20", "DATA_QUALI": 2, "FTYPE": 730, "FCODE": 73002, "IsLANDMARK": 2, "LATITUDE": 29.173182700000002, "LONGITUDE": -81.025118239999998, "USNG": "17R MN9755727174", "TractID": "12127082404" }, "geometry": { "type": "Point", "coordinates": [ -81.025118239154423, 29.173182700865837 ] } },
{ "type": "Feature", "properties": { "OBJECTID": 467, "NAME": "KNIGHT'S CHRISTIAN ACADEMY INC", "ADDRESS": "310 DOUGLAS ST", "CITY": "NEW SMYRNA BEACH", "STATE": "FL", "ZIPCODE": null, "PHONE": "386-428-0800", "THEME": "PRIVATE", "FAC": "7098", "SCHOOLCODE": 8, "ZIP4": "32168-7102", "TYPE": "12", "CURAPPLY": null, "PERMIT": null, "URL": "http:\/\/www.knightschristianacademy.org\/home.html", "PERM_ID": "12127SCH207", "SOURCE_FID": "SCH", "SOURCE_DID": "207", "LOAD_DATE": "2009\/08\/19", "DATA_QUALI": 2, "FTYPE": 800, "FCODE": 80006, "IsLANDMARK": 2, "LATITUDE": 29.023081049999998, "LONGITUDE": -80.922677750000005, "USNG": "17R NN 0753010545", "TractID": "12127082802" }, "geometry": { "type": "Point", "coordinates": [ -80.922677753026548, 29.023081057483608 ] } },
{ "type": "Feature", "properties": { "OBJECTID": 468, "NAME": "LIFESKILLS ACADEMY II INC", "ADDRESS": "101 INDIGO DR", "CITY": "DAYTONA BEACH", "STATE": "FL", "ZIPCODE": "32114", "PHONE": "386-283-0102", "THEME": "PRIVATE", "FAC": "6919", "SCHOOLCODE": 8, "ZIP4": null, "TYPE": "12", "CURAPPLY": null, "PERMIT": null, "URL": null, "PERM_ID": "12127SCH204", "SOURCE_FID": "SCH", "SOURCE_DID": "204", "LOAD_DATE": "2014\/08\/20", "DATA_QUALI": 2, "FTYPE": 730, "FCODE": 73002, "IsLANDMARK": 2, "LATITUDE": 29.17611368, "LONGITUDE": -81.085779950000003, "USNG": "17R MN9165827503", "TractID": "12127082301" }, "geometry": { "type": "Point", "coordinates": [ -81.085779956313999, 29.176113683582017 ] } },
{ "type": "Feature", "properties": { "OBJECTID": 469, "NAME": "MANTHANO CHRISTIAN ACADEMY", "ADDRESS": "2110 OLD DAYTONA ROAD", "CITY": "PORT ORANGE", "STATE": "FL", "ZIPCODE": "32128", "PHONE": "386-258-3060", "THEME": "PRIVATE", "FAC": "2317", "SCHOOLCODE": 5, "ZIP4": null, "TYPE": "12", "CURAPPLY": null, "PERMIT": null, "URL": null, "PERM_ID": "12127SCH205", "SOURCE_FID": "SCH", "SOURCE_DID": "205", "LOAD_DATE": "2014\/08\/20", "DATA_QUALI": 2, "FTYPE": 730, "FCODE": 73002, "IsLANDMARK": 2, "LATITUDE": 29.094175320000002, "LONGITUDE": -81.077432590000001, "USNG": "17R MN9246518424", "TractID": "12127083207" }, "geometry": { "type": "Point", "coordinates": [ -81.077432595156523, 29.094175327061485 ] } },
{ "type": "Feature", "properties": { "OBJECTID": 470, "NAME": "UNITED BRETHREN IN CHRIST ACADEMY", "ADDRESS": "560 FLOMICH AVE.", "CITY": "HOLLY HILL", "STATE": "FL", "ZIPCODE": "32117", "PHONE": "386-453-6626", "THEME": "PRIVATE", "FAC": "6224", "SCHOOLCODE": 8, "ZIP4": null, "TYPE": "12", "CURAPPLY": "2011\/12\/20", "PERMIT": "64-51-1383908", "URL": "http:\/\/www.ubicacademy.com\/ubicacademy.com\/Home.html", "PERM_ID": "12127SCH206", "SOURCE_FID": "SCH", "SOURCE_DID": "206", "LOAD_DATE": "2014\/08\/20", "DATA_QUALI": 2, "FTYPE": 730, "FCODE": 73002, "IsLANDMARK": 2, "LATITUDE": 29.25258165, "LONGITUDE": -81.055412399999994, "USNG": "17R MN9461635973", "TractID": "12127080901" }, "geometry": { "type": "Point", "coordinates": [ -81.055412405967459, 29.252581658061249 ] } },
{ "type": "Feature", "properties": { "OBJECTID": 471, "NAME": "PALMER COLLEGE OF CHIROPRACTIC", "ADDRESS": "4777 CITY CENTER PKWY", "CITY": "PORT ORANGE", "STATE": "FL", "ZIPCODE": "32129", "PHONE": "386-763-2709", "THEME": "PRIVATE", "FAC": "NA", "SCHOOLCODE": 6, "ZIP4": "32129-4153", "TYPE": "12", "CURAPPLY": null, "PERMIT": null, "URL": "http:\/\/www.palmer.edu\/clinics\/PO\/", "PERM_ID": "12127SCH145", "SOURCE_FID": "SCH", "SOURCE_DID": "145", "LOAD_DATE": "2009\/02\/17", "DATA_QUALI": 2, "FTYPE": 730, "FCODE": 73006, "IsLANDMARK": 2, "LATITUDE": 29.124273630000001, "LONGITUDE": -81.016858819999996, "USNG": "17R MN 9836021756", "TractID": "12127082506" }, "geometry": { "type": "Point", "coordinates": [ -81.01685882328637, 29.124273638848624 ] } },
{ "type": "Feature", "properties": { "OBJECTID": 472, "NAME": "DAYTONA JUVENILE RESIDENTIAL FAC SCHOOL", "ADDRESS": "1386 INDIAN LAKE ROAD", "CITY": "DAYTONA BEACH", "STATE": "FL", "ZIPCODE": "32124", "PHONE": "386-254-5150", "THEME": "PRIVATE", "FAC": null, "SCHOOLCODE": 8, "ZIP4": null, "TYPE": "12", "CURAPPLY": "2011\/09\/27", "PERMIT": "64-51-1370860", "URL": "http:\/\/myvolusiaschools.org\/schools\/Pages\/default.aspx", "PERM_ID": "12127SCH210", "SOURCE_FID": "SCH", "SOURCE_DID": "210", "LOAD_DATE": "2016\/03\/21", "DATA_QUALI": 2, "FTYPE": 730, "FCODE": 73002, "IsLANDMARK": 2, "LATITUDE": 29.136727252699998, "LONGITUDE": -81.142746282299996, "USNG": "17R MN 8611223150", "TractID": "12127083206" }, "geometry": { "type": "Point", "coordinates": [ -81.142746281860198, 29.136727252231054 ] } },
{ "type": "Feature", "properties": { "OBJECTID": 473, "NAME": "GATEWAY CHRISTIAN ACADEMY", "ADDRESS": "950 DOYLE ROAD", "CITY": "DELTONA", "STATE": "FL", "ZIPCODE": "32725", "PHONE": "386-574-7660", "THEME": "PRIVATE", "FAC": null, "SCHOOLCODE": 8, "ZIP4": null, "TYPE": "12", "CURAPPLY": "2014\/04\/24", "PERMIT": "64-51-1534929", "URL": "http:\/\/myvolusiaschools.org\/schools\/Pages\/default.aspx", "PERM_ID": "12127SCH212", "SOURCE_FID": "SCH", "SOURCE_DID": "212", "LOAD_DATE": "2016\/03\/21", "DATA_QUALI": 2, "FTYPE": 730, "FCODE": 73002, "IsLANDMARK": 2, "LATITUDE": 28.8703572105, "LONGITUDE": -81.250405894300002, "USNG": "17R MM 7558693645", "TractID": "12127091028" }, "geometry": { "type": "Point", "coordinates": [ -81.250405894763418, 28.870357210505638 ] } },
{ "type": "Feature", "properties": { "OBJECTID": 474, "NAME": "BETHEL CHRISTIAN ACADEMY - DUSS ST.", "ADDRESS": "312 DUSS STREET N", "CITY": "NEW SMYRNA BEACH", "STATE": "FL", "ZIPCODE": "32168", "PHONE": "386-427-8889", "THEME": "PRIVATE", "FAC": null, "SCHOOLCODE": 8, "ZIP4": null, "TYPE": "12", "CURAPPLY": "2015\/10\/20", "PERMIT": "64-51-1637433", "URL": "http:\/\/myvolusiaschools.org\/schools\/Pages\/default.aspx", "PERM_ID": "12127SCH209", "SOURCE_FID": "SCH", "SOURCE_DID": "209", "LOAD_DATE": "2016\/03\/21", "DATA_QUALI": 2, "FTYPE": 730, "FCODE": 73002, "IsLANDMARK": 2, "LATITUDE": 29.024356470299999, "LONGITUDE": -80.932959856300002, "USNG": "17R NN 0653110690", "TractID": "12127082903" }, "geometry": { "type": "Point", "coordinates": [ -80.932959856154525, 29.024356470230245 ] } },
{ "type": "Feature", "properties": { "OBJECTID": 475, "NAME": "LILIES OF THE FIELDS", "ADDRESS": "201 SAN JUAN AVENUE", "CITY": "DAYTONA BEACH", "STATE": "FL", "ZIPCODE": "32114", "PHONE": "386-255-5129", "THEME": "PRIVATE", "FAC": null, "SCHOOLCODE": 8, "ZIP4": null, "TYPE": "12", "CURAPPLY": "1996\/11\/25", "PERMIT": "64-51-00039", "URL": "http:\/\/myvolusiaschools.org\/schools\/Pages\/default.aspx", "PERM_ID": "12127SCH214", "SOURCE_FID": "SCH", "SOURCE_DID": "214", "LOAD_DATE": "2016\/03\/21", "DATA_QUALI": 2, "FTYPE": 730, "FCODE": 73002, "IsLANDMARK": 2, "LATITUDE": 29.216876536400001, "LONGITUDE": -81.024017960600005, "USNG": "17R MN 9765632014", "TractID": "12127082000" }, "geometry": { "type": "Point", "coordinates": [ -81.024017960276339, 29.21687653598282 ] } },
{ "type": "Feature", "properties": { "OBJECTID": 476, "NAME": "ORMOND BEACH UNION LEARNING CENTER", "ADDRESS": "1000 OLD TOMOKA ROAD", "CITY": "ORMOND BEACH", "STATE": "FL", "ZIPCODE": "32174", "PHONE": "386-677-0494", "THEME": "PRIVATE", "FAC": null, "SCHOOLCODE": 8, "ZIP4": null, "TYPE": "12", "CURAPPLY": "2014\/07\/02", "PERMIT": "64-51-1547415", "URL": "http:\/\/myvolusiaschools.org\/schools\/Pages\/default.aspx", "PERM_ID": "12127SCH215", "SOURCE_FID": "SCH", "SOURCE_DID": "215", "LOAD_DATE": "2016\/03\/21", "DATA_QUALI": 2, "FTYPE": 730, "FCODE": 73002, "IsLANDMARK": 2, "LATITUDE": 29.276981974200002, "LONGITUDE": -81.090526815999993, "USNG": "17R MN 9120638677", "TractID": "12127080804" }, "geometry": { "type": "Point", "coordinates": [ -81.09052681648393, 29.276981974144828 ] } },
{ "type": "Feature", "properties": { "OBJECTID": 477, "NAME": "SMA - RAP SCHOOL", "ADDRESS": "3875 TIGER BAY ROAD, BUILDING K", "CITY": "DAYTONA BEACH", "STATE": "FL", "ZIPCODE": "32124", "PHONE": "386-236-3305", "THEME": "PRIVATE", "FAC": null, "SCHOOLCODE": 8, "ZIP4": null, "TYPE": "12", "CURAPPLY": "2011\/12\/09", "PERMIT": "64-51-1382391", "URL": "http:\/\/myvolusiaschools.org\/schools\/Pages\/default.aspx", "PERM_ID": "12127SCH216", "SOURCE_FID": "SCH", "SOURCE_DID": "216", "LOAD_DATE": "2016\/03\/21", "DATA_QUALI": 2, "FTYPE": 730, "FCODE": 73002, "IsLANDMARK": 2, "LATITUDE": 29.146693828, "LONGITUDE": -81.152179756699994, "USNG": "17R MN 8520524251", "TractID": "12127083206" }, "geometry": { "type": "Point", "coordinates": [ -81.152179756464875, 29.146693827574445 ] } },
{ "type": "Feature", "properties": { "OBJECTID": 478, "NAME": "VOLUSIA VPK SPECIALISTS", "ADDRESS": "771 BRIARWOOD DRIVE", "CITY": "DAYTONA BEACH", "STATE": "FL", "ZIPCODE": "32114", "PHONE": "386-248-0026", "THEME": "PRIVATE", "FAC": null, "SCHOOLCODE": 8, "ZIP4": null, "TYPE": "12", "CURAPPLY": "2008\/02\/21", "PERMIT": "64-51-02267", "URL": "http:\/\/myvolusiaschools.org\/schools\/Pages\/default.aspx", "PERM_ID": "12127SCH221", "SOURCE_FID": "SCH", "SOURCE_DID": "221", "LOAD_DATE": "2016\/03\/21", "DATA_QUALI": 2, "FTYPE": 730, "FCODE": 73002, "IsLANDMARK": 2, "LATITUDE": 29.216713900799999, "LONGITUDE": -81.051566714499998, "USNG": "17R MN 9499432001", "TractID": "12127081800" }, "geometry": { "type": "Point", "coordinates": [ -81.051566714450175, 29.216713901093232 ] } },
{ "type": "Feature", "properties": { "OBJECTID": 479, "NAME": "EDGEHOP CHRISTIAN ACADEMY", "ADDRESS": "3042 RIDGEWOOD AVENUE S, SUITE A", "CITY": "EDGEWATER", "STATE": "FL", "ZIPCODE": "32141", "PHONE": "386-585-0588", "THEME": "PRIVATE", "FAC": null, "SCHOOLCODE": 8, "ZIP4": null, "TYPE": "12", "CURAPPLY": "2011\/09\/27", "PERMIT": "64-51-1370845", "URL": "http:\/\/myvolusiaschools.org\/schools\/Pages\/default.aspx", "PERM_ID": "12127SCH211", "SOURCE_FID": "SCH", "SOURCE_DID": "211", "LOAD_DATE": "2016\/03\/21", "DATA_QUALI": 2, "FTYPE": 730, "FCODE": 73002, "IsLANDMARK": 2, "LATITUDE": 28.946841654, "LONGITUDE": -80.884299917899995, "USNG": "17R NN 1127502105", "TractID": "12127083005" }, "geometry": { "type": "Point", "coordinates": [ -80.884299918376314, 28.946841653650431 ] } },
{ "type": "Feature", "properties": { "OBJECTID": 480, "NAME": "LIGHTHOUSE CHRISTIAN ACADEMY HS", "ADDRESS": "1525 SR 15A S", "CITY": "DELAND", "STATE": "FL", "ZIPCODE": "32720", "PHONE": "386-734-4631", "THEME": "PRIVATE", "FAC": null, "SCHOOLCODE": 8, "ZIP4": null, "TYPE": "12", "CURAPPLY": "2008\/02\/21", "PERMIT": "64-51-02269", "URL": "http:\/\/myvolusiaschools.org\/schools\/Pages\/default.aspx", "PERM_ID": "12127SCH213", "SOURCE_FID": "SCH", "SOURCE_DID": "213", "LOAD_DATE": "2016\/03\/21", "DATA_QUALI": 2, "FTYPE": 730, "FCODE": 73002, "IsLANDMARK": 2, "LATITUDE": 29.002324008900001, "LONGITUDE": -81.314371357699997, "USNG": "17R MN 6938408291", "TractID": "12127090702" }, "geometry": { "type": "Point", "coordinates": [ -81.314371358193071, 29.002324008979564 ] } },
{ "type": "Feature", "properties": { "OBJECTID": 481, "NAME": "UNITED BRETHREN IN CHRIST ACADEMY", "ADDRESS": "1645 CENTER AVENUE", "CITY": "DAYTONA BEACH", "STATE": "FL", "ZIPCODE": "32117", "PHONE": "386-547-4005", "THEME": "PRIVATE", "FAC": null, "SCHOOLCODE": 8, "ZIP4": null, "TYPE": "12", "CURAPPLY": "2011\/12\/20", "PERMIT": "64-51-1383908", "URL": "http:\/\/myvolusiaschools.org\/schools\/Pages\/default.aspx", "PERM_ID": "12127SCH220", "SOURCE_FID": "SCH", "SOURCE_DID": "220", "LOAD_DATE": "2016\/03\/21", "DATA_QUALI": 2, "FTYPE": 730, "FCODE": 73002, "IsLANDMARK": 2, "LATITUDE": 29.0008942292, "LONGITUDE": -81.359526141000003, "USNG": "17R MN 6498208142", "TractID": "12127090701" }, "geometry": { "type": "Point", "coordinates": [ -81.359526141237779, 29.000894229117517 ] } },
{ "type": "Feature", "properties": { "OBJECTID": 482, "NAME": "T.O.P. ACADEMY", "ADDRESS": "330 THOMPSON STREET S", "CITY": "DELAND", "STATE": "FL", "ZIPCODE": "32720", "PHONE": "386-279-6445", "THEME": "PRIVATE", "FAC": null, "SCHOOLCODE": 8, "ZIP4": null, "TYPE": "12", "CURAPPLY": "2014\/06\/10", "PERMIT": "64-51-1543504", "URL": "http:\/\/myvolusiaschools.org\/schools\/Pages\/default.aspx", "PERM_ID": "12127SCH218", "SOURCE_FID": "SCH", "SOURCE_DID": "218", "LOAD_DATE": "2016\/03\/21", "DATA_QUALI": 2, "FTYPE": 730, "FCODE": 73002, "IsLANDMARK": 2, "LATITUDE": 29.023359750600001, "LONGITUDE": -81.310703707299993, "USNG": "17R MN 6973510617", "TractID": "12127090600" }, "geometry": { "type": "Point", "coordinates": [ -81.310703706975872, 29.023359750521902 ] } },
{ "type": "Feature", "properties": { "OBJECTID": 483, "NAME": "SPACE COAST CHRISTIAN ACADEMY", "ADDRESS": "223 SAMSULA DRIVE N", "CITY": "NEW SMYRNA BEACH", "STATE": "FL", "ZIPCODE": "32168", "PHONE": "386-847-4064", "THEME": "PRIVATE", "FAC": null, "SCHOOLCODE": 8, "ZIP4": null, "TYPE": "12", "CURAPPLY": "2014\/04\/08", "PERMIT": "64-51-1531591", "URL": "http:\/\/myvolusiaschools.org\/schools\/Pages\/default.aspx", "PERM_ID": "12127SCH217", "SOURCE_FID": "SCH", "SOURCE_DID": "217", "LOAD_DATE": "2016\/03\/21", "DATA_QUALI": 2, "FTYPE": 730, "FCODE": 73002, "IsLANDMARK": 2, "LATITUDE": 29.020296190500002, "LONGITUDE": -81.049966236900005, "USNG": "17R MN 9513710235", "TractID": "12127083209" }, "geometry": { "type": "Point", "coordinates": [ -81.049966237151935, 29.020296190234159 ] } },
{ "type": "Feature", "properties": { "OBJECTID": 484, "NAME": "THE LITTLE ENGINE ACADEMY", "ADDRESS": "499 NOVA ROAD S", "CITY": "ORMOND BEACH", "STATE": "FL", "ZIPCODE": "32174", "PHONE": "386-310-4890", "THEME": "PRIVATE", "FAC": null, "SCHOOLCODE": 8, "ZIP4": null, "TYPE": "12", "CURAPPLY": "2013\/09\/04", "PERMIT": "64-51-1492986", "URL": "http:\/\/myvolusiaschools.org\/schools\/Pages\/default.aspx", "PERM_ID": "12127SCH219", "SOURCE_FID": "SCH", "SOURCE_DID": "219", "LOAD_DATE": "2016\/03\/21", "DATA_QUALI": 2, "FTYPE": 730, "FCODE": 73002, "IsLANDMARK": 2, "LATITUDE": 29.267972235199998, "LONGITUDE": -81.0784686362, "USNG": "17R MN 9237137685", "TractID": "12127080803" }, "geometry": { "type": "Point", "coordinates": [ -81.078468635773731, 29.267972235503173 ] } },
{ "type": "Feature", "properties": { "OBJECTID": 0, "NAME": "BETHUNE COOKMAN UNIVERSITY", "ADDRESS": "155 SAXON BLVD", "CITY": "DELTONA", "STATE": "FL", "ZIPCODE": "32725", "PHONE": null, "THEME": "PRIVATE", "FAC": null, "SCHOOLCODE": 6, "ZIP4": null, "TYPE": "12", "CURAPPLY": null, "PERMIT": null, "URL": "http:\/\/www.Bethune.cookman.edu", "PERM_ID": "12127SCH60", "SOURCE_FID": "SCH", "SOURCE_DID": "60", "LOAD_DATE": "2016\/05\/06", "DATA_QUALI": 2, "FTYPE": 730, "FCODE": 73006, "IsLANDMARK": 1, "LATITUDE": 0, "LONGITUDE": 0, "USNG": null, "TractID": null }, "geometry": { "type": "Point", "coordinates": [ -81.245394387447618, 28.904820224293221 ] } }
]
}
