{
"type": "FeatureCollection",
"crs": { "type": "name", "properties": { "name": "urn:ogc:def:crs:OGC:1.3:CRS84" } },
                                                                                
"features": [
{ "type": "Feature", "properties": { "Name": "EDGEWATER YMCA", "Address": "148 W TURGOT AVE", "City": "EDGEWATER", "Zip": "32132", "THEME": "ARC SHELTER", "LATITUDE": 28.9807625328, "LONGITUDE": -80.904873828500001, "USNG": "17R NN 09267 05858" }, "geometry": { "type": "Point", "coordinates": [ -80.904873828481058, 28.98076253277705 ] } },
{ "type": "Feature", "properties": { "Name": "FIRST BAPTIST CHURCH OF DEBARY", "Address": "32 SHELL RD", "City": "DEBARY", "Zip": "32713", "THEME": "ARC SHELTER", "LATITUDE": 28.886968179099998, "LONGITUDE": -81.312862904900001, "USNG": "17R MM 69494 95503" }, "geometry": { "type": "Point", "coordinates": [ -81.312862904868894, 28.886968179066574 ] } },
{ "type": "Feature", "properties": { "Name": "SAINT ANN'S CATHOLIC CHURCH", "Address": "26 DOGWOOD TRL", "City": "DEBARY", "Zip": "32713", "THEME": "ARC SHELTER", "LATITUDE": 28.897070144499999, "LONGITUDE": -81.308154585500006, "USNG": "17R MM 69956 96621" }, "geometry": { "type": "Point", "coordinates": [ -81.308154585507012, 28.897070144496631 ] } },
{ "type": "Feature", "properties": { "Name": "BIBLEWAY CHURCH OF GOD IN CHRIST", "Address": "281 FLAMINGO RD", "City": "OAK HILL", "Zip": "32759", "THEME": "ARC SHELTER", "LATITUDE": 28.856121612300001, "LONGITUDE": -80.854420837299998, "USNG": "17R NM 14199 92054" }, "geometry": { "type": "Point", "coordinates": [ -80.854420837294654, 28.856121612314425 ] } },
{ "type": "Feature", "properties": { "Name": "FIRST BAPTIST CHURCH OF OAK HILL", "Address": "192 E HALIFAX AVE", "City": "OAK HILL", "Zip": "32759", "THEME": "ARC SHELTER", "LATITUDE": 28.864327852700001, "LONGITUDE": -80.847590781700006, "USNG": "17R NM 14864 92964" }, "geometry": { "type": "Point", "coordinates": [ -80.847590781735732, 28.864327852738754 ] } },
{ "type": "Feature", "properties": { "Name": "TRINITY ASSEMBLY OF GOD", "Address": "875 ELKCAM BLVD", "City": "DELTONA", "Zip": "32725", "THEME": "ARC SHELTER", "LATITUDE": 28.924939867700001, "LONGITUDE": -81.253112778200006, "USNG": "17R MM 75329 99696" }, "geometry": { "type": "Point", "coordinates": [ -81.253112778175606, 28.924939867659006 ] } },
{ "type": "Feature", "properties": { "Name": "EMMAUS LUTHERAN CHURCH", "Address": "2500 S VOLUSIA AVE", "City": "ORANGE CITY", "Zip": "32763", "THEME": "ARC SHELTER", "LATITUDE": 28.9173044976, "LONGITUDE": -81.301053793299999, "USNG": "17R MM 70654 98861" }, "geometry": { "type": "Point", "coordinates": [ -81.301053793326673, 28.917304497643581 ] } },
{ "type": "Feature", "properties": { "Name": "DAYTONA BEACH LIONS CLUB", "Address": "345 WHITE ST", "City": "DAYTONA BEACH", "Zip": "32120", "THEME": "ARC SHELTER", "LATITUDE": 29.206027342599999, "LONGITUDE": -81.048391991700001, "USNG": "17R MN 95296 30813" }, "geometry": { "type": "Point", "coordinates": [ -81.048391991709551, 29.206027342597185 ] } },
{ "type": "Feature", "properties": { "Name": "DAYTONA C& MA CHURCH", "Address": "1250 BEEVILLE RD", "City": "DAYTONA BEACH", "Zip": "32120", "THEME": "ARC SHELTER", "LATITUDE": 29.173620117700001, "LONGITUDE": -81.035243884899998, "USNG": "17R MN 96573 27222" }, "geometry": { "type": "Point", "coordinates": [ -81.035243884943114, 29.173620117672296 ] } },
{ "type": "Feature", "properties": { "Name": "DAYTONA CITY CHURCH", "Address": "211 BAY ST", "City": "DAYTONA BEACH", "Zip": "32120", "THEME": "ARC SHELTER", "LATITUDE": 29.2130742543, "LONGITUDE": -81.022386943800001, "USNG": "17R MN 97824 31593" }, "geometry": { "type": "Point", "coordinates": [ -81.022386943750405, 29.21307425429093 ] } },
{ "type": "Feature", "properties": { "Name": "FIRST CHRISTIAN CHURCH (D.O.C.)", "Address": "326 S PALMETTO AVE", "City": "DAYTONA BEACH", "Zip": "32120", "THEME": "ARC SHELTER", "LATITUDE": 29.2065311759, "LONGITUDE": -81.018856921600005, "USNG": "17R MN 98167 30868" }, "geometry": { "type": "Point", "coordinates": [ -81.01885692162891, 29.206531175895385 ] } },
{ "type": "Feature", "properties": { "Name": "SAINT MARY'S EPISCOPAL", "Address": "216 ORANGE AVE", "City": "DAYTONA BEACH", "Zip": "32120", "THEME": "ARC SHELTER", "LATITUDE": 29.2074966968, "LONGITUDE": -81.020410519999999, "USNG": "17R MN 98016 30975" }, "geometry": { "type": "Point", "coordinates": [ -81.02041051996747, 29.207496696786713 ] } },
{ "type": "Feature", "properties": { "Name": "TUBMAN KING COMMUNITY CHURCH", "Address": "1090 GEORGE INGRAM BLVD", "City": "DAYTONA BEACH", "Zip": "32120", "THEME": "ARC SHELTER", "LATITUDE": 29.209692160900001, "LONGITUDE": -81.047303208900004, "USNG": "17R MN 95402 31219" }, "geometry": { "type": "Point", "coordinates": [ -81.04730320890171, 29.209692160901326 ] } },
{ "type": "Feature", "properties": { "Name": "FLOMISH BAPTIST CHURCH", "Address": "1305 FLOMICH ST", "City": "DAYTONA BEACH", "Zip": "32117", "THEME": "ARC SHELTER", "LATITUDE": 29.246137322700001, "LONGITUDE": -81.069086315500002, "USNG": "17R MN 93287 35258" }, "geometry": { "type": "Point", "coordinates": [ -81.069086315540147, 29.246137322725016 ] } },
{ "type": "Feature", "properties": { "Name": "SICA HALL COMMUNITY CENTER", "Address": "1065 DAYTONA AVE", "City": "HOLLY HILL", "Zip": "32117", "THEME": "ARC SHELTER", "LATITUDE": 29.2450751475, "LONGITUDE": -81.039961182100001, "USNG": "17R MN 96117 35139" }, "geometry": { "type": "Point", "coordinates": [ -81.039961182130128, 29.245075147492667 ] } },
{ "type": "Feature", "properties": { "Name": "JAMES PARK YOUTH ACTION CENTER", "Address": "1700 JAMES ST", "City": "SOUTH DAYTONA", "Zip": "32119", "THEME": "ARC SHELTER", "LATITUDE": 29.177713024700001, "LONGITUDE": -81.010181742499995, "USNG": "17R MN 99010 27675" }, "geometry": { "type": "Point", "coordinates": [ -81.010181742536915, 29.177713024674258 ] } },
{ "type": "Feature", "properties": { "Name": "PIGGOTTE CENTER", "Address": "504 BIG TREE RD", "City": "SOUTH DAYTONA", "Zip": "32119", "THEME": "ARC SHELTER", "LATITUDE": 29.173281564900002, "LONGITUDE": -81.007538279499997, "USNG": "17R MN 99267 27184" }, "geometry": { "type": "Point", "coordinates": [ -81.007538279457705, 29.173281564876447 ] } },
{ "type": "Feature", "properties": { "Name": "SOUTH DAYTONA CHRISTIAN CHURCH", "Address": "2121 KENNILWORTH AVE", "City": "SOUTH DAYTONA", "Zip": "32119", "THEME": "ARC SHELTER", "LATITUDE": 29.168940001199999, "LONGITUDE": -81.0102939975, "USNG": "17R MN 98999 26703" }, "geometry": { "type": "Point", "coordinates": [ -81.010293997525366, 29.16894000122511 ] } },
{ "type": "Feature", "properties": { "Name": "ALLEN GREEN CIVIC CENTER", "Address": "4705 CLYDE MORRIS BLVD", "City": "PORT ORANGE", "Zip": "32129", "THEME": "ARC SHELTER", "LATITUDE": 29.124350960899999, "LONGITUDE": -81.023868475399993, "USNG": "17R MN 97678 21763" }, "geometry": { "type": "Point", "coordinates": [ -81.02386847536475, 29.124350960900962 ] } },
{ "type": "Feature", "properties": { "Name": "COVENANT UNITED METHODIST CHURCH", "Address": "3701 S CLYDE MORRIS BLVD", "City": "PORT ORANGE", "Zip": "32129", "THEME": "ARC SHELTER", "LATITUDE": 29.147210919700001, "LONGITUDE": -81.034659101499997, "USNG": "17R MN 96629 24296" }, "geometry": { "type": "Point", "coordinates": [ -81.034659101508709, 29.147210919718965 ] } },
{ "type": "Feature", "properties": { "Name": "PORT ORANGE YMCA", "Address": "4701 CITY CENTER PKWY", "City": "PORT ORANGE", "Zip": "32129", "THEME": "ARC SHELTER", "LATITUDE": 29.127032146299999, "LONGITUDE": -81.020723555000004, "USNG": "17R MN 97984 22060" }, "geometry": { "type": "Point", "coordinates": [ -81.020723555013987, 29.127032146336973 ] } },
{ "type": "Feature", "properties": { "Name": "OUR SAVIOR'S EVANGELICAL LUTHERAN CHURCH", "Address": "1715 TAYLOR RD", "City": "PORT ORANGE", "Zip": "32128", "THEME": "ARC SHELTER", "LATITUDE": 29.0990830886, "LONGITUDE": -81.042494414999993, "USNG": "17R MN 95865 18964" }, "geometry": { "type": "Point", "coordinates": [ -81.042494414968417, 29.099083088601304 ] } },
{ "type": "Feature", "properties": { "Name": "SPRUCE CREEK BAPTIST CHURCH", "Address": "1952 TAYLOR RD", "City": "PORT ORANGE", "Zip": "32128", "THEME": "ARC SHELTER", "LATITUDE": 29.086014628499999, "LONGITUDE": -81.063009150699997, "USNG": "17R MN 93868 17517" }, "geometry": { "type": "Point", "coordinates": [ -81.063009150732583, 29.086014628537956 ] } },
{ "type": "Feature", "properties": { "Name": "BABE JAMES COMMUNITY CENTER", "Address": "201 N MYRTLE AVE", "City": "NEW SMYRNA", "Zip": "32168", "THEME": "ARC SHELTER", "LATITUDE": 29.0234710398, "LONGITUDE": -80.930538678299996, "USNG": "17R NN 06764 10588" }, "geometry": { "type": "Point", "coordinates": [ -80.930538678257648, 29.023471039775664 ] } },
{ "type": "Feature", "properties": { "Name": "FIRST CHURCH OF THE NAZARENE", "Address": "201 S ORANGE ST", "City": "NEW SMYRNA BEACH", "Zip": "32168", "THEME": "ARC SHELTER", "LATITUDE": 29.022890151799999, "LONGITUDE": -80.924552119599994, "USNG": "17R NN 07347 10524" }, "geometry": { "type": "Point", "coordinates": [ -80.924552119622746, 29.022890151790644 ] } },
{ "type": "Feature", "properties": { "Name": "LIVE OAK GYM", "Address": "1000 LIVE OAK ST", "City": "NEW SMYRNA BEACH", "Zip": "32168", "THEME": "ARC SHELTER", "LATITUDE": 29.0164517722, "LONGITUDE": -80.919576542800002, "USNG": "17R NN 07832 09811" }, "geometry": { "type": "Point", "coordinates": [ -80.919576542769846, 29.016451772219014 ] } },
{ "type": "Feature", "properties": { "Name": "SACRED HEART CHURCH", "Address": "998 FATHER DONLAN DR", "City": "NEW SMYRNA BEACH", "Zip": "32168", "THEME": "ARC SHELTER", "LATITUDE": 29.038492093399999, "LONGITUDE": -80.934349341699999, "USNG": "17R NN 06392 12252" }, "geometry": { "type": "Point", "coordinates": [ -80.934349341681752, 29.038492093372788 ] } },
{ "type": "Feature", "properties": { "Name": "TRINITY LUTHERAN CHURCH", "Address": "485 TURNBULL BAY RD", "City": "NEW SMYRNA BEACH", "Zip": "32168", "THEME": "ARC SHELTER", "LATITUDE": 29.0412016748, "LONGITUDE": -80.9381581751, "USNG": "17R NN 06021 12552" }, "geometry": { "type": "Point", "coordinates": [ -80.938158175098195, 29.041201674754685 ] } },
{ "type": "Feature", "properties": { "Name": "CHISHOLM COMMUNITY CENTER", "Address": "520 S CLARA AVE", "City": "DELAND", "Zip": "32720", "THEME": "ARC SHELTER", "LATITUDE": 29.020149907099999, "LONGITUDE": -81.307348580699994, "USNG": "17R MN 70070 10257" }, "geometry": { "type": "Point", "coordinates": [ -81.307348580740566, 29.020149907120764 ] } },
{ "type": "Feature", "properties": { "Name": "LIBERTY INDEPENDENT BAPTIST", "Address": "1365 W PLYMOUTH AVE", "City": "DELAND", "Zip": "32720", "THEME": "ARC SHELTER", "LATITUDE": 29.042525237700001, "LONGITUDE": -81.330072844499995, "USNG": "17R MN 67864 12742" }, "geometry": { "type": "Point", "coordinates": [ -81.330072844544077, 29.042525237685616 ] } },
{ "type": "Feature", "properties": { "Name": "MOUNT CALVERY FREE WILL BAPTIST", "Address": "710 W CINCINNATI AVE", "City": "DELAND", "Zip": "32720", "THEME": "ARC SHELTER", "LATITUDE": 29.0088664112, "LONGITUDE": -81.315632055199998, "USNG": "17R MN 69260 09009" }, "geometry": { "type": "Point", "coordinates": [ -81.315632055215318, 29.0088664112155 ] } },
{ "type": "Feature", "properties": { "Name": "DELTONA LAKES BAPTIST CHURCH", "Address": "2886 ELKCAM BLVD", "City": "DELTONA", "Zip": "32738", "THEME": "ARC SHELTER", "LATITUDE": 28.930980799499999, "LONGITUDE": -81.184990136699994, "USNG": "17R MN 81970 00353" }, "geometry": { "type": "Point", "coordinates": [ -81.184990136719449, 28.930980799549101 ] } },
{ "type": "Feature", "properties": { "Name": "WES CRILE GYMNASIUM", "Address": "1537 FORT SMITH BLVD", "City": "DELTONA", "Zip": "32738", "THEME": "ARC SHELTER", "LATITUDE": 28.906240040699998, "LONGITUDE": -81.221145555000007, "USNG": "17R MM 78441 97618" }, "geometry": { "type": "Point", "coordinates": [ -81.221145554993456, 28.906240040744731 ] } }
]
}
