{
"type": "FeatureCollection",
"crs": { "type": "name", "properties": { "name": "urn:ogc:def:crs:OGC:1.3:CRS84" } },
                                                                                
"features": [
{ "type": "Feature", "properties": { "NAME": "Dirksen\/DeBary Lot", "ADDRESS": "295 DEBARY AVE", "CITY": "DEBARY", "STATE": "FL", "ZIPCODE": "32713", "PERM_ID": "12127FDOT5", "SOURCE_FID": "FDOT", "SOURCE_DID": "5", "LOAD_DATE": "2012\/05\/20", "DATA_QUALI": 2, "FTYPE": 810, "FCODE": 81036, "IsLANDMARK": 2, "LATITUDE": 28.872055, "LONGITUDE": -81.281931, "USNG": "17R MM 7250693843", "TRACTID": "12127091018", "PLocType": "Approximate", "Type": "FDOT-Owned", "NUM_SPACES": 50 }, "geometry": { "type": "Point", "coordinates": [ -81.281927908570495, 28.872049574768127 ] } },
{ "type": "Feature", "properties": { "NAME": "Saxon Lot", "ADDRESS": "1229 SAXON BLVD", "CITY": "ORANGE CITY", "STATE": "FL", "ZIPCODE": "32763", "PERM_ID": "12127FDOT1", "SOURCE_FID": "FDOT", "SOURCE_DID": "1", "LOAD_DATE": "2012\/05\/20", "DATA_QUALI": 2, "FTYPE": 810, "FCODE": 81036, "IsLANDMARK": 2, "LATITUDE": 28.911892999999999, "LONGITUDE": -81.274912, "USNG": "17R MM 7320198255", "TRACTID": "12127090902", "PLocType": "Approximate", "Type": "FDOT-Owned", "NUM_SPACES": 119 }, "geometry": { "type": "Point", "coordinates": [ -81.274908909241248, 28.911887565027701 ] } },
{ "type": "Feature", "properties": { "NAME": "Lake Lotus Lot", "ADDRESS": "8903 MAGNOLIA HOMES RD", "CITY": "ORLANDO", "STATE": "FL", "ZIPCODE": "32810", "PERM_ID": "12095FDOT9", "SOURCE_FID": "FDOT", "SOURCE_DID": "9", "LOAD_DATE": "2012\/05\/20", "DATA_QUALI": 2, "FTYPE": 810, "FCODE": 81036, "IsLANDMARK": 2, "LATITUDE": 28.638629999999999, "LONGITUDE": -81.427021999999994, "USNG": "17R MM 5826468025", "TRACTID": "12095015104", "PLocType": "Approximate", "Type": "Shared-Use (Agreement in place)", "NUM_SPACES": 33 }, "geometry": { "type": "Point", "coordinates": [ -81.427018874293537, 28.638624634688981 ] } },
{ "type": "Feature", "properties": { "NAME": "Econ Lot", "ADDRESS": "9555 EAST COLONIAL DR", "CITY": "ORLANDO", "STATE": "FL", "ZIPCODE": "32817", "PERM_ID": "12095FDOT11", "SOURCE_FID": "FDOT", "SOURCE_DID": "11", "LOAD_DATE": "2012\/05\/20", "DATA_QUALI": 2, "FTYPE": 810, "FCODE": 81036, "IsLANDMARK": 2, "LATITUDE": 28.568794, "LONGITUDE": -81.253722999999994, "USNG": "17R MM 7518560239", "TRACTID": "12095016411", "PLocType": "Approximate", "Type": "FDOT-Owned", "NUM_SPACES": 41 }, "geometry": { "type": "Point", "coordinates": [ -81.253719927105323, 28.568788646956936 ] } },
{ "type": "Feature", "properties": { "NAME": "Dean Road Lot", "ADDRESS": "10100 EAST COLONIAL DR", "CITY": "ORLANDO", "STATE": "FL", "ZIPCODE": "32817", "PERM_ID": "12095FDOT3", "SOURCE_FID": "FDOT", "SOURCE_DID": "3", "LOAD_DATE": "2012\/05\/20", "DATA_QUALI": 2, "FTYPE": 810, "FCODE": 81036, "IsLANDMARK": 2, "LATITUDE": 28.569203000000002, "LONGITUDE": -81.242714000000007, "USNG": "17R MM 7626260283", "TRACTID": "12095016723", "PLocType": "Approximate", "Type": "FDOT-Owned", "NUM_SPACES": 41 }, "geometry": { "type": "Point", "coordinates": [ -81.242710930298657, 28.569197646570153 ] } },
{ "type": "Feature", "properties": { "NAME": "Chuluota Lot", "ADDRESS": "16622 EAST COLONIAL DR", "CITY": "ORLANDO", "STATE": "FL", "ZIPCODE": "32820", "PERM_ID": "12095FDOT4", "SOURCE_FID": "FDOT", "SOURCE_DID": "4", "LOAD_DATE": "2012\/05\/20", "DATA_QUALI": 2, "FTYPE": 810, "FCODE": 81036, "IsLANDMARK": 2, "LATITUDE": 28.561693999999999, "LONGITUDE": -81.133913000000007, "USNG": "17R MM 8690259434", "TRACTID": "12095016602", "PLocType": "Approximate", "Type": "FDOT-Owned", "NUM_SPACES": 87 }, "geometry": { "type": "Point", "coordinates": [ -81.133909962258059, 28.561688645537071 ] } },
{ "type": "Feature", "properties": { "NAME": "Palm Bay Lot", "ADDRESS": "341 EMERSON DR NW (FAITH BAPTIST CHURCH)", "CITY": "PALM BAY", "STATE": "FL", "ZIPCODE": "32907", "PERM_ID": "12009FDOT8", "SOURCE_FID": "FDOT", "SOURCE_DID": "8", "LOAD_DATE": "2012\/05\/20", "DATA_QUALI": 2, "FTYPE": 810, "FCODE": 81036, "IsLANDMARK": 2, "LATITUDE": 28.032419999999998, "LONGITUDE": -80.680563000000006, "USNG": "17R NM 3139900835", "TRACTID": "12009071334", "PLocType": "Approximate", "Type": "Shared-Use (Agreement in place)", "NUM_SPACES": 100 }, "geometry": { "type": "Point", "coordinates": [ -80.6805601118581, 28.032414762436346 ] } },
{ "type": "Feature", "properties": { "NAME": "Mascotte Lot", "ADDRESS": "121 N SUNSET AVE", "CITY": "MASCOTTE", "STATE": "FL", "ZIPCODE": "34753", "PERM_ID": "12009FDOT12", "SOURCE_FID": "FDOT", "SOURCE_DID": "12", "LOAD_DATE": "2012\/05\/20", "DATA_QUALI": 2, "FTYPE": 810, "FCODE": 81036, "IsLANDMARK": 2, "LATITUDE": 28.579955551000001, "LONGITUDE": -81.888903248000005, "USNG": "17R NM 3139900835", "TRACTID": "12009071334", "PLocType": "Approximate", "Type": "Shared-Use (Agreement in place)", "NUM_SPACES": 10 }, "geometry": { "type": "Point", "coordinates": [ -81.888899990087708, 28.579950211978542 ] } },
{ "type": "Feature", "properties": { "NAME": "Deltona Plaza Lot", "ADDRESS": "1200 DELTONA BLVD", "CITY": "DELTONA", "STATE": "FL", "ZIPCODE": "32725", "PERM_ID": "12009FDOT14", "SOURCE_FID": "FDOT", "SOURCE_DID": "14", "LOAD_DATE": "2012\/05\/20", "DATA_QUALI": 2, "FTYPE": 810, "FCODE": 81036, "IsLANDMARK": 2, "LATITUDE": 28.897277932000001, "LONGITUDE": -81.271678221000002, "USNG": "17R NM 3139900835", "TRACTID": "12009071334", "PLocType": "Approximate", "Type": "Shared-Use (Agreement in place)", "NUM_SPACES": 13 }, "geometry": { "type": "Point", "coordinates": [ -81.271675131688497, 28.897272500445176 ] } },
{ "type": "Feature", "properties": { "NAME": "Eau Gallie Lot", "ADDRESS": "1000 BLOCK of INSPIRATION LANE", "CITY": "MELBOURNE", "STATE": "FL", "ZIPCODE": "32934", "PERM_ID": "12009FDOT7", "SOURCE_FID": "FDOT", "SOURCE_DID": "7", "LOAD_DATE": "2012\/05\/20", "DATA_QUALI": 2, "FTYPE": 810, "FCODE": 81036, "IsLANDMARK": 2, "LATITUDE": 28.121089999999999, "LONGITUDE": -80.713384000000005, "USNG": "17R NM 2814910649", "TRACTID": "12009071301", "PLocType": "Approximate", "Type": "FDOT-Owned", "NUM_SPACES": 122 }, "geometry": { "type": "Point", "coordinates": [ -80.713381099433533, 28.121084741625044 ] } },
{ "type": "Feature", "properties": { "NAME": "Viera Lot", "ADDRESS": "5545 PORADA DR", "CITY": "VIERA", "STATE": "FL", "ZIPCODE": "32940", "PERM_ID": "12009FDOT10", "SOURCE_FID": "FDOT", "SOURCE_DID": "10", "LOAD_DATE": "2012\/05\/20", "DATA_QUALI": 2, "FTYPE": 810, "FCODE": 81036, "IsLANDMARK": 2, "LATITUDE": 28.264444999999998, "LONGITUDE": -80.737476000000001, "USNG": "17R NM 2574926525", "TRACTID": "12009071200", "PLocType": "Approximate", "Type": "Privately-Owned (Agreement in place)", "NUM_SPACES": 48 }, "geometry": { "type": "Point", "coordinates": [ -80.737473087763362, 28.264439707327671 ] } },
{ "type": "Feature", "properties": { "NAME": "Clermont Lot", "ADDRESS": "1995 US HIGHWAY 27", "CITY": "CLERMONT", "STATE": "FL", "ZIPCODE": "34711", "PERM_ID": "12069FDOT6", "SOURCE_FID": "FDOT", "SOURCE_DID": "6", "LOAD_DATE": "2012\/05\/20", "DATA_QUALI": 2, "FTYPE": 810, "FCODE": 81036, "IsLANDMARK": 2, "LATITUDE": 28.540503000000001, "LONGITUDE": -81.739424999999997, "USNG": "17R MM 2766357302", "TRACTID": "12069031307", "PLocType": "Approximate", "Type": "FDOT-Owned", "NUM_SPACES": 153 }, "geometry": { "type": "Point", "coordinates": [ -81.739421786802396, 28.540497666514206 ] } },
{ "type": "Feature", "properties": { "NAME": "Minneola Lot", "ADDRESS": "401 N US HIGHWAY 27", "CITY": "MINNEOLA", "STATE": "FL", "ZIPCODE": "34715", "PERM_ID": "12069FDOT13", "SOURCE_FID": "FDOT", "SOURCE_DID": "13", "LOAD_DATE": "2012\/05\/20", "DATA_QUALI": 2, "FTYPE": 810, "FCODE": 81036, "IsLANDMARK": 2, "LATITUDE": 28.584119999999999, "LONGITUDE": -81.751300000000001, "USNG": "17R MM 2653162142", "TRACTID": "12069031309", "PLocType": "Approximate", "Type": "FDOT-Owned", "NUM_SPACES": 101 }, "geometry": { "type": "Point", "coordinates": [ -81.7512967818802, 28.584114656344806 ] } },
{ "type": "Feature", "properties": { "NAME": "Kissimmee\/St. Cloud Turnpike Park & Ride Lot", "ADDRESS": "901 SHADY LANE", "CITY": "KISSIMMEE", "STATE": "FL", "ZIPCODE": "34744", "PERM_ID": "12097FDOT2", "SOURCE_FID": "FDOT", "SOURCE_DID": "2", "LOAD_DATE": "2012\/05\/20", "DATA_QUALI": 2, "FTYPE": 810, "FCODE": 81036, "IsLANDMARK": 2, "LATITUDE": 28.282425, "LONGITUDE": -81.351814000000005, "USNG": "17R MM 6549928539", "TRACTID": "12097042900", "PLocType": "Approximate", "Type": "FDOT-Owned", "NUM_SPACES": 111 }, "geometry": { "type": "Point", "coordinates": [ -81.351810908057118, 28.282419718696051 ] } }
]
}
