{
"type": "FeatureCollection",
"crs": { "type": "name", "properties": { "name": "urn:ogc:def:crs:OGC:1.3:CRS84" } },
                                                                                
"features": [
{ "type": "Feature", "properties": { "Name": "Orlando Public Library", "Address": "101 E Central Bv", "Type": "Library" }, "geometry": { "type": "Point", "coordinates": [ -81.376989427135086, 28.542592049144375 ] } },
{ "type": "Feature", "properties": { "Name": "Southeast Library", "Address": "5575 S Semoran Bv", "Type": "Library" }, "geometry": { "type": "Point", "coordinates": [ -81.307241800846469, 28.481295755938 ] } },
{ "type": "Feature", "properties": { "Name": "Washington Park Library", "Address": "5151 Raleigh St", "Type": "Library" }, "geometry": { "type": "Point", "coordinates": [ -81.447606589912141, 28.528325163376781 ] } },
{ "type": "Feature", "properties": { "Name": "Orlando Garden Club", "Address": "710 E Rollins St", "Type": "POI" }, "geometry": { "type": "Point", "coordinates": [ -81.368331279112596, 28.573078417854326 ] } },
{ "type": "Feature", "properties": { "Name": "Prime Outlets", "Address": "5401 W Oak Ridge Rd", "Type": "POI" }, "geometry": { "type": "Point", "coordinates": [ -81.452691242478423, 28.473592346878203 ] } },
{ "type": "Feature", "properties": { "Name": "Orange County Administration", "Address": "201 S Rosalind Av", "Type": "POI" }, "geometry": { "type": "Point", "coordinates": [ -81.375222734638569, 28.540055694022289 ] } },
{ "type": "Feature", "properties": { "Name": "Orlando Fashion Square Mall", "Address": "3201 E Colonial Dr", "Type": "POI" }, "geometry": { "type": "Point", "coordinates": [ -81.340826404457232, 28.5559638768352 ] } },
{ "type": "Feature", "properties": { "Name": "Colonial Plaza", "Address": "2712 E Colonial Dr", "Type": "POI" }, "geometry": { "type": "Point", "coordinates": [ -81.349934878299678, 28.551399145464647 ] } },
{ "type": "Feature", "properties": { "Name": "YMCA Lake Nona", "Address": "9985 Bluestem St", "Type": "POI" }, "geometry": { "type": "Point", "coordinates": [ -81.262080114835925, 28.422174802442303 ] } },
{ "type": "Feature", "properties": { "Name": "Orlo Vista Post Office", "Address": "501 S KIRKMAN RD", "Type": "Post Office" }, "geometry": { "type": "Point", "coordinates": [ -81.456772888640018, 28.534542201028941 ] } },
{ "type": "Feature", "properties": { "Name": "College Park Post Office", "Address": "1705 EDGEWATER DR", "Type": "Post Office" }, "geometry": { "type": "Point", "coordinates": [ -81.388741577677948, 28.566961198697697 ] } },
{ "type": "Feature", "properties": { "Name": "Downtown Post Office", "Address": "51 E JEFFERSON ST", "Type": "Post Office" }, "geometry": { "type": "Point", "coordinates": [ -81.377991737468861, 28.545193591356419 ] } },
{ "type": "Feature", "properties": { "Name": "Dixie Village Post Office", "Address": "2860 DELANEY AV", "Type": "Post Office" }, "geometry": { "type": "Point", "coordinates": [ -81.372860797266583, 28.511240590090317 ] } },
{ "type": "Feature", "properties": { "Name": "Herndon Station Post Office", "Address": "821 HERNDON AV", "Type": "Post Office" }, "geometry": { "type": "Point", "coordinates": [ -81.337014012097967, 28.556426251058276 ] } },
{ "type": "Feature", "properties": { "Name": "LeeVista Annex Post Office", "Address": "6301 HAZELTINE NATIONAL DR", "Type": "Post Office" }, "geometry": { "type": "Point", "coordinates": [ -81.297601011936848, 28.460200854592014 ] } },
{ "type": "Feature", "properties": { "Name": "Colonialtown Station Post Office", "Address": "611 N MILLS AV", "Type": "Post Office" }, "geometry": { "type": "Point", "coordinates": [ -81.364121108470755, 28.551765512251134 ] } },
{ "type": "Feature", "properties": { "Name": "Orlando Main Post Office", "Address": "10401 POST OFFICE BV W", "Type": "Post Office" }, "geometry": { "type": "Point", "coordinates": [ -81.331404394813717, 28.416633740899066 ] } },
{ "type": "Feature", "properties": { "Name": "Orange Blossom Post Office", "Address": "440 S ORANGE BLOSSOM TL", "Type": "Post Office" }, "geometry": { "type": "Point", "coordinates": [ -81.397746179218657, 28.536745253564039 ] } },
{ "type": "Feature", "properties": { "Name": "Boys and Girls Club", "Address": "5055 RALEIGH ST", "Type": "POI" }, "geometry": { "type": "Point", "coordinates": [ -81.446289625160787, 28.528298271228806 ] } },
{ "type": "Feature", "properties": { "Name": "VA Medical Center", "Address": "5201 Raymond St", "Type": "Hospital" }, "geometry": { "type": "Point", "coordinates": [ -81.321969725798155, 28.580187799305307 ] } },
{ "type": "Feature", "properties": { "Name": "Orlando Health Lucerne Hospital", "Address": "818 Main Ln", "Type": "Hospital" }, "geometry": { "type": "Point", "coordinates": [ -81.377851515550716, 28.531692035683673 ] } },
{ "type": "Feature", "properties": { "Name": "Florida Hospital Orlando", "Address": "601 E Rollins St", "Type": "Hospital" }, "geometry": { "type": "Point", "coordinates": [ -81.369866648071437, 28.574765902673569 ] } },
{ "type": "Feature", "properties": { "Name": "Orange County Regional History", "Address": "65 E Central Bv", "Type": "POI" }, "geometry": { "type": "Point", "coordinates": [ -81.377997750837679, 28.542934799659054 ] } },
{ "type": "Feature", "properties": { "Name": "YMCA Downtown Branch", "Address": "433 N Mills Av", "Type": "POI" }, "geometry": { "type": "Point", "coordinates": [ -81.363923749457754, 28.549038616051632 ] } },
{ "type": "Feature", "properties": { "Name": "Citrus Council of Girl Scouts", "Address": "341 N Mills Av", "Type": "POI" }, "geometry": { "type": "Point", "coordinates": [ -81.364074866597875, 28.54724221815054 ] } },
{ "type": "Feature", "properties": { "Name": "Universal Studios", "Address": "1000 Universal Studios Pz", "Type": "POI" }, "geometry": { "type": "Point", "coordinates": [ -81.467352175604717, 28.474533034956703 ] } },
{ "type": "Feature", "properties": { "Name": "US National Guard", "Address": "3701 Corrine Dr", "Type": "POI" }, "geometry": { "type": "Point", "coordinates": [ -81.33885268805389, 28.568632631178048 ] } },
{ "type": "Feature", "properties": { "Name": "US Customs (NTC)", "Address": null, "Type": "POI" }, "geometry": { "type": "Point", "coordinates": [ -81.328277220093142, 28.570406062482189 ] } },
{ "type": "Feature", "properties": { "Name": "Herndon Library", "Address": "4324 E Colonial Dr", "Type": "Library" }, "geometry": { "type": "Point", "coordinates": [ -81.331774269709399, 28.552424815952641 ] } },
{ "type": "Feature", "properties": { "Name": "Mall at Millenia", "Address": "4200 CONROY RD", "Type": "POI" }, "geometry": { "type": "Point", "coordinates": [ -81.432153195331225, 28.485649986092437 ] } },
{ "type": "Feature", "properties": { "Name": "Millenia Plaza", "Address": "4673 MILLENIA PLAZA WY", "Type": "POI" }, "geometry": { "type": "Point", "coordinates": [ -81.427841020491442, 28.496091183269559 ] } },
{ "type": "Feature", "properties": { "Name": "Orlando Regional Medical Center", "Address": "1414 Kuhl Av", "Type": "Hospital" }, "geometry": { "type": "Point", "coordinates": [ -81.377408778464869, 28.525540008934584 ] } },
{ "type": "Feature", "properties": { "Name": "Lynx Central Station", "Address": "100 W Amelia St", "Type": "POI" }, "geometry": { "type": "Point", "coordinates": [ -81.381421038718045, 28.548619772244574 ] } },
{ "type": "Feature", "properties": { "Name": "Centroplex Garage", "Address": "400 W Amelia St", "Type": "POI" }, "geometry": { "type": "Point", "coordinates": [ -81.384641543753375, 28.548940036855939 ] } },
{ "type": "Feature", "properties": { "Name": "Orange County School Board", "Address": "301 W Amelia St", "Type": "POI" }, "geometry": { "type": "Point", "coordinates": [ -81.384615142870175, 28.550155517622031 ] } },
{ "type": "Feature", "properties": { "Name": "Bob Carr Performing Arts Centre", "Address": "401 W Livingston St", "Type": "POI" }, "geometry": { "type": "Point", "coordinates": [ -81.384083422973788, 28.547998317005753 ] } },
{ "type": "Feature", "properties": { "Name": "UCF School of Film and Emerging Media", "Address": "500 W Livingston St", "Type": "POI" }, "geometry": { "type": "Point", "coordinates": [ -81.385957494452683, 28.546423859153911 ] } },
{ "type": "Feature", "properties": { "Name": "FDLE", "Address": "400 W Robinson St", "Type": "POI" }, "geometry": { "type": "Point", "coordinates": [ -81.385138537451155, 28.544783838240843 ] } },
{ "type": "Feature", "properties": { "Name": "Church Street Station", "Address": "54 W Church St", "Type": "POI" }, "geometry": { "type": "Point", "coordinates": [ -81.380342851174106, 28.540173035178181 ] } },
{ "type": "Feature", "properties": { "Name": "Orlando City Hall", "Address": "400 S Orange Av", "Type": "POI" }, "geometry": { "type": "Point", "coordinates": [ -81.379577114189033, 28.537648902583751 ] } },
{ "type": "Feature", "properties": { "Name": "OUC", "Address": "500 S Orange Av", "Type": "POI" }, "geometry": { "type": "Point", "coordinates": [ -81.379645179078253, 28.536216650091536 ] } },
{ "type": "Feature", "properties": { "Name": "Amway Center", "Address": "400 W Church St", "Type": "POI" }, "geometry": { "type": "Point", "coordinates": [ -81.383969273806144, 28.539182403304419 ] } },
{ "type": "Feature", "properties": { "Name": "Orange County Courthouse", "Address": "76 E Amelia St", "Type": "POI" }, "geometry": { "type": "Point", "coordinates": [ -81.377607334566108, 28.548251123245162 ] } },
{ "type": "Feature", "properties": { "Name": "Orlando Chamber of Commerce", "Address": "75 S Ivanhoe Bv", "Type": "POI" }, "geometry": { "type": "Point", "coordinates": [ -81.378116839004974, 28.560006433747116 ] } },
{ "type": "Feature", "properties": { "Name": "Orange County Health Dept", "Address": "807 W Church St", "Type": "POI" }, "geometry": { "type": "Point", "coordinates": [ -81.392396544187235, 28.541111170115958 ] } },
{ "type": "Feature", "properties": { "Name": "Amtrak Station", "Address": "1400 Sligh Bv", "Type": "POI" }, "geometry": { "type": "Point", "coordinates": [ -81.381604660023953, 28.524998976428389 ] } },
{ "type": "Feature", "properties": { "Name": "Boone Pool", "Address": "2177 S Summerlin Av", "Type": "POI" }, "geometry": { "type": "Point", "coordinates": [ -81.367653286158031, 28.516992468076502 ] } },
{ "type": "Feature", "properties": { "Name": "Orlando Science Center", "Address": "1001 E Princeton St", "Type": "POI" }, "geometry": { "type": "Point", "coordinates": [ -81.368450436566874, 28.572121717617907 ] } },
{ "type": "Feature", "properties": { "Name": "Mennello Museum of Am Folk Art", "Address": "1001 E Princeton St", "Type": "POI" }, "geometry": { "type": "Point", "coordinates": [ -81.367298598990516, 28.570024387438227 ] } },
{ "type": "Feature", "properties": { "Name": "Family, Parks & Rec\/OPD NE Reserve\/Fire Training", "Address": "595 N Primrose Dr", "Type": "POI" }, "geometry": { "type": "Point", "coordinates": [ -81.347272598826024, 28.55057892448519 ] } },
{ "type": "Feature", "properties": { "Name": "Navy Warehouse Area C", "Address": "2701 Seabee St", "Type": "POI" }, "geometry": { "type": "Point", "coordinates": [ -81.347661642307287, 28.558735830109342 ] } },
{ "type": "Feature", "properties": { "Name": "Festival Bay Mall", "Address": "1550 International Dr", "Type": "POI" }, "geometry": { "type": "Point", "coordinates": [ -81.447560672976138, 28.467976175587697 ] } },
{ "type": "Feature", "properties": { "Name": "Safety Council", "Address": "1505 E Colonial Dr", "Type": "POI" }, "geometry": { "type": "Point", "coordinates": [ -81.361255342294569, 28.553529851163159 ] } },
{ "type": "Feature", "properties": { "Name": "Orlando Sports Campus", "Address": "749 S Rio Grande Av", "Type": "POI" }, "geometry": { "type": "Point", "coordinates": [ -81.40298708234279, 28.532792303680974 ] } },
{ "type": "Feature", "properties": { "Name": "Orlando Health Arnold Palmer Hospital", "Address": "92 W Miller St", "Type": "Hospital" }, "geometry": { "type": "Point", "coordinates": [ -81.379350149826863, 28.523162259670013 ] } },
{ "type": "Feature", "properties": { "Name": "M.D. Anderson Cancer Center", "Address": "85 W Miller St", "Type": "Hospital" }, "geometry": { "type": "Point", "coordinates": [ -81.377167455335041, 28.526168242380542 ] } },
{ "type": "Feature", "properties": { "Name": "Orlando Health Winnie Palmer Hospital", "Address": "1414 Kuhl Ave", "Type": "Hospital" }, "geometry": { "type": "Point", "coordinates": [ -81.379281216466637, 28.524291592042616 ] } },
{ "type": "Feature", "properties": { "Name": "Geico Garage", "Address": "400 W South St", "Type": "POI" }, "geometry": { "type": "Point", "coordinates": [ -81.384236585533429, 28.537639958716152 ] } },
{ "type": "Feature", "properties": { "Name": "Nemours Childrens Hospital", "Address": "13525 Nemours Pkwy", "Type": "Hospital" }, "geometry": { "type": "Point", "coordinates": [ -81.272384151843411, 28.376817894566166 ] } },
{ "type": "Feature", "properties": { "Name": "VA Medical Center (Under Construction)", "Address": "13800 Veterans Way", "Type": "Hospital" }, "geometry": { "type": "Point", "coordinates": [ -81.275584877867743, 28.36632142398938 ] } },
{ "type": "Feature", "properties": { "Name": "Creative Village (Under Construction)", "Address": "600 W Amelia St", "Type": "POI" }, "geometry": { "type": "Point", "coordinates": [ -81.386667677093868, 28.54858190082378 ] } },
{ "type": "Feature", "properties": { "Name": "Orlando Shakespeare Theater", "Address": "1001 E Princeton St", "Type": "POI" }, "geometry": { "type": "Point", "coordinates": [ -81.367010742531704, 28.573442323689395 ] } },
{ "type": "Feature", "properties": { "Name": "Orlando Fire Museum (Old #3)", "Address": "1001 E Princeton St", "Type": "POI" }, "geometry": { "type": "Point", "coordinates": [ -81.367394341521958, 28.573008057100946 ] } },
{ "type": "Feature", "properties": { "Name": "Orlando Repertory Theatre", "Address": "1001 E Princeton St", "Type": "POI" }, "geometry": { "type": "Point", "coordinates": [ -81.365414267961924, 28.570912637714059 ] } },
{ "type": "Feature", "properties": { "Name": "Orlando Museum of Art", "Address": "2416 N Mills Av", "Type": "POI" }, "geometry": { "type": "Point", "coordinates": [ -81.365092549981952, 28.572795651382943 ] } },
{ "type": "Feature", "properties": { "Name": "Dr Phillips Center for Performing Arts (Under Construction)", "Address": "455 S Orange Ave", "Type": "POI" }, "geometry": { "type": "Point", "coordinates": [ -81.378040177787639, 28.537630557000835 ] } },
{ "type": "Feature", "properties": { "Name": "Federal Building\/Federal Courthouse", "Address": "328 W Washington St", "Type": "POI" }, "geometry": { "type": "Point", "coordinates": [ -81.383397478010025, 28.543262379788711 ] } },
{ "type": "Feature", "properties": { "Name": "Greyhound Bus Terminal", "Address": "555 N John Young Pkwy", "Type": "POI" }, "geometry": { "type": "Point", "coordinates": [ -81.412917031158472, 28.547791831725458 ] } },
{ "type": "Feature", "properties": { "Name": "Orange County Sheriff", "Address": "2500 W Colonial Dr", "Type": "POI" }, "geometry": { "type": "Point", "coordinates": [ -81.411811134386113, 28.551676907796054 ] } },
{ "type": "Feature", "properties": { "Name": "OOC", "Address": "110 Andes Av", "Type": "POI" }, "geometry": { "type": "Point", "coordinates": [ -81.320792417334758, 28.545206426958348 ] } },
{ "type": "Feature", "properties": { "Name": "Sanford Burnham Institute", "Address": "6400 Sanger Rd", "Type": "POI" }, "geometry": { "type": "Point", "coordinates": [ -81.288400922293917, 28.365405743520881 ] } }
]
}
