{
"type": "FeatureCollection",
"crs": { "type": "name", "properties": { "name": "urn:ogc:def:crs:OGC:1.3:CRS84" } },
                                                                                
"features": [
{ "type": "Feature", "properties": { "ROUTE": "1", "DIRECTION": 0, "SEQUENCE": 1, "LAT": 28.595799960000001, "LONG": -81.352696600000002, "STOPID": 3130, "STOPNAME": "S NEW YORK  AVE AND W NEW ENGLAND  AVE", "TRAPID": 3130, "NODEID": "NYNE", "PATTERN": "NORTH SUNR", "CITY": "WINTER PARK", "COUNTY": "ORANGE", "SHELTER": "YES" }, "geometry": { "type": "Point", "coordinates": [ -81.352696599916982, 28.595799960178713 ] } },
{ "type": "Feature", "properties": { "ROUTE": "1", "DIRECTION": 0, "SEQUENCE": 2, "LAT": 28.596973259999999, "LONG": -81.352741019999996, "STOPID": 7039, "STOPNAME": "WINTER PARK SUNRAIL STATION", "TRAPID": 7039, "NODEID": null, "PATTERN": "NORTH SUNR", "CITY": "WINTER PARK", "COUNTY": "ORANGE", "SHELTER": "NO" }, "geometry": { "type": "Point", "coordinates": [ -81.352741020011962, 28.59697325997956 ] } },
{ "type": "Feature", "properties": { "ROUTE": "1", "DIRECTION": 0, "SEQUENCE": 4, "LAT": 28.604069039999999, "LONG": -81.361660520000001, "STOPID": 3138, "STOPNAME": "W WEBSTER AVENUE AND N DENNING DRIVE", "TRAPID": 3138, "NODEID": "DEWE", "PATTERN": "NORTH SUNR", "CITY": "WINTER PARK", "COUNTY": "ORANGE", "SHELTER": "YES" }, "geometry": { "type": "Point", "coordinates": [ -81.361660519921543, 28.604069040191622 ] } },
{ "type": "Feature", "properties": { "ROUTE": "1", "DIRECTION": 0, "SEQUENCE": 5, "LAT": 28.604028110000002, "LONG": -81.364020049999993, "STOPID": 3139, "STOPNAME": "W WEBSTER AVENUE AND GALLOWAY DRIVE", "TRAPID": 3139, "NODEID": null, "PATTERN": "NORTH SUNR", "CITY": "WINTER PARK", "COUNTY": "ORANGE", "SHELTER": "NO" }, "geometry": { "type": "Point", "coordinates": [ -81.364020049715293, 28.604028109831244 ] } },
{ "type": "Feature", "properties": { "ROUTE": "1", "DIRECTION": 0, "SEQUENCE": 6, "LAT": 28.608209800000001, "LONG": -81.365062219999999, "STOPID": 3140, "STOPNAME": "N ORLANDO AVENUE AND DIXON AVENUE", "TRAPID": 3140, "NODEID": null, "PATTERN": "NORTH SUNR", "CITY": "WINTER PARK", "COUNTY": "ORANGE", "SHELTER": "NO" }, "geometry": { "type": "Point", "coordinates": [ -81.36506222008714, 28.608209799815906 ] } },
{ "type": "Feature", "properties": { "ROUTE": "1", "DIRECTION": 0, "SEQUENCE": 7, "LAT": 28.61121434, "LONG": -81.365154559999993, "STOPID": 3141, "STOPNAME": "S ORLANDO AVENUE AND ELVIN AVENUE", "TRAPID": 3141, "NODEID": null, "PATTERN": "NORTH SUNR", "CITY": null, "COUNTY": "ORANGE", "SHELTER": "NO" }, "geometry": { "type": "Point", "coordinates": [ -81.365154559743445, 28.611214339996181 ] } },
{ "type": "Feature", "properties": { "ROUTE": "1", "DIRECTION": 0, "SEQUENCE": 8, "LAT": 28.618598460000001, "LONG": -81.367054550000006, "STOPID": 3062, "STOPNAME": "LAKE AVENUE AND S ORLANDO AVENUE", "TRAPID": 3062, "NODEID": null, "PATTERN": "NORTH SUNR", "CITY": "MAITLAND", "COUNTY": "ORANGE", "SHELTER": "NO" }, "geometry": { "type": "Point", "coordinates": [ -81.367054549686245, 28.618598459583978 ] } },
{ "type": "Feature", "properties": { "ROUTE": "1", "DIRECTION": 0, "SEQUENCE": 9, "LAT": 28.617749379999999, "LONG": -81.372686659999999, "STOPID": 3064, "STOPNAME": "LAKE AVENUE AND PARK LAKE CIRCLE", "TRAPID": 3064, "NODEID": null, "PATTERN": "NORTH SUNR", "CITY": "MAITLAND", "COUNTY": "ORANGE", "SHELTER": "NO" }, "geometry": { "type": "Point", "coordinates": [ -81.372686659922508, 28.617749380151018 ] } },
{ "type": "Feature", "properties": { "ROUTE": "1", "DIRECTION": 0, "SEQUENCE": 10, "LAT": 28.618349429999999, "LONG": -81.374170579999998, "STOPID": 3065, "STOPNAME": "LAKE AVENUE AND GROVE STREET", "TRAPID": 3065, "NODEID": null, "PATTERN": "NORTH SUNR", "CITY": "MAITLAND", "COUNTY": "ORANGE", "SHELTER": "NO" }, "geometry": { "type": "Point", "coordinates": [ -81.374170579623794, 28.618349430154126 ] } },
{ "type": "Feature", "properties": { "ROUTE": "1", "DIRECTION": 0, "SEQUENCE": 11, "LAT": 28.618595389999999, "LONG": -81.375940110000002, "STOPID": 3097, "STOPNAME": "E KENNEDY BOULEVARD AND N EAST STREET", "TRAPID": 3097, "NODEID": null, "PATTERN": "NORTH SUNR", "CITY": "EATONVILLE", "COUNTY": "ORANGE", "SHELTER": "YES" }, "geometry": { "type": "Point", "coordinates": [ -81.375940109825365, 28.61859539021706 ] } },
{ "type": "Feature", "properties": { "ROUTE": "1", "DIRECTION": 0, "SEQUENCE": 12, "LAT": 28.618559479999998, "LONG": -81.379544480000007, "STOPID": 5939, "STOPNAME": "E KENNEDY BOULEVARD AND S CALHOUN AVENUE", "TRAPID": 5939, "NODEID": null, "PATTERN": "NORTH SUNR", "CITY": "EATONVILLE", "COUNTY": "ORANGE", "SHELTER": "YES" }, "geometry": { "type": "Point", "coordinates": [ -81.379544479526487, 28.618559479720798 ] } },
{ "type": "Feature", "properties": { "ROUTE": "1", "DIRECTION": 0, "SEQUENCE": 13, "LAT": 28.618469399999999, "LONG": -81.380993689999997, "STOPID": 5940, "STOPNAME": "E KENNEDY BOULEVARD AND S COLLEGE AVENUE", "TRAPID": 5940, "NODEID": "ECH", "PATTERN": "NORTH SUNR", "CITY": "EATONVILLE", "COUNTY": "ORANGE", "SHELTER": "YES" }, "geometry": { "type": "Point", "coordinates": [ -81.380993689571227, 28.618469400028403 ] } },
{ "type": "Feature", "properties": { "ROUTE": "1", "DIRECTION": 0, "SEQUENCE": 14, "LAT": 28.618404229999999, "LONG": -81.384938939999998, "STOPID": 3100, "STOPNAME": "E KENNEDY BOULEVARD AND N WYMORE ROAD", "TRAPID": 3100, "NODEID": null, "PATTERN": "NORTH SUNR", "CITY": "EATONVILLE", "COUNTY": "ORANGE", "SHELTER": "NO" }, "geometry": { "type": "Point", "coordinates": [ -81.38493894022902, 28.61840422960999 ] } },
{ "type": "Feature", "properties": { "ROUTE": "1", "DIRECTION": 0, "SEQUENCE": 15, "LAT": 28.618757469999998, "LONG": -81.387090950000001, "STOPID": 3101, "STOPNAME": "S LAKE DESTINY ROAD AND W KENNEDY BOULEVARD", "TRAPID": 3101, "NODEID": null, "PATTERN": "NORTH SUNR", "CITY": "EATONVILLE", "COUNTY": "ORANGE", "SHELTER": "NO" }, "geometry": { "type": "Point", "coordinates": [ -81.387090949776336, 28.618757469571992 ] } },
{ "type": "Feature", "properties": { "ROUTE": "1", "DIRECTION": 0, "SEQUENCE": 16, "LAT": 28.620872039999998, "LONG": -81.387112959999996, "STOPID": 3102, "STOPNAME": "S LAKE DESTINY ROAD AND W KENNEDY BOULEVARD", "TRAPID": 3102, "NODEID": null, "PATTERN": "NORTH SUNR", "CITY": "EATONVILLE", "COUNTY": "ORANGE", "SHELTER": "NO" }, "geometry": { "type": "Point", "coordinates": [ -81.387112960480408, 28.620872039841061 ] } },
{ "type": "Feature", "properties": { "ROUTE": "1", "DIRECTION": 0, "SEQUENCE": 17, "LAT": 28.622588409999999, "LONG": -81.387113729999996, "STOPID": 3066, "STOPNAME": "S LAKE DESTINY ROAD AND LUCIEN WAY", "TRAPID": 3066, "NODEID": null, "PATTERN": "NORTH SUNR", "CITY": "MAITLAND", "COUNTY": "ORANGE", "SHELTER": "NO" }, "geometry": { "type": "Point", "coordinates": [ -81.387113729905849, 28.622588410432432 ] } },
{ "type": "Feature", "properties": { "ROUTE": "1", "DIRECTION": 0, "SEQUENCE": 18, "LAT": 28.62484023, "LONG": -81.387108979999994, "STOPID": 3067, "STOPNAME": "S LAKE DESTINY ROAD AND LUCIEN WAY", "TRAPID": 3067, "NODEID": null, "PATTERN": "NORTH SUNR", "CITY": "MAITLAND", "COUNTY": "ORANGE", "SHELTER": "NO" }, "geometry": { "type": "Point", "coordinates": [ -81.387108980162836, 28.624840229618702 ] } },
{ "type": "Feature", "properties": { "ROUTE": "1", "DIRECTION": 0, "SEQUENCE": 19, "LAT": 28.629460659999999, "LONG": -81.391889280000001, "STOPID": 3068, "STOPNAME": "N LAKE DESTINY RD AND SOUTHHALL LN", "TRAPID": 3068, "NODEID": null, "PATTERN": "NORTH SUNR", "CITY": "MAITLAND", "COUNTY": "ORANGE", "SHELTER": "NO" }, "geometry": { "type": "Point", "coordinates": [ -81.391889280363046, 28.629460660129556 ] } },
{ "type": "Feature", "properties": { "ROUTE": "1", "DIRECTION": 0, "SEQUENCE": 20, "LAT": 28.632848580000001, "LONG": -81.391312819999996, "STOPID": 3069, "STOPNAME": "N LAKE DESTINY ROAD AND MAITLAND CENTER PARKWAY", "TRAPID": 3069, "NODEID": "MCTR", "PATTERN": "NORTH SUNR", "CITY": "MAITLAND", "COUNTY": "ORANGE", "SHELTER": "YES" }, "geometry": { "type": "Point", "coordinates": [ -81.391312819756479, 28.6328485795711 ] } },
{ "type": "Feature", "properties": { "ROUTE": "1", "DIRECTION": 0, "SEQUENCE": 21, "LAT": 28.63827032, "LONG": -81.388175430000004, "STOPID": 3070, "STOPNAME": "N LAKE DESTINY ROAD AND LAKE DESTINY RD", "TRAPID": 3070, "NODEID": null, "PATTERN": "NORTH SUNR", "CITY": "MAITLAND", "COUNTY": "ORANGE", "SHELTER": "NO" }, "geometry": { "type": "Point", "coordinates": [ -81.388175429761247, 28.638270320116348 ] } },
{ "type": "Feature", "properties": { "ROUTE": "1", "DIRECTION": 0, "SEQUENCE": 22, "LAT": 28.642052419999999, "LONG": -81.389206770000001, "STOPID": 1267, "STOPNAME": "LAKE DESTINY RD AND LAKE DESTINY RD", "TRAPID": 1267, "NODEID": null, "PATTERN": "NORTH SUNR", "CITY": "ALTAMONTE SPRINGS", "COUNTY": "SEMINOLE", "SHELTER": "NO" }, "geometry": { "type": "Point", "coordinates": [ -81.389206769623428, 28.642052419651748 ] } },
{ "type": "Feature", "properties": { "ROUTE": "1", "DIRECTION": 0, "SEQUENCE": 23, "LAT": 28.64520826, "LONG": -81.390403259999999, "STOPID": 1268, "STOPNAME": "WYMORE  RD AND SPRING LAKE HILLS  DR", "TRAPID": 1268, "NODEID": null, "PATTERN": "NORTH SUNR", "CITY": "ALTAMONTE SPRINGS", "COUNTY": "SEMINOLE", "SHELTER": "NO" }, "geometry": { "type": "Point", "coordinates": [ -81.390403259917989, 28.645208259752316 ] } },
{ "type": "Feature", "properties": { "ROUTE": "1", "DIRECTION": 0, "SEQUENCE": 24, "LAT": 28.647517300000001, "LONG": -81.390285509999998, "STOPID": 1269, "STOPNAME": "WYMORE RD AND ASHFORD OAKS DR", "TRAPID": 1269, "NODEID": null, "PATTERN": "NORTH SUNR", "CITY": "ALTAMONTE SPRINGS", "COUNTY": "SEMINOLE", "SHELTER": "NO" }, "geometry": { "type": "Point", "coordinates": [ -81.390285510225738, 28.647517299981136 ] } },
{ "type": "Feature", "properties": { "ROUTE": "1", "DIRECTION": 0, "SEQUENCE": 25, "LAT": 28.65169427, "LONG": -81.390290289999996, "STOPID": 1270, "STOPNAME": "WYMORE RD AND SPANISH TRACE DR", "TRAPID": 1270, "NODEID": null, "PATTERN": "NORTH SUNR", "CITY": "ALTAMONTE SPRINGS", "COUNTY": "SEMINOLE", "SHELTER": "NO" }, "geometry": { "type": "Point", "coordinates": [ -81.390290289880369, 28.651694270438377 ] } },
{ "type": "Feature", "properties": { "ROUTE": "1", "DIRECTION": 0, "SEQUENCE": 26, "LAT": 28.6546992, "LONG": -81.39029386, "STOPID": 1271, "STOPNAME": "WYMORE RD AND SPANISH TRACE DR", "TRAPID": 1271, "NODEID": null, "PATTERN": "NORTH SUNR", "CITY": "ALTAMONTE SPRINGS", "COUNTY": "SEMINOLE", "SHELTER": "NO" }, "geometry": { "type": "Point", "coordinates": [ -81.39029385970737, 28.654699200078266 ] } },
{ "type": "Feature", "properties": { "ROUTE": "1", "DIRECTION": 0, "SEQUENCE": 27, "LAT": 28.657130240000001, "LONG": -81.390284199999996, "STOPID": 1277, "STOPNAME": "WYMORE RD AND SPRING VALLEY RD", "TRAPID": 1277, "NODEID": null, "PATTERN": "NORTH SUNR", "CITY": "ALTAMONTE SPRINGS", "COUNTY": "SEMINOLE", "SHELTER": "NO" }, "geometry": { "type": "Point", "coordinates": [ -81.390284199892378, 28.657130240117741 ] } },
{ "type": "Feature", "properties": { "ROUTE": "1", "DIRECTION": 0, "SEQUENCE": 28, "LAT": 28.658977539999999, "LONG": -81.390287520000001, "STOPID": 5908, "STOPNAME": "WYMORE RD AND S WESTMONTE DR", "TRAPID": 5908, "NODEID": null, "PATTERN": "NORTH SUNR", "CITY": "ALTAMONTE SPRINGS", "COUNTY": "SEMINOLE", "SHELTER": "NO" }, "geometry": { "type": "Point", "coordinates": [ -81.390287519599241, 28.658977539883544 ] } },
{ "type": "Feature", "properties": { "ROUTE": "1", "DIRECTION": 0, "SEQUENCE": 29, "LAT": 28.661729050000002, "LONG": -81.385612519999995, "STOPID": 1323, "STOPNAME": "E ALTAMONTE DR AND OYSTER BAY CIR", "TRAPID": 1323, "NODEID": null, "PATTERN": "NORTH SUNR", "CITY": "ALTAMONTE SPRINGS", "COUNTY": "SEMINOLE", "SHELTER": "YES" }, "geometry": { "type": "Point", "coordinates": [ -81.38561252001125, 28.661729049552395 ] } },
{ "type": "Feature", "properties": { "ROUTE": "1", "DIRECTION": 0, "SEQUENCE": 30, "LAT": 28.66487201, "LONG": -81.377821699999998, "STOPID": 1322, "STOPNAME": "E ALTAMONTE DR AND ESSEX AVE", "TRAPID": 1322, "NODEID": "ALTM", "PATTERN": "NORTH SUNR", "CITY": "ALTAMONTE SPRINGS", "COUNTY": "SEMINOLE", "SHELTER": "NO" }, "geometry": { "type": "Point", "coordinates": [ -81.377821699882773, 28.664872009816662 ] } },
{ "type": "Feature", "properties": { "ROUTE": "1", "DIRECTION": 0, "SEQUENCE": 4, "LAT": 28.604069039999999, "LONG": -81.361660520000001, "STOPID": 3138, "STOPNAME": "W WEBSTER AVENUE AND N DENNING DRIVE", "TRAPID": 3138, "NODEID": "DEWE", "PATTERN": "NORTHBOUND", "CITY": "WINTER PARK", "COUNTY": "ORANGE", "SHELTER": "YES" }, "geometry": { "type": "Point", "coordinates": [ -81.361660519921543, 28.604069040191622 ] } },
{ "type": "Feature", "properties": { "ROUTE": "1", "DIRECTION": 0, "SEQUENCE": 5, "LAT": 28.604028110000002, "LONG": -81.364020049999993, "STOPID": 3139, "STOPNAME": "W WEBSTER AVENUE AND GALLOWAY DRIVE", "TRAPID": 3139, "NODEID": null, "PATTERN": "NORTHBOUND", "CITY": "WINTER PARK", "COUNTY": "ORANGE", "SHELTER": "NO" }, "geometry": { "type": "Point", "coordinates": [ -81.364020049715293, 28.604028109831244 ] } },
{ "type": "Feature", "properties": { "ROUTE": "1", "DIRECTION": 0, "SEQUENCE": 6, "LAT": 28.608209800000001, "LONG": -81.365062219999999, "STOPID": 3140, "STOPNAME": "N ORLANDO AVENUE AND DIXON AVENUE", "TRAPID": 3140, "NODEID": null, "PATTERN": "NORTHBOUND", "CITY": "WINTER PARK", "COUNTY": "ORANGE", "SHELTER": "NO" }, "geometry": { "type": "Point", "coordinates": [ -81.36506222008714, 28.608209799815906 ] } },
{ "type": "Feature", "properties": { "ROUTE": "1", "DIRECTION": 0, "SEQUENCE": 7, "LAT": 28.61121434, "LONG": -81.365154559999993, "STOPID": 3141, "STOPNAME": "S ORLANDO AVENUE AND ELVIN AVENUE", "TRAPID": 3141, "NODEID": null, "PATTERN": "NORTHBOUND", "CITY": null, "COUNTY": "ORANGE", "SHELTER": "NO" }, "geometry": { "type": "Point", "coordinates": [ -81.365154559743445, 28.611214339996181 ] } },
{ "type": "Feature", "properties": { "ROUTE": "1", "DIRECTION": 0, "SEQUENCE": 8, "LAT": 28.618598460000001, "LONG": -81.367054550000006, "STOPID": 3062, "STOPNAME": "LAKE AVENUE AND S ORLANDO AVENUE", "TRAPID": 3062, "NODEID": null, "PATTERN": "NORTHBOUND", "CITY": "MAITLAND", "COUNTY": "ORANGE", "SHELTER": "NO" }, "geometry": { "type": "Point", "coordinates": [ -81.367054549686245, 28.618598459583978 ] } },
{ "type": "Feature", "properties": { "ROUTE": "1", "DIRECTION": 0, "SEQUENCE": 9, "LAT": 28.617749379999999, "LONG": -81.372686659999999, "STOPID": 3064, "STOPNAME": "LAKE AVENUE AND PARK LAKE CIRCLE", "TRAPID": 3064, "NODEID": null, "PATTERN": "NORTHBOUND", "CITY": "MAITLAND", "COUNTY": "ORANGE", "SHELTER": "NO" }, "geometry": { "type": "Point", "coordinates": [ -81.372686659922508, 28.617749380151018 ] } },
{ "type": "Feature", "properties": { "ROUTE": "1", "DIRECTION": 0, "SEQUENCE": 10, "LAT": 28.618349429999999, "LONG": -81.374170579999998, "STOPID": 3065, "STOPNAME": "LAKE AVENUE AND GROVE STREET", "TRAPID": 3065, "NODEID": null, "PATTERN": "NORTHBOUND", "CITY": "MAITLAND", "COUNTY": "ORANGE", "SHELTER": "NO" }, "geometry": { "type": "Point", "coordinates": [ -81.374170579623794, 28.618349430154126 ] } },
{ "type": "Feature", "properties": { "ROUTE": "1", "DIRECTION": 0, "SEQUENCE": 11, "LAT": 28.618595389999999, "LONG": -81.375940110000002, "STOPID": 3097, "STOPNAME": "E KENNEDY BOULEVARD AND N EAST STREET", "TRAPID": 3097, "NODEID": null, "PATTERN": "NORTHBOUND", "CITY": "EATONVILLE", "COUNTY": "ORANGE", "SHELTER": "YES" }, "geometry": { "type": "Point", "coordinates": [ -81.375940109825365, 28.61859539021706 ] } },
{ "type": "Feature", "properties": { "ROUTE": "1", "DIRECTION": 0, "SEQUENCE": 12, "LAT": 28.618559479999998, "LONG": -81.379544480000007, "STOPID": 5939, "STOPNAME": "E KENNEDY BOULEVARD AND S CALHOUN AVENUE", "TRAPID": 5939, "NODEID": null, "PATTERN": "NORTHBOUND", "CITY": "EATONVILLE", "COUNTY": "ORANGE", "SHELTER": "YES" }, "geometry": { "type": "Point", "coordinates": [ -81.379544479526487, 28.618559479720798 ] } },
{ "type": "Feature", "properties": { "ROUTE": "1", "DIRECTION": 0, "SEQUENCE": 13, "LAT": 28.618469399999999, "LONG": -81.380993689999997, "STOPID": 5940, "STOPNAME": "E KENNEDY BOULEVARD AND S COLLEGE AVENUE", "TRAPID": 5940, "NODEID": "ECH", "PATTERN": "NORTHBOUND", "CITY": "EATONVILLE", "COUNTY": "ORANGE", "SHELTER": "YES" }, "geometry": { "type": "Point", "coordinates": [ -81.380993689571227, 28.618469400028403 ] } },
{ "type": "Feature", "properties": { "ROUTE": "1", "DIRECTION": 0, "SEQUENCE": 14, "LAT": 28.618404229999999, "LONG": -81.384938939999998, "STOPID": 3100, "STOPNAME": "E KENNEDY BOULEVARD AND N WYMORE ROAD", "TRAPID": 3100, "NODEID": null, "PATTERN": "NORTHBOUND", "CITY": "EATONVILLE", "COUNTY": "ORANGE", "SHELTER": "NO" }, "geometry": { "type": "Point", "coordinates": [ -81.38493894022902, 28.61840422960999 ] } },
{ "type": "Feature", "properties": { "ROUTE": "1", "DIRECTION": 0, "SEQUENCE": 15, "LAT": 28.618757469999998, "LONG": -81.387090950000001, "STOPID": 3101, "STOPNAME": "S LAKE DESTINY ROAD AND W KENNEDY BOULEVARD", "TRAPID": 3101, "NODEID": null, "PATTERN": "NORTHBOUND", "CITY": "EATONVILLE", "COUNTY": "ORANGE", "SHELTER": "NO" }, "geometry": { "type": "Point", "coordinates": [ -81.387090949776336, 28.618757469571992 ] } },
{ "type": "Feature", "properties": { "ROUTE": "1", "DIRECTION": 0, "SEQUENCE": 16, "LAT": 28.620872039999998, "LONG": -81.387112959999996, "STOPID": 3102, "STOPNAME": "S LAKE DESTINY ROAD AND W KENNEDY BOULEVARD", "TRAPID": 3102, "NODEID": null, "PATTERN": "NORTHBOUND", "CITY": "EATONVILLE", "COUNTY": "ORANGE", "SHELTER": "NO" }, "geometry": { "type": "Point", "coordinates": [ -81.387112960480408, 28.620872039841061 ] } },
{ "type": "Feature", "properties": { "ROUTE": "1", "DIRECTION": 0, "SEQUENCE": 17, "LAT": 28.622588409999999, "LONG": -81.387113729999996, "STOPID": 3066, "STOPNAME": "S LAKE DESTINY ROAD AND LUCIEN WAY", "TRAPID": 3066, "NODEID": null, "PATTERN": "NORTHBOUND", "CITY": "MAITLAND", "COUNTY": "ORANGE", "SHELTER": "NO" }, "geometry": { "type": "Point", "coordinates": [ -81.387113729905849, 28.622588410432432 ] } },
{ "type": "Feature", "properties": { "ROUTE": "1", "DIRECTION": 0, "SEQUENCE": 18, "LAT": 28.62484023, "LONG": -81.387108979999994, "STOPID": 3067, "STOPNAME": "S LAKE DESTINY ROAD AND LUCIEN WAY", "TRAPID": 3067, "NODEID": null, "PATTERN": "NORTHBOUND", "CITY": "MAITLAND", "COUNTY": "ORANGE", "SHELTER": "NO" }, "geometry": { "type": "Point", "coordinates": [ -81.387108980162836, 28.624840229618702 ] } },
{ "type": "Feature", "properties": { "ROUTE": "1", "DIRECTION": 0, "SEQUENCE": 19, "LAT": 28.629460659999999, "LONG": -81.391889280000001, "STOPID": 3068, "STOPNAME": "N LAKE DESTINY RD AND SOUTHHALL LN", "TRAPID": 3068, "NODEID": null, "PATTERN": "NORTHBOUND", "CITY": "MAITLAND", "COUNTY": "ORANGE", "SHELTER": "NO" }, "geometry": { "type": "Point", "coordinates": [ -81.391889280363046, 28.629460660129556 ] } },
{ "type": "Feature", "properties": { "ROUTE": "1", "DIRECTION": 0, "SEQUENCE": 20, "LAT": 28.632848580000001, "LONG": -81.391312819999996, "STOPID": 3069, "STOPNAME": "N LAKE DESTINY ROAD AND MAITLAND CENTER PARKWAY", "TRAPID": 3069, "NODEID": "MCTR", "PATTERN": "NORTHBOUND", "CITY": "MAITLAND", "COUNTY": "ORANGE", "SHELTER": "YES" }, "geometry": { "type": "Point", "coordinates": [ -81.391312819756479, 28.6328485795711 ] } },
{ "type": "Feature", "properties": { "ROUTE": "1", "DIRECTION": 0, "SEQUENCE": 21, "LAT": 28.63827032, "LONG": -81.388175430000004, "STOPID": 3070, "STOPNAME": "N LAKE DESTINY ROAD AND LAKE DESTINY RD", "TRAPID": 3070, "NODEID": null, "PATTERN": "NORTHBOUND", "CITY": "MAITLAND", "COUNTY": "ORANGE", "SHELTER": "NO" }, "geometry": { "type": "Point", "coordinates": [ -81.388175429761247, 28.638270320116348 ] } },
{ "type": "Feature", "properties": { "ROUTE": "1", "DIRECTION": 0, "SEQUENCE": 22, "LAT": 28.642052419999999, "LONG": -81.389206770000001, "STOPID": 1267, "STOPNAME": "LAKE DESTINY RD AND LAKE DESTINY RD", "TRAPID": 1267, "NODEID": null, "PATTERN": "NORTHBOUND", "CITY": "ALTAMONTE SPRINGS", "COUNTY": "SEMINOLE", "SHELTER": "NO" }, "geometry": { "type": "Point", "coordinates": [ -81.389206769623428, 28.642052419651748 ] } },
{ "type": "Feature", "properties": { "ROUTE": "1", "DIRECTION": 0, "SEQUENCE": 23, "LAT": 28.64520826, "LONG": -81.390403259999999, "STOPID": 1268, "STOPNAME": "WYMORE  RD AND SPRING LAKE HILLS  DR", "TRAPID": 1268, "NODEID": null, "PATTERN": "NORTHBOUND", "CITY": "ALTAMONTE SPRINGS", "COUNTY": "SEMINOLE", "SHELTER": "NO" }, "geometry": { "type": "Point", "coordinates": [ -81.390403259917989, 28.645208259752316 ] } },
{ "type": "Feature", "properties": { "ROUTE": "1", "DIRECTION": 0, "SEQUENCE": 24, "LAT": 28.647517300000001, "LONG": -81.390285509999998, "STOPID": 1269, "STOPNAME": "WYMORE RD AND ASHFORD OAKS DR", "TRAPID": 1269, "NODEID": null, "PATTERN": "NORTHBOUND", "CITY": "ALTAMONTE SPRINGS", "COUNTY": "SEMINOLE", "SHELTER": "NO" }, "geometry": { "type": "Point", "coordinates": [ -81.390285510225738, 28.647517299981136 ] } },
{ "type": "Feature", "properties": { "ROUTE": "1", "DIRECTION": 0, "SEQUENCE": 25, "LAT": 28.65169427, "LONG": -81.390290289999996, "STOPID": 1270, "STOPNAME": "WYMORE RD AND SPANISH TRACE DR", "TRAPID": 1270, "NODEID": null, "PATTERN": "NORTHBOUND", "CITY": "ALTAMONTE SPRINGS", "COUNTY": "SEMINOLE", "SHELTER": "NO" }, "geometry": { "type": "Point", "coordinates": [ -81.390290289880369, 28.651694270438377 ] } },
{ "type": "Feature", "properties": { "ROUTE": "1", "DIRECTION": 0, "SEQUENCE": 26, "LAT": 28.6546992, "LONG": -81.39029386, "STOPID": 1271, "STOPNAME": "WYMORE RD AND SPANISH TRACE DR", "TRAPID": 1271, "NODEID": null, "PATTERN": "NORTHBOUND", "CITY": "ALTAMONTE SPRINGS", "COUNTY": "SEMINOLE", "SHELTER": "NO" }, "geometry": { "type": "Point", "coordinates": [ -81.39029385970737, 28.654699200078266 ] } },
{ "type": "Feature", "properties": { "ROUTE": "1", "DIRECTION": 0, "SEQUENCE": 27, "LAT": 28.657130240000001, "LONG": -81.390284199999996, "STOPID": 1277, "STOPNAME": "WYMORE RD AND SPRING VALLEY RD", "TRAPID": 1277, "NODEID": null, "PATTERN": "NORTHBOUND", "CITY": "ALTAMONTE SPRINGS", "COUNTY": "SEMINOLE", "SHELTER": "NO" }, "geometry": { "type": "Point", "coordinates": [ -81.390284199892378, 28.657130240117741 ] } },
{ "type": "Feature", "properties": { "ROUTE": "1", "DIRECTION": 0, "SEQUENCE": 28, "LAT": 28.658977539999999, "LONG": -81.390287520000001, "STOPID": 5908, "STOPNAME": "WYMORE RD AND S WESTMONTE DR", "TRAPID": 5908, "NODEID": null, "PATTERN": "NORTHBOUND", "CITY": "ALTAMONTE SPRINGS", "COUNTY": "SEMINOLE", "SHELTER": "NO" }, "geometry": { "type": "Point", "coordinates": [ -81.390287519599241, 28.658977539883544 ] } },
{ "type": "Feature", "properties": { "ROUTE": "1", "DIRECTION": 0, "SEQUENCE": 29, "LAT": 28.661729050000002, "LONG": -81.385612519999995, "STOPID": 1323, "STOPNAME": "E ALTAMONTE DR AND OYSTER BAY CIR", "TRAPID": 1323, "NODEID": null, "PATTERN": "NORTHBOUND", "CITY": "ALTAMONTE SPRINGS", "COUNTY": "SEMINOLE", "SHELTER": "YES" }, "geometry": { "type": "Point", "coordinates": [ -81.38561252001125, 28.661729049552395 ] } },
{ "type": "Feature", "properties": { "ROUTE": "1", "DIRECTION": 0, "SEQUENCE": 30, "LAT": 28.66487201, "LONG": -81.377821699999998, "STOPID": 1322, "STOPNAME": "E ALTAMONTE DR AND ESSEX AVE", "TRAPID": 1322, "NODEID": "ALTM", "PATTERN": "NORTHBOUND", "CITY": "ALTAMONTE SPRINGS", "COUNTY": "SEMINOLE", "SHELTER": "NO" }, "geometry": { "type": "Point", "coordinates": [ -81.377821699882773, 28.664872009816662 ] } },
{ "type": "Feature", "properties": { "ROUTE": "1", "DIRECTION": 1, "SEQUENCE": 1, "LAT": 28.66487201, "LONG": -81.377821699999998, "STOPID": 1322, "STOPNAME": "E ALTAMONTE DR AND ESSEX AVE", "TRAPID": 1322, "NODEID": "ALTM", "PATTERN": "SOUTH SUNR", "CITY": "ALTAMONTE SPRINGS", "COUNTY": "SEMINOLE", "SHELTER": "NO" }, "geometry": { "type": "Point", "coordinates": [ -81.377821699882773, 28.664872009816662 ] } },
{ "type": "Feature", "properties": { "ROUTE": "1", "DIRECTION": 1, "SEQUENCE": 2, "LAT": 28.662271059999998, "LONG": -81.383304839999994, "STOPID": 1324, "STOPNAME": "E ALTAMONTE DR AND CRANES ROOST BLVD", "TRAPID": 1324, "NODEID": null, "PATTERN": "SOUTH SUNR", "CITY": "ALTAMONTE SPRINGS", "COUNTY": "SEMINOLE", "SHELTER": "YES" }, "geometry": { "type": "Point", "coordinates": [ -81.383304840381982, 28.662271059772184 ] } },
{ "type": "Feature", "properties": { "ROUTE": "1", "DIRECTION": 1, "SEQUENCE": 3, "LAT": 28.660430789999999, "LONG": -81.390486420000002, "STOPID": 1272, "STOPNAME": "WYMORE RD AND W SR 436", "TRAPID": 1272, "NODEID": null, "PATTERN": "SOUTH SUNR", "CITY": "ALTAMONTE SPRINGS", "COUNTY": "SEMINOLE", "SHELTER": "NO" }, "geometry": { "type": "Point", "coordinates": [ -81.390486420372198, 28.660430790403812 ] } },
{ "type": "Feature", "properties": { "ROUTE": "1", "DIRECTION": 1, "SEQUENCE": 4, "LAT": 28.658395290000001, "LONG": -81.390397879999995, "STOPID": 1273, "STOPNAME": "WYMORE RD AND S WESTMONTE DR", "TRAPID": 1273, "NODEID": null, "PATTERN": "SOUTH SUNR", "CITY": "ALTAMONTE SPRINGS", "COUNTY": "SEMINOLE", "SHELTER": "NO" }, "geometry": { "type": "Point", "coordinates": [ -81.390397880292355, 28.658395290130077 ] } },
{ "type": "Feature", "properties": { "ROUTE": "1", "DIRECTION": 1, "SEQUENCE": 5, "LAT": 28.654687590000002, "LONG": -81.390393169999996, "STOPID": 1274, "STOPNAME": "WYMORE RD AND SPANISH TRACE DR", "TRAPID": 1274, "NODEID": null, "PATTERN": "SOUTH SUNR", "CITY": "ALTAMONTE SPRINGS", "COUNTY": "SEMINOLE", "SHELTER": "NO" }, "geometry": { "type": "Point", "coordinates": [ -81.390393169727233, 28.654687589729892 ] } },
{ "type": "Feature", "properties": { "ROUTE": "1", "DIRECTION": 1, "SEQUENCE": 6, "LAT": 28.65165777, "LONG": -81.390421189999998, "STOPID": 1275, "STOPNAME": "WYMORE RD AND SPANISH TRACE DR", "TRAPID": 1275, "NODEID": null, "PATTERN": "SOUTH SUNR", "CITY": "ALTAMONTE SPRINGS", "COUNTY": "SEMINOLE", "SHELTER": "NO" }, "geometry": { "type": "Point", "coordinates": [ -81.390421189858088, 28.651657769588077 ] } },
{ "type": "Feature", "properties": { "ROUTE": "1", "DIRECTION": 1, "SEQUENCE": 7, "LAT": 28.647909949999999, "LONG": -81.390401530000005, "STOPID": 1060, "STOPNAME": "WYMORE RD AND ASHFORD OAKS DR", "TRAPID": 1060, "NODEID": null, "PATTERN": "SOUTH SUNR", "CITY": "ALTAMONTE SPRINGS", "COUNTY": "SEMINOLE", "SHELTER": "NO" }, "geometry": { "type": "Point", "coordinates": [ -81.390401529982285, 28.647909949740058 ] } },
{ "type": "Feature", "properties": { "ROUTE": "1", "DIRECTION": 1, "SEQUENCE": 8, "LAT": 28.645344690000002, "LONG": -81.390291629999993, "STOPID": 1061, "STOPNAME": "WYMORE RD AND SPRING LAKE HILLS DR", "TRAPID": 1061, "NODEID": null, "PATTERN": "SOUTH SUNR", "CITY": "ALTAMONTE SPRINGS", "COUNTY": "SEMINOLE", "SHELTER": "NO" }, "geometry": { "type": "Point", "coordinates": [ -81.390291630029097, 28.645344689881281 ] } },
{ "type": "Feature", "properties": { "ROUTE": "1", "DIRECTION": 1, "SEQUENCE": 9, "LAT": 28.64190975, "LONG": -81.389251389999998, "STOPID": 1276, "STOPNAME": "LAKE DESTINY RD AND LAKE DESTINY RD", "TRAPID": 1276, "NODEID": null, "PATTERN": "SOUTH SUNR", "CITY": "ALTAMONTE SPRINGS", "COUNTY": "SEMINOLE", "SHELTER": "NO" }, "geometry": { "type": "Point", "coordinates": [ -81.389251389562247, 28.641909750212896 ] } },
{ "type": "Feature", "properties": { "ROUTE": "1", "DIRECTION": 1, "SEQUENCE": 10, "LAT": 28.637704660000001, "LONG": -81.388231529999999, "STOPID": 3071, "STOPNAME": "N LAKE DESTINY ROAD AND LAKE DESTINY RD", "TRAPID": 3071, "NODEID": null, "PATTERN": "SOUTH SUNR", "CITY": "MAITLAND", "COUNTY": "ORANGE", "SHELTER": "NO" }, "geometry": { "type": "Point", "coordinates": [ -81.388231529980317, 28.637704659914835 ] } },
{ "type": "Feature", "properties": { "ROUTE": "1", "DIRECTION": 1, "SEQUENCE": 11, "LAT": 28.633262670000001, "LONG": -81.390697810000006, "STOPID": 3072, "STOPNAME": "N LAKE DESTINY ROAD AND MAITLAND CENTER PARKWAY", "TRAPID": 3072, "NODEID": "MCTR", "PATTERN": "SOUTH SUNR", "CITY": "MAITLAND", "COUNTY": "ORANGE", "SHELTER": "YES" }, "geometry": { "type": "Point", "coordinates": [ -81.3906978099794, 28.633262670335696 ] } },
{ "type": "Feature", "properties": { "ROUTE": "1", "DIRECTION": 1, "SEQUENCE": 12, "LAT": 28.629276229999999, "LONG": -81.391130369999999, "STOPID": 3073, "STOPNAME": "N LAKE DESTINY ROAD AND SOUTHHALL LANE", "TRAPID": 3073, "NODEID": null, "PATTERN": "SOUTH SUNR", "CITY": "MAITLAND", "COUNTY": "ORANGE", "SHELTER": "YES" }, "geometry": { "type": "Point", "coordinates": [ -81.391130369991146, 28.629276230423223 ] } },
{ "type": "Feature", "properties": { "ROUTE": "1", "DIRECTION": 1, "SEQUENCE": 13, "LAT": 28.625665789999999, "LONG": -81.387318120000003, "STOPID": 3074, "STOPNAME": "N LAKE DESTINY ROAD AND LUCIEN WAY", "TRAPID": 3074, "NODEID": null, "PATTERN": "SOUTH SUNR", "CITY": "MAITLAND", "COUNTY": "ORANGE", "SHELTER": "NO" }, "geometry": { "type": "Point", "coordinates": [ -81.387318119514646, 28.625665789977969 ] } },
{ "type": "Feature", "properties": { "ROUTE": "1", "DIRECTION": 1, "SEQUENCE": 14, "LAT": 28.622434030000001, "LONG": -81.387252570000001, "STOPID": 3075, "STOPNAME": "S LAKE DESTINY ROAD AND LUCIEN WAY", "TRAPID": 3075, "NODEID": null, "PATTERN": "SOUTH SUNR", "CITY": "MAITLAND", "COUNTY": "ORANGE", "SHELTER": "NO" }, "geometry": { "type": "Point", "coordinates": [ -81.387252569569654, 28.622434029747648 ] } },
{ "type": "Feature", "properties": { "ROUTE": "1", "DIRECTION": 1, "SEQUENCE": 15, "LAT": 28.62076965, "LONG": -81.387220389999996, "STOPID": 3103, "STOPNAME": "S LAKE DESTINY ROAD AND W KENNEDY BOULEVARD", "TRAPID": 3103, "NODEID": null, "PATTERN": "SOUTH SUNR", "CITY": "EATONVILLE", "COUNTY": "ORANGE", "SHELTER": "NO" }, "geometry": { "type": "Point", "coordinates": [ -81.387220389679854, 28.62076964988983 ] } },
{ "type": "Feature", "properties": { "ROUTE": "1", "DIRECTION": 1, "SEQUENCE": 16, "LAT": 28.618903580000001, "LONG": -81.387229860000005, "STOPID": 3104, "STOPNAME": "S LAKE DESTINY ROAD AND W KENNEDY BOULEVARD", "TRAPID": 3104, "NODEID": null, "PATTERN": "SOUTH SUNR", "CITY": "EATONVILLE", "COUNTY": "ORANGE", "SHELTER": "NO" }, "geometry": { "type": "Point", "coordinates": [ -81.387229860222149, 28.618903580348601 ] } },
{ "type": "Feature", "properties": { "ROUTE": "1", "DIRECTION": 1, "SEQUENCE": 17, "LAT": 28.61822227, "LONG": -81.384961540000006, "STOPID": 3105, "STOPNAME": "E KENNEDY BOULEVARD AND S WYMORE ROAD", "TRAPID": 3105, "NODEID": null, "PATTERN": "SOUTH SUNR", "CITY": "EATONVILLE", "COUNTY": "ORANGE", "SHELTER": "NO" }, "geometry": { "type": "Point", "coordinates": [ -81.384961539696249, 28.618222270372801 ] } },
{ "type": "Feature", "properties": { "ROUTE": "1", "DIRECTION": 1, "SEQUENCE": 18, "LAT": 28.618223369999999, "LONG": -81.383895780000003, "STOPID": 5943, "STOPNAME": "E KENNEDY BOULEVARD AND GABRIEL STREET", "TRAPID": 5943, "NODEID": null, "PATTERN": "SOUTH SUNR", "CITY": "EATONVILLE", "COUNTY": "ORANGE", "SHELTER": "NO" }, "geometry": { "type": "Point", "coordinates": [ -81.383895779840444, 28.618223369748396 ] } },
{ "type": "Feature", "properties": { "ROUTE": "1", "DIRECTION": 1, "SEQUENCE": 19, "LAT": 28.618260060000001, "LONG": -81.381826219999994, "STOPID": 6269, "STOPNAME": "E KENNEDY BOULEVARD AND N COLLEGE AVENUE", "TRAPID": 6269, "NODEID": null, "PATTERN": "SOUTH SUNR", "CITY": "EATONVILLE", "COUNTY": "ORANGE", "SHELTER": "YES" }, "geometry": { "type": "Point", "coordinates": [ -81.381826220043095, 28.618260059806129 ] } },
{ "type": "Feature", "properties": { "ROUTE": "1", "DIRECTION": 1, "SEQUENCE": 20, "LAT": 28.6184513, "LONG": -81.378970379999998, "STOPID": 5941, "STOPNAME": "E KENNEDY BOULEVARD AND N CALHOUN AVENUE", "TRAPID": 5941, "NODEID": "ECH", "PATTERN": "SOUTH SUNR", "CITY": "EATONVILLE", "COUNTY": "ORANGE", "SHELTER": "YES" }, "geometry": { "type": "Point", "coordinates": [ -81.378970380497989, 28.618451300349339 ] } },
{ "type": "Feature", "properties": { "ROUTE": "1", "DIRECTION": 1, "SEQUENCE": 21, "LAT": 28.618466550000001, "LONG": -81.377439210000006, "STOPID": 5942, "STOPNAME": "E KENNEDY BOULEVARD AND S WEST STREET", "TRAPID": 5942, "NODEID": null, "PATTERN": "SOUTH SUNR", "CITY": "EATONVILLE", "COUNTY": "ORANGE", "SHELTER": "YES" }, "geometry": { "type": "Point", "coordinates": [ -81.377439209740729, 28.6184665498421 ] } },
{ "type": "Feature", "properties": { "ROUTE": "1", "DIRECTION": 1, "SEQUENCE": 22, "LAT": 28.618153320000001, "LONG": -81.373956620000001, "STOPID": 3076, "STOPNAME": "LAKE  AVE AND GROVE  ST", "TRAPID": 3076, "NODEID": null, "PATTERN": "SOUTH SUNR", "CITY": "MAITLAND", "COUNTY": "ORANGE", "SHELTER": "NO" }, "geometry": { "type": "Point", "coordinates": [ -81.373956619792494, 28.61815331992123 ] } },
{ "type": "Feature", "properties": { "ROUTE": "1", "DIRECTION": 1, "SEQUENCE": 23, "LAT": 28.618463739999999, "LONG": -81.367856509999996, "STOPID": 3077, "STOPNAME": "LAKE AVENUE AND COTTONTAIL LANE", "TRAPID": 3077, "NODEID": null, "PATTERN": "SOUTH SUNR", "CITY": "MAITLAND", "COUNTY": "ORANGE", "SHELTER": "NO" }, "geometry": { "type": "Point", "coordinates": [ -81.367856509588975, 28.618463739878781 ] } },
{ "type": "Feature", "properties": { "ROUTE": "1", "DIRECTION": 1, "SEQUENCE": 24, "LAT": 28.618438999999999, "LONG": -81.366793079999994, "STOPID": 3078, "STOPNAME": "LAKE AVENUE AND S ORLANDO AVENUE", "TRAPID": 3078, "NODEID": null, "PATTERN": "SOUTH SUNR", "CITY": "MAITLAND", "COUNTY": "ORANGE", "SHELTER": "NO" }, "geometry": { "type": "Point", "coordinates": [ -81.36679307975038, 28.618439000131463 ] } },
{ "type": "Feature", "properties": { "ROUTE": "1", "DIRECTION": 1, "SEQUENCE": 25, "LAT": 28.617956060000001, "LONG": -81.365663839999996, "STOPID": 3079, "STOPNAME": "S ORLANDO AVENUE AND LAKE AVENUE", "TRAPID": 3079, "NODEID": null, "PATTERN": "SOUTH SUNR", "CITY": "MAITLAND", "COUNTY": "ORANGE", "SHELTER": "NO" }, "geometry": { "type": "Point", "coordinates": [ -81.365663839630983, 28.61795606037791 ] } },
{ "type": "Feature", "properties": { "ROUTE": "1", "DIRECTION": 1, "SEQUENCE": 26, "LAT": 28.616027769999999, "LONG": -81.365637379999995, "STOPID": 3080, "STOPNAME": "S ORLANDO AVENUE AND MAGNOLIA ROAD", "TRAPID": 3080, "NODEID": null, "PATTERN": "SOUTH SUNR", "CITY": "MAITLAND", "COUNTY": "ORANGE", "SHELTER": "NO" }, "geometry": { "type": "Point", "coordinates": [ -81.365637380172075, 28.61602777013648 ] } },
{ "type": "Feature", "properties": { "ROUTE": "1", "DIRECTION": 1, "SEQUENCE": 27, "LAT": 28.614590249999999, "LONG": -81.365622340000002, "STOPID": 3081, "STOPNAME": "S ORLANDO AVENUE AND CIRCLE DRIVE", "TRAPID": 3081, "NODEID": null, "PATTERN": "SOUTH SUNR", "CITY": "MAITLAND", "COUNTY": "ORANGE", "SHELTER": "NO" }, "geometry": { "type": "Point", "coordinates": [ -81.365622340184416, 28.6145902495537 ] } },
{ "type": "Feature", "properties": { "ROUTE": "1", "DIRECTION": 1, "SEQUENCE": 28, "LAT": 28.610691809999999, "LONG": -81.365461440000004, "STOPID": 3142, "STOPNAME": "S ORLANDO AVENUE AND ELVIN AVENUE", "TRAPID": 3142, "NODEID": null, "PATTERN": "SOUTH SUNR", "CITY": null, "COUNTY": "ORANGE", "SHELTER": "NO" }, "geometry": { "type": "Point", "coordinates": [ -81.365461439696901, 28.610691809783827 ] } },
{ "type": "Feature", "properties": { "ROUTE": "1", "DIRECTION": 1, "SEQUENCE": 29, "LAT": 28.60911973, "LONG": -81.365380329999994, "STOPID": 3143, "STOPNAME": "N ORLANDO AVENUE AND GLENDON PARKWAY", "TRAPID": 3143, "NODEID": null, "PATTERN": "SOUTH SUNR", "CITY": "WINTER PARK", "COUNTY": "ORANGE", "SHELTER": "NO" }, "geometry": { "type": "Point", "coordinates": [ -81.365380329686701, 28.609119729996799 ] } },
{ "type": "Feature", "properties": { "ROUTE": "1", "DIRECTION": 1, "SEQUENCE": 30, "LAT": 28.60391834, "LONG": -81.363681580000005, "STOPID": 3144, "STOPNAME": "W WEBSTER  AVE AND N ORLANDO  AVE", "TRAPID": 3144, "NODEID": null, "PATTERN": "SOUTH SUNR", "CITY": "WINTER PARK", "COUNTY": "ORANGE", "SHELTER": "NO" }, "geometry": { "type": "Point", "coordinates": [ -81.363681579723348, 28.603918339748699 ] } },
{ "type": "Feature", "properties": { "ROUTE": "1", "DIRECTION": 1, "SEQUENCE": 31, "LAT": 28.603581309999999, "LONG": -81.361249180000002, "STOPID": 3145, "STOPNAME": "N DENNING DRIVE AND W WEBSTER AVENUE", "TRAPID": 3145, "NODEID": "DEWE", "PATTERN": "SOUTH SUNR", "CITY": "WINTER PARK", "COUNTY": "ORANGE", "SHELTER": "YES" }, "geometry": { "type": "Point", "coordinates": [ -81.361249180044268, 28.603581309899187 ] } },
{ "type": "Feature", "properties": { "ROUTE": "1", "DIRECTION": 1, "SEQUENCE": 34, "LAT": 28.595799960000001, "LONG": -81.352696600000002, "STOPID": 3130, "STOPNAME": "S NEW YORK  AVE AND W NEW ENGLAND  AVE", "TRAPID": 3130, "NODEID": "NYNE", "PATTERN": "SOUTH SUNR", "CITY": "WINTER PARK", "COUNTY": "ORANGE", "SHELTER": "YES" }, "geometry": { "type": "Point", "coordinates": [ -81.352696599916982, 28.595799960178713 ] } },
{ "type": "Feature", "properties": { "ROUTE": "1", "DIRECTION": 1, "SEQUENCE": 1, "LAT": 28.66487201, "LONG": -81.377821699999998, "STOPID": 1322, "STOPNAME": "E ALTAMONTE DR AND ESSEX AVE", "TRAPID": 1322, "NODEID": "ALTM", "PATTERN": "SOUTHBOUND", "CITY": "ALTAMONTE SPRINGS", "COUNTY": "SEMINOLE", "SHELTER": "NO" }, "geometry": { "type": "Point", "coordinates": [ -81.377821699882773, 28.664872009816662 ] } },
{ "type": "Feature", "properties": { "ROUTE": "1", "DIRECTION": 1, "SEQUENCE": 2, "LAT": 28.662271059999998, "LONG": -81.383304839999994, "STOPID": 1324, "STOPNAME": "E ALTAMONTE DR AND CRANES ROOST BLVD", "TRAPID": 1324, "NODEID": null, "PATTERN": "SOUTHBOUND", "CITY": "ALTAMONTE SPRINGS", "COUNTY": "SEMINOLE", "SHELTER": "YES" }, "geometry": { "type": "Point", "coordinates": [ -81.383304840381982, 28.662271059772184 ] } },
{ "type": "Feature", "properties": { "ROUTE": "1", "DIRECTION": 1, "SEQUENCE": 3, "LAT": 28.660430789999999, "LONG": -81.390486420000002, "STOPID": 1272, "STOPNAME": "WYMORE RD AND W SR 436", "TRAPID": 1272, "NODEID": null, "PATTERN": "SOUTHBOUND", "CITY": "ALTAMONTE SPRINGS", "COUNTY": "SEMINOLE", "SHELTER": "NO" }, "geometry": { "type": "Point", "coordinates": [ -81.390486420372198, 28.660430790403812 ] } },
{ "type": "Feature", "properties": { "ROUTE": "1", "DIRECTION": 1, "SEQUENCE": 4, "LAT": 28.658395290000001, "LONG": -81.390397879999995, "STOPID": 1273, "STOPNAME": "WYMORE RD AND S WESTMONTE DR", "TRAPID": 1273, "NODEID": null, "PATTERN": "SOUTHBOUND", "CITY": "ALTAMONTE SPRINGS", "COUNTY": "SEMINOLE", "SHELTER": "NO" }, "geometry": { "type": "Point", "coordinates": [ -81.390397880292355, 28.658395290130077 ] } },
{ "type": "Feature", "properties": { "ROUTE": "1", "DIRECTION": 1, "SEQUENCE": 5, "LAT": 28.654687590000002, "LONG": -81.390393169999996, "STOPID": 1274, "STOPNAME": "WYMORE RD AND SPANISH TRACE DR", "TRAPID": 1274, "NODEID": null, "PATTERN": "SOUTHBOUND", "CITY": "ALTAMONTE SPRINGS", "COUNTY": "SEMINOLE", "SHELTER": "NO" }, "geometry": { "type": "Point", "coordinates": [ -81.390393169727233, 28.654687589729892 ] } },
{ "type": "Feature", "properties": { "ROUTE": "1", "DIRECTION": 1, "SEQUENCE": 6, "LAT": 28.65165777, "LONG": -81.390421189999998, "STOPID": 1275, "STOPNAME": "WYMORE RD AND SPANISH TRACE DR", "TRAPID": 1275, "NODEID": null, "PATTERN": "SOUTHBOUND", "CITY": "ALTAMONTE SPRINGS", "COUNTY": "SEMINOLE", "SHELTER": "NO" }, "geometry": { "type": "Point", "coordinates": [ -81.390421189858088, 28.651657769588077 ] } },
{ "type": "Feature", "properties": { "ROUTE": "1", "DIRECTION": 1, "SEQUENCE": 7, "LAT": 28.647909949999999, "LONG": -81.390401530000005, "STOPID": 1060, "STOPNAME": "WYMORE RD AND ASHFORD OAKS DR", "TRAPID": 1060, "NODEID": null, "PATTERN": "SOUTHBOUND", "CITY": "ALTAMONTE SPRINGS", "COUNTY": "SEMINOLE", "SHELTER": "NO" }, "geometry": { "type": "Point", "coordinates": [ -81.390401529982285, 28.647909949740058 ] } },
{ "type": "Feature", "properties": { "ROUTE": "1", "DIRECTION": 1, "SEQUENCE": 8, "LAT": 28.645344690000002, "LONG": -81.390291629999993, "STOPID": 1061, "STOPNAME": "WYMORE RD AND SPRING LAKE HILLS DR", "TRAPID": 1061, "NODEID": null, "PATTERN": "SOUTHBOUND", "CITY": "ALTAMONTE SPRINGS", "COUNTY": "SEMINOLE", "SHELTER": "NO" }, "geometry": { "type": "Point", "coordinates": [ -81.390291630029097, 28.645344689881281 ] } },
{ "type": "Feature", "properties": { "ROUTE": "1", "DIRECTION": 1, "SEQUENCE": 9, "LAT": 28.64190975, "LONG": -81.389251389999998, "STOPID": 1276, "STOPNAME": "LAKE DESTINY RD AND LAKE DESTINY RD", "TRAPID": 1276, "NODEID": null, "PATTERN": "SOUTHBOUND", "CITY": "ALTAMONTE SPRINGS", "COUNTY": "SEMINOLE", "SHELTER": "NO" }, "geometry": { "type": "Point", "coordinates": [ -81.389251389562247, 28.641909750212896 ] } },
{ "type": "Feature", "properties": { "ROUTE": "1", "DIRECTION": 1, "SEQUENCE": 10, "LAT": 28.637704660000001, "LONG": -81.388231529999999, "STOPID": 3071, "STOPNAME": "N LAKE DESTINY ROAD AND LAKE DESTINY RD", "TRAPID": 3071, "NODEID": null, "PATTERN": "SOUTHBOUND", "CITY": "MAITLAND", "COUNTY": "ORANGE", "SHELTER": "NO" }, "geometry": { "type": "Point", "coordinates": [ -81.388231529980317, 28.637704659914835 ] } },
{ "type": "Feature", "properties": { "ROUTE": "1", "DIRECTION": 1, "SEQUENCE": 11, "LAT": 28.633262670000001, "LONG": -81.390697810000006, "STOPID": 3072, "STOPNAME": "N LAKE DESTINY ROAD AND MAITLAND CENTER PARKWAY", "TRAPID": 3072, "NODEID": "MCTR", "PATTERN": "SOUTHBOUND", "CITY": "MAITLAND", "COUNTY": "ORANGE", "SHELTER": "YES" }, "geometry": { "type": "Point", "coordinates": [ -81.3906978099794, 28.633262670335696 ] } },
{ "type": "Feature", "properties": { "ROUTE": "1", "DIRECTION": 1, "SEQUENCE": 12, "LAT": 28.629276229999999, "LONG": -81.391130369999999, "STOPID": 3073, "STOPNAME": "N LAKE DESTINY ROAD AND SOUTHHALL LANE", "TRAPID": 3073, "NODEID": null, "PATTERN": "SOUTHBOUND", "CITY": "MAITLAND", "COUNTY": "ORANGE", "SHELTER": "YES" }, "geometry": { "type": "Point", "coordinates": [ -81.391130369991146, 28.629276230423223 ] } },
{ "type": "Feature", "properties": { "ROUTE": "1", "DIRECTION": 1, "SEQUENCE": 13, "LAT": 28.625665789999999, "LONG": -81.387318120000003, "STOPID": 3074, "STOPNAME": "N LAKE DESTINY ROAD AND LUCIEN WAY", "TRAPID": 3074, "NODEID": null, "PATTERN": "SOUTHBOUND", "CITY": "MAITLAND", "COUNTY": "ORANGE", "SHELTER": "NO" }, "geometry": { "type": "Point", "coordinates": [ -81.387318119514646, 28.625665789977969 ] } },
{ "type": "Feature", "properties": { "ROUTE": "1", "DIRECTION": 1, "SEQUENCE": 14, "LAT": 28.622434030000001, "LONG": -81.387252570000001, "STOPID": 3075, "STOPNAME": "S LAKE DESTINY ROAD AND LUCIEN WAY", "TRAPID": 3075, "NODEID": null, "PATTERN": "SOUTHBOUND", "CITY": "MAITLAND", "COUNTY": "ORANGE", "SHELTER": "NO" }, "geometry": { "type": "Point", "coordinates": [ -81.387252569569654, 28.622434029747648 ] } },
{ "type": "Feature", "properties": { "ROUTE": "1", "DIRECTION": 1, "SEQUENCE": 15, "LAT": 28.62076965, "LONG": -81.387220389999996, "STOPID": 3103, "STOPNAME": "S LAKE DESTINY ROAD AND W KENNEDY BOULEVARD", "TRAPID": 3103, "NODEID": null, "PATTERN": "SOUTHBOUND", "CITY": "EATONVILLE", "COUNTY": "ORANGE", "SHELTER": "NO" }, "geometry": { "type": "Point", "coordinates": [ -81.387220389679854, 28.62076964988983 ] } },
{ "type": "Feature", "properties": { "ROUTE": "1", "DIRECTION": 1, "SEQUENCE": 16, "LAT": 28.618903580000001, "LONG": -81.387229860000005, "STOPID": 3104, "STOPNAME": "S LAKE DESTINY ROAD AND W KENNEDY BOULEVARD", "TRAPID": 3104, "NODEID": null, "PATTERN": "SOUTHBOUND", "CITY": "EATONVILLE", "COUNTY": "ORANGE", "SHELTER": "NO" }, "geometry": { "type": "Point", "coordinates": [ -81.387229860222149, 28.618903580348601 ] } },
{ "type": "Feature", "properties": { "ROUTE": "1", "DIRECTION": 1, "SEQUENCE": 17, "LAT": 28.61822227, "LONG": -81.384961540000006, "STOPID": 3105, "STOPNAME": "E KENNEDY BOULEVARD AND S WYMORE ROAD", "TRAPID": 3105, "NODEID": null, "PATTERN": "SOUTHBOUND", "CITY": "EATONVILLE", "COUNTY": "ORANGE", "SHELTER": "NO" }, "geometry": { "type": "Point", "coordinates": [ -81.384961539696249, 28.618222270372801 ] } },
{ "type": "Feature", "properties": { "ROUTE": "1", "DIRECTION": 1, "SEQUENCE": 18, "LAT": 28.618223369999999, "LONG": -81.383895780000003, "STOPID": 5943, "STOPNAME": "E KENNEDY BOULEVARD AND GABRIEL STREET", "TRAPID": 5943, "NODEID": null, "PATTERN": "SOUTHBOUND", "CITY": "EATONVILLE", "COUNTY": "ORANGE", "SHELTER": "NO" }, "geometry": { "type": "Point", "coordinates": [ -81.383895779840444, 28.618223369748396 ] } },
{ "type": "Feature", "properties": { "ROUTE": "1", "DIRECTION": 1, "SEQUENCE": 19, "LAT": 28.618260060000001, "LONG": -81.381826219999994, "STOPID": 6269, "STOPNAME": "E KENNEDY BOULEVARD AND N COLLEGE AVENUE", "TRAPID": 6269, "NODEID": null, "PATTERN": "SOUTHBOUND", "CITY": "EATONVILLE", "COUNTY": "ORANGE", "SHELTER": "YES" }, "geometry": { "type": "Point", "coordinates": [ -81.381826220043095, 28.618260059806129 ] } },
{ "type": "Feature", "properties": { "ROUTE": "1", "DIRECTION": 1, "SEQUENCE": 20, "LAT": 28.6184513, "LONG": -81.378970379999998, "STOPID": 5941, "STOPNAME": "E KENNEDY BOULEVARD AND N CALHOUN AVENUE", "TRAPID": 5941, "NODEID": "ECH", "PATTERN": "SOUTHBOUND", "CITY": "EATONVILLE", "COUNTY": "ORANGE", "SHELTER": "YES" }, "geometry": { "type": "Point", "coordinates": [ -81.378970380497989, 28.618451300349339 ] } },
{ "type": "Feature", "properties": { "ROUTE": "1", "DIRECTION": 1, "SEQUENCE": 21, "LAT": 28.618466550000001, "LONG": -81.377439210000006, "STOPID": 5942, "STOPNAME": "E KENNEDY BOULEVARD AND S WEST STREET", "TRAPID": 5942, "NODEID": null, "PATTERN": "SOUTHBOUND", "CITY": "EATONVILLE", "COUNTY": "ORANGE", "SHELTER": "YES" }, "geometry": { "type": "Point", "coordinates": [ -81.377439209740729, 28.6184665498421 ] } },
{ "type": "Feature", "properties": { "ROUTE": "1", "DIRECTION": 1, "SEQUENCE": 22, "LAT": 28.618153320000001, "LONG": -81.373956620000001, "STOPID": 3076, "STOPNAME": "LAKE  AVE AND GROVE  ST", "TRAPID": 3076, "NODEID": null, "PATTERN": "SOUTHBOUND", "CITY": "MAITLAND", "COUNTY": "ORANGE", "SHELTER": "NO" }, "geometry": { "type": "Point", "coordinates": [ -81.373956619792494, 28.61815331992123 ] } },
{ "type": "Feature", "properties": { "ROUTE": "1", "DIRECTION": 1, "SEQUENCE": 23, "LAT": 28.618463739999999, "LONG": -81.367856509999996, "STOPID": 3077, "STOPNAME": "LAKE AVENUE AND COTTONTAIL LANE", "TRAPID": 3077, "NODEID": null, "PATTERN": "SOUTHBOUND", "CITY": "MAITLAND", "COUNTY": "ORANGE", "SHELTER": "NO" }, "geometry": { "type": "Point", "coordinates": [ -81.367856509588975, 28.618463739878781 ] } },
{ "type": "Feature", "properties": { "ROUTE": "1", "DIRECTION": 1, "SEQUENCE": 24, "LAT": 28.618438999999999, "LONG": -81.366793079999994, "STOPID": 3078, "STOPNAME": "LAKE AVENUE AND S ORLANDO AVENUE", "TRAPID": 3078, "NODEID": null, "PATTERN": "SOUTHBOUND", "CITY": "MAITLAND", "COUNTY": "ORANGE", "SHELTER": "NO" }, "geometry": { "type": "Point", "coordinates": [ -81.36679307975038, 28.618439000131463 ] } },
{ "type": "Feature", "properties": { "ROUTE": "1", "DIRECTION": 1, "SEQUENCE": 25, "LAT": 28.617956060000001, "LONG": -81.365663839999996, "STOPID": 3079, "STOPNAME": "S ORLANDO AVENUE AND LAKE AVENUE", "TRAPID": 3079, "NODEID": null, "PATTERN": "SOUTHBOUND", "CITY": "MAITLAND", "COUNTY": "ORANGE", "SHELTER": "NO" }, "geometry": { "type": "Point", "coordinates": [ -81.365663839630983, 28.61795606037791 ] } },
{ "type": "Feature", "properties": { "ROUTE": "1", "DIRECTION": 1, "SEQUENCE": 26, "LAT": 28.616027769999999, "LONG": -81.365637379999995, "STOPID": 3080, "STOPNAME": "S ORLANDO AVENUE AND MAGNOLIA ROAD", "TRAPID": 3080, "NODEID": null, "PATTERN": "SOUTHBOUND", "CITY": "MAITLAND", "COUNTY": "ORANGE", "SHELTER": "NO" }, "geometry": { "type": "Point", "coordinates": [ -81.365637380172075, 28.61602777013648 ] } },
{ "type": "Feature", "properties": { "ROUTE": "1", "DIRECTION": 1, "SEQUENCE": 27, "LAT": 28.614590249999999, "LONG": -81.365622340000002, "STOPID": 3081, "STOPNAME": "S ORLANDO AVENUE AND CIRCLE DRIVE", "TRAPID": 3081, "NODEID": null, "PATTERN": "SOUTHBOUND", "CITY": "MAITLAND", "COUNTY": "ORANGE", "SHELTER": "NO" }, "geometry": { "type": "Point", "coordinates": [ -81.365622340184416, 28.6145902495537 ] } },
{ "type": "Feature", "properties": { "ROUTE": "1", "DIRECTION": 1, "SEQUENCE": 28, "LAT": 28.610691809999999, "LONG": -81.365461440000004, "STOPID": 3142, "STOPNAME": "S ORLANDO AVENUE AND ELVIN AVENUE", "TRAPID": 3142, "NODEID": null, "PATTERN": "SOUTHBOUND", "CITY": null, "COUNTY": "ORANGE", "SHELTER": "NO" }, "geometry": { "type": "Point", "coordinates": [ -81.365461439696901, 28.610691809783827 ] } },
{ "type": "Feature", "properties": { "ROUTE": "1", "DIRECTION": 1, "SEQUENCE": 29, "LAT": 28.60911973, "LONG": -81.365380329999994, "STOPID": 3143, "STOPNAME": "N ORLANDO AVENUE AND GLENDON PARKWAY", "TRAPID": 3143, "NODEID": null, "PATTERN": "SOUTHBOUND", "CITY": "WINTER PARK", "COUNTY": "ORANGE", "SHELTER": "NO" }, "geometry": { "type": "Point", "coordinates": [ -81.365380329686701, 28.609119729996799 ] } },
{ "type": "Feature", "properties": { "ROUTE": "1", "DIRECTION": 1, "SEQUENCE": 30, "LAT": 28.60391834, "LONG": -81.363681580000005, "STOPID": 3144, "STOPNAME": "W WEBSTER  AVE AND N ORLANDO  AVE", "TRAPID": 3144, "NODEID": null, "PATTERN": "SOUTHBOUND", "CITY": "WINTER PARK", "COUNTY": "ORANGE", "SHELTER": "NO" }, "geometry": { "type": "Point", "coordinates": [ -81.363681579723348, 28.603918339748699 ] } },
{ "type": "Feature", "properties": { "ROUTE": "1", "DIRECTION": 1, "SEQUENCE": 33, "LAT": 28.604069039999999, "LONG": -81.361660520000001, "STOPID": 3138, "STOPNAME": "W WEBSTER AVENUE AND N DENNING DRIVE", "TRAPID": 3138, "NODEID": "DEWE", "PATTERN": "SOUTHBOUND", "CITY": "WINTER PARK", "COUNTY": "ORANGE", "SHELTER": "YES" }, "geometry": { "type": "Point", "coordinates": [ -81.361660519921543, 28.604069040191622 ] } },
{ "type": "Feature", "properties": { "ROUTE": "3", "DIRECTION": 1, "SEQUENCE": 1, "LAT": 28.495784919999998, "LONG": -81.314224640000006, "STOPID": 4774, "STOPNAME": "DIXIE BELLE DR AND GATLIN AVE TRANSFER CENTER", "TRAPID": 4774, "NODEID": "GADB", "PATTERN": "INBOUND", "CITY": "ORLANDO", "COUNTY": "ORANGE", "SHELTER": "NO" }, "geometry": { "type": "Point", "coordinates": [ -81.314224640366433, 28.495784920002176 ] } },
{ "type": "Feature", "properties": { "ROUTE": "3", "DIRECTION": 1, "SEQUENCE": 2, "LAT": 28.498806510000001, "LONG": -81.312567819999998, "STOPID": 4057, "STOPNAME": "PERSHING AVENUE AND THORNBRIAR LANE", "TRAPID": 4057, "NODEID": null, "PATTERN": "INBOUND", "CITY": "ORLANDO", "COUNTY": "ORANGE", "SHELTER": "YES" }, "geometry": { "type": "Point", "coordinates": [ -81.312567819531949, 28.498806509558335 ] } },
{ "type": "Feature", "properties": { "ROUTE": "3", "DIRECTION": 1, "SEQUENCE": 3, "LAT": 28.499834979999999, "LONG": -81.310020089999995, "STOPID": 5774, "STOPNAME": "S SEMORAN BOULEVARD AND PERSHING AVENUE", "TRAPID": 5774, "NODEID": null, "PATTERN": "INBOUND", "CITY": "ORLANDO", "COUNTY": "ORANGE", "SHELTER": "YES" }, "geometry": { "type": "Point", "coordinates": [ -81.310020090234403, 28.499834980273302 ] } },
{ "type": "Feature", "properties": { "ROUTE": "3", "DIRECTION": 1, "SEQUENCE": 4, "LAT": 28.506155140000001, "LONG": -81.312690000000003, "STOPID": 5502, "STOPNAME": "LAKE MARGARET DRIVE AND DIXIE BELLE DRIVE", "TRAPID": 5502, "NODEID": null, "PATTERN": "INBOUND", "CITY": "ORLANDO", "COUNTY": "ORANGE", "SHELTER": "YES" }, "geometry": { "type": "Point", "coordinates": [ -81.312690000279986, 28.506155140247316 ] } },
{ "type": "Feature", "properties": { "ROUTE": "3", "DIRECTION": 1, "SEQUENCE": 5, "LAT": 28.506245740000001, "LONG": -81.315806010000003, "STOPID": 4430, "STOPNAME": "LAKE MARGARET DRIVE AND DIXIE BELLE DRIVE", "TRAPID": 4430, "NODEID": null, "PATTERN": "INBOUND", "CITY": "ORLANDO", "COUNTY": "ORANGE", "SHELTER": "NO" }, "geometry": { "type": "Point", "coordinates": [ -81.315806009735283, 28.506245739852272 ] } },
{ "type": "Feature", "properties": { "ROUTE": "3", "DIRECTION": 1, "SEQUENCE": 6, "LAT": 28.506231790000001, "LONG": -81.318670670000003, "STOPID": 5327, "STOPNAME": "LAKE MARGARET DRIVE AND SOUTHFORK RANCH DRIVE", "TRAPID": 5327, "NODEID": null, "PATTERN": "INBOUND", "CITY": null, "COUNTY": "ORANGE", "SHELTER": "NO" }, "geometry": { "type": "Point", "coordinates": [ -81.318670670273235, 28.506231790065552 ] } },
{ "type": "Feature", "properties": { "ROUTE": "3", "DIRECTION": 1, "SEQUENCE": 7, "LAT": 28.506171949999999, "LONG": -81.324453379999994, "STOPID": 5328, "STOPNAME": "LAKE MARGARET DRIVE AND BERRYWOOD DRIVE", "TRAPID": 5328, "NODEID": null, "PATTERN": "INBOUND", "CITY": null, "COUNTY": "ORANGE", "SHELTER": "NO" }, "geometry": { "type": "Point", "coordinates": [ -81.324453379818394, 28.506171950135347 ] } },
{ "type": "Feature", "properties": { "ROUTE": "3", "DIRECTION": 1, "SEQUENCE": 8, "LAT": 28.506147800000001, "LONG": -81.327334469999997, "STOPID": 5329, "STOPNAME": "LAKE MARGARET DRIVE AND CARISUDO COURT", "TRAPID": 5329, "NODEID": null, "PATTERN": "INBOUND", "CITY": null, "COUNTY": "ORANGE", "SHELTER": "NO" }, "geometry": { "type": "Point", "coordinates": [ -81.327334470255607, 28.506147800367156 ] } },
{ "type": "Feature", "properties": { "ROUTE": "3", "DIRECTION": 1, "SEQUENCE": 9, "LAT": 28.506108879999999, "LONG": -81.330557159999998, "STOPID": 5442, "STOPNAME": "LAKE MARGARET DRIVE AND CONWAY ROAD", "TRAPID": 5442, "NODEID": null, "PATTERN": "INBOUND", "CITY": null, "COUNTY": "ORANGE", "SHELTER": "NO" }, "geometry": { "type": "Point", "coordinates": [ -81.330557160365117, 28.506108880113647 ] } },
{ "type": "Feature", "properties": { "ROUTE": "3", "DIRECTION": 1, "SEQUENCE": 10, "LAT": 28.50608265, "LONG": -81.332082510000006, "STOPID": 5330, "STOPNAME": "LAKE MARGARET DRIVE AND CONWAY ROAD", "TRAPID": 5330, "NODEID": "COLA", "PATTERN": "INBOUND", "CITY": null, "COUNTY": "ORANGE", "SHELTER": "NO" }, "geometry": { "type": "Point", "coordinates": [ -81.332082509704506, 28.506082649809684 ] } },
{ "type": "Feature", "properties": { "ROUTE": "3", "DIRECTION": 1, "SEQUENCE": 11, "LAT": 28.50619944, "LONG": -81.335133929999998, "STOPID": 5331, "STOPNAME": "LAKE MARGARET DRIVE AND CONDEL DRIVE", "TRAPID": 5331, "NODEID": null, "PATTERN": "INBOUND", "CITY": null, "COUNTY": "ORANGE", "SHELTER": "NO" }, "geometry": { "type": "Point", "coordinates": [ -81.335133929585695, 28.506199439727169 ] } },
{ "type": "Feature", "properties": { "ROUTE": "3", "DIRECTION": 1, "SEQUENCE": 12, "LAT": 28.50618995, "LONG": -81.336852219999997, "STOPID": 5333, "STOPNAME": "LAKE MARGARET DRIVE AND TOURAINE AVENUE", "TRAPID": 5333, "NODEID": null, "PATTERN": "INBOUND", "CITY": null, "COUNTY": "ORANGE", "SHELTER": "NO" }, "geometry": { "type": "Point", "coordinates": [ -81.336852219906092, 28.506189949981955 ] } },
{ "type": "Feature", "properties": { "ROUTE": "3", "DIRECTION": 1, "SEQUENCE": 13, "LAT": 28.506174390000002, "LONG": -81.33885196, "STOPID": 6045, "STOPNAME": "LAKE MARGARET DRIVE AND CONWAY GARDENS ROAD", "TRAPID": 6045, "NODEID": null, "PATTERN": "INBOUND", "CITY": null, "COUNTY": "ORANGE", "SHELTER": "NO" }, "geometry": { "type": "Point", "coordinates": [ -81.338851960271313, 28.506174389770027 ] } },
{ "type": "Feature", "properties": { "ROUTE": "3", "DIRECTION": 1, "SEQUENCE": 14, "LAT": 28.50616947, "LONG": -81.341106330000002, "STOPID": 5334, "STOPNAME": "LAKE MARGARET DRIVE AND JAN DRIVE", "TRAPID": 5334, "NODEID": null, "PATTERN": "INBOUND", "CITY": null, "COUNTY": "ORANGE", "SHELTER": "NO" }, "geometry": { "type": "Point", "coordinates": [ -81.341106329802457, 28.506169470396056 ] } },
{ "type": "Feature", "properties": { "ROUTE": "3", "DIRECTION": 1, "SEQUENCE": 15, "LAT": 28.506006339999999, "LONG": -81.343739040000003, "STOPID": 5332, "STOPNAME": "LAKE MARGARET DRIVE AND S CRYSTAL LAKE DRIVE", "TRAPID": 5332, "NODEID": null, "PATTERN": "INBOUND", "CITY": null, "COUNTY": "ORANGE", "SHELTER": "NO" }, "geometry": { "type": "Point", "coordinates": [ -81.343739040078574, 28.506006339695887 ] } },
{ "type": "Feature", "properties": { "ROUTE": "3", "DIRECTION": 1, "SEQUENCE": 16, "LAT": 28.506556549999999, "LONG": -81.347385410000001, "STOPID": 5335, "STOPNAME": "PEEL AVENUE AND SHEFFIELD AVENUE", "TRAPID": 5335, "NODEID": null, "PATTERN": "INBOUND", "CITY": null, "COUNTY": "ORANGE", "SHELTER": "NO" }, "geometry": { "type": "Point", "coordinates": [ -81.347385409795962, 28.506556549767737 ] } },
{ "type": "Feature", "properties": { "ROUTE": "3", "DIRECTION": 1, "SEQUENCE": 17, "LAT": 28.51008203, "LONG": -81.347404080000004, "STOPID": 5336, "STOPNAME": "PEEL AVENUE AND SHANNON ROAD", "TRAPID": 5336, "NODEID": null, "PATTERN": "INBOUND", "CITY": null, "COUNTY": "ORANGE", "SHELTER": "NO" }, "geometry": { "type": "Point", "coordinates": [ -81.347404079985381, 28.510082030021191 ] } },
{ "type": "Feature", "properties": { "ROUTE": "3", "DIRECTION": 1, "SEQUENCE": 18, "LAT": 28.513743739999999, "LONG": -81.347436439999996, "STOPID": 5337, "STOPNAME": "PEEL AVENUE AND E JERSEY AVENUE", "TRAPID": 5337, "NODEID": null, "PATTERN": "INBOUND", "CITY": null, "COUNTY": "ORANGE", "SHELTER": "NO" }, "geometry": { "type": "Point", "coordinates": [ -81.347436440003591, 28.513743740136391 ] } },
{ "type": "Feature", "properties": { "ROUTE": "3", "DIRECTION": 1, "SEQUENCE": 19, "LAT": 28.516346219999999, "LONG": -81.34744225, "STOPID": 5338, "STOPNAME": "PEEL AVENUE AND PAGE AVENUE", "TRAPID": 5338, "NODEID": null, "PATTERN": "INBOUND", "CITY": null, "COUNTY": "ORANGE", "SHELTER": "NO" }, "geometry": { "type": "Point", "coordinates": [ -81.34744225015173, 28.516346219804788 ] } },
{ "type": "Feature", "properties": { "ROUTE": "3", "DIRECTION": 1, "SEQUENCE": 20, "LAT": 28.516881720000001, "LONG": -81.349373170000007, "STOPID": 5339, "STOPNAME": "E GRANT AVENUE AND PEEL AVENUE", "TRAPID": 5339, "NODEID": null, "PATTERN": "INBOUND", "CITY": null, "COUNTY": "ORANGE", "SHELTER": "NO" }, "geometry": { "type": "Point", "coordinates": [ -81.34937317010953, 28.516881719602097 ] } },
{ "type": "Feature", "properties": { "ROUTE": "3", "DIRECTION": 1, "SEQUENCE": 21, "LAT": 28.516865110000001, "LONG": -81.351351339999994, "STOPID": 5340, "STOPNAME": "E GRANT AVENUE AND S BUMBY AVENUE", "TRAPID": 5340, "NODEID": null, "PATTERN": "INBOUND", "CITY": null, "COUNTY": "ORANGE", "SHELTER": "NO" }, "geometry": { "type": "Point", "coordinates": [ -81.351351339778645, 28.516865110224508 ] } },
{ "type": "Feature", "properties": { "ROUTE": "3", "DIRECTION": 1, "SEQUENCE": 22, "LAT": 28.51450475, "LONG": -81.351726999999997, "STOPID": 4431, "STOPNAME": "S BUMBY AVENUE AND E JERSEY AVENUE", "TRAPID": 4431, "NODEID": null, "PATTERN": "INBOUND", "CITY": null, "COUNTY": "ORANGE", "SHELTER": "NO" }, "geometry": { "type": "Point", "coordinates": [ -81.351727000391961, 28.514504749760345 ] } },
{ "type": "Feature", "properties": { "ROUTE": "3", "DIRECTION": 1, "SEQUENCE": 23, "LAT": 28.513292939999999, "LONG": -81.352199499999998, "STOPID": 4432, "STOPNAME": "E MICHIGAN STREET AND S BUMBY AVENUE", "TRAPID": 4432, "NODEID": null, "PATTERN": "INBOUND", "CITY": "ORLANDO", "COUNTY": "ORANGE", "SHELTER": "NO" }, "geometry": { "type": "Point", "coordinates": [ -81.35219950028953, 28.513292939567108 ] } },
{ "type": "Feature", "properties": { "ROUTE": "3", "DIRECTION": 1, "SEQUENCE": 24, "LAT": 28.513266640000001, "LONG": -81.357624779999995, "STOPID": 4433, "STOPNAME": "E MICHIGAN STREET AND IVES AVENUE", "TRAPID": 4433, "NODEID": null, "PATTERN": "INBOUND", "CITY": "ORLANDO", "COUNTY": "ORANGE", "SHELTER": "NO" }, "geometry": { "type": "Point", "coordinates": [ -81.357624780468399, 28.513266640176642 ] } },
{ "type": "Feature", "properties": { "ROUTE": "3", "DIRECTION": 1, "SEQUENCE": 25, "LAT": 28.513226719999999, "LONG": -81.360667789999994, "STOPID": 5341, "STOPNAME": "E MICHIGAN STREET AND S SHINE AVENUE", "TRAPID": 5341, "NODEID": null, "PATTERN": "INBOUND", "CITY": null, "COUNTY": "ORANGE", "SHELTER": "NO" }, "geometry": { "type": "Point", "coordinates": [ -81.360667790388788, 28.513226720327673 ] } },
{ "type": "Feature", "properties": { "ROUTE": "3", "DIRECTION": 1, "SEQUENCE": 26, "LAT": 28.51320909, "LONG": -81.362661239999994, "STOPID": 5342, "STOPNAME": "E MICHIGAN STREET AND MAYER STREET", "TRAPID": 5342, "NODEID": null, "PATTERN": "INBOUND", "CITY": null, "COUNTY": "ORANGE", "SHELTER": "NO" }, "geometry": { "type": "Point", "coordinates": [ -81.362661239670913, 28.513209090446509 ] } },
{ "type": "Feature", "properties": { "ROUTE": "3", "DIRECTION": 1, "SEQUENCE": 27, "LAT": 28.513146379999998, "LONG": -81.368926700000003, "STOPID": 4434, "STOPNAME": "E MICHIGAN STREET AND ZEPHYR ROAD", "TRAPID": 4434, "NODEID": null, "PATTERN": "INBOUND", "CITY": "ORLANDO", "COUNTY": "ORANGE", "SHELTER": "NO" }, "geometry": { "type": "Point", "coordinates": [ -81.368926700265135, 28.513146379731925 ] } },
{ "type": "Feature", "properties": { "ROUTE": "3", "DIRECTION": 1, "SEQUENCE": 28, "LAT": 28.511961929999998, "LONG": -81.372297329999995, "STOPID": 4278, "STOPNAME": "DELANEY AVENUE AND E COMPTON STREET", "TRAPID": 4278, "NODEID": null, "PATTERN": "INBOUND", "CITY": "ORLANDO", "COUNTY": "ORANGE", "SHELTER": "NO" }, "geometry": { "type": "Point", "coordinates": [ -81.372297329627344, 28.51196193017854 ] } },
{ "type": "Feature", "properties": { "ROUTE": "3", "DIRECTION": 1, "SEQUENCE": 29, "LAT": 28.50937893, "LONG": -81.373606480000007, "STOPID": 5291, "STOPNAME": "E PINELOCH AVENUE AND SYLVAN AVENUE", "TRAPID": 5291, "NODEID": null, "PATTERN": "INBOUND", "CITY": null, "COUNTY": "ORANGE", "SHELTER": "NO" }, "geometry": { "type": "Point", "coordinates": [ -81.373606480319665, 28.509378929727426 ] } },
{ "type": "Feature", "properties": { "ROUTE": "3", "DIRECTION": 1, "SEQUENCE": 30, "LAT": 28.509360430000001, "LONG": -81.37580518, "STOPID": 5705, "STOPNAME": "E PINELOCH AVENUE AND S ORANGE AVENUE", "TRAPID": 5705, "NODEID": null, "PATTERN": "INBOUND", "CITY": null, "COUNTY": "ORANGE", "SHELTER": "NO" }, "geometry": { "type": "Point", "coordinates": [ -81.375805180116188, 28.50936043027545 ] } },
{ "type": "Feature", "properties": { "ROUTE": "3", "DIRECTION": 1, "SEQUENCE": 31, "LAT": 28.51138491, "LONG": -81.376201269999996, "STOPID": 4254, "STOPNAME": "S ORANGE AVENUE AND W ILLIANA STREET", "TRAPID": 4254, "NODEID": "MIOR", "PATTERN": "INBOUND", "CITY": "ORLANDO", "COUNTY": "ORANGE", "SHELTER": "YES" }, "geometry": { "type": "Point", "coordinates": [ -81.37620126974258, 28.511384910014794 ] } },
{ "type": "Feature", "properties": { "ROUTE": "3", "DIRECTION": 1, "SEQUENCE": 32, "LAT": 28.512837080000001, "LONG": -81.374696049999997, "STOPID": 4279, "STOPNAME": "E MICHIGAN STREET AND CENTER AVENUE", "TRAPID": 4279, "NODEID": null, "PATTERN": "INBOUND", "CITY": "ORLANDO", "COUNTY": "ORANGE", "SHELTER": "YES" }, "geometry": { "type": "Point", "coordinates": [ -81.374696050420113, 28.512837080159649 ] } },
{ "type": "Feature", "properties": { "ROUTE": "3", "DIRECTION": 1, "SEQUENCE": 33, "LAT": 28.514667710000001, "LONG": -81.372173349999997, "STOPID": 4437, "STOPNAME": "DELANEY AVENUE AND E CRYSTAL LAKE STREET", "TRAPID": 4437, "NODEID": null, "PATTERN": "INBOUND", "CITY": "ORLANDO", "COUNTY": "ORANGE", "SHELTER": "NO" }, "geometry": { "type": "Point", "coordinates": [ -81.372173349912543, 28.514667710382334 ] } },
{ "type": "Feature", "properties": { "ROUTE": "3", "DIRECTION": 1, "SEQUENCE": 34, "LAT": 28.516430339999999, "LONG": -81.372193249999995, "STOPID": 4438, "STOPNAME": "DELANEY AVENUE AND E GRANT STREET", "TRAPID": 4438, "NODEID": null, "PATTERN": "INBOUND", "CITY": "ORLANDO", "COUNTY": "ORANGE", "SHELTER": "NO" }, "geometry": { "type": "Point", "coordinates": [ -81.372193250510094, 28.516430340021401 ] } },
{ "type": "Feature", "properties": { "ROUTE": "3", "DIRECTION": 1, "SEQUENCE": 35, "LAT": 28.51834418, "LONG": -81.372184540000006, "STOPID": 4439, "STOPNAME": "DELANEY AVENUE AND E HARDING STREET", "TRAPID": 4439, "NODEID": null, "PATTERN": "INBOUND", "CITY": "ORLANDO", "COUNTY": "ORANGE", "SHELTER": "NO" }, "geometry": { "type": "Point", "coordinates": [ -81.372184540035789, 28.518344180075974 ] } },
{ "type": "Feature", "properties": { "ROUTE": "3", "DIRECTION": 1, "SEQUENCE": 36, "LAT": 28.520047770000001, "LONG": -81.372224720000006, "STOPID": 4440, "STOPNAME": "DELANEY AVENUE AND E KALEY STREET", "TRAPID": 4440, "NODEID": null, "PATTERN": "INBOUND", "CITY": "ORLANDO", "COUNTY": "ORANGE", "SHELTER": "NO" }, "geometry": { "type": "Point", "coordinates": [ -81.372224719986775, 28.520047769770361 ] } },
{ "type": "Feature", "properties": { "ROUTE": "3", "DIRECTION": 1, "SEQUENCE": 37, "LAT": 28.522392870000001, "LONG": -81.372247099999996, "STOPID": 9109, "STOPNAME": "DELANEY AVENUE AND WOODLAND STREET", "TRAPID": 9109, "NODEID": null, "PATTERN": "INBOUND", "CITY": "ORLANDO", "COUNTY": "ORANGE", "SHELTER": "NO" }, "geometry": { "type": "Point", "coordinates": [ -81.372247099608884, 28.522392870331299 ] } },
{ "type": "Feature", "properties": { "ROUTE": "3", "DIRECTION": 1, "SEQUENCE": 38, "LAT": 28.523690290000001, "LONG": -81.372246390000001, "STOPID": 4394, "STOPNAME": "DELANEY AVENUE AND E MILLER STREET", "TRAPID": 4394, "NODEID": null, "PATTERN": "INBOUND", "CITY": "ORLANDO", "COUNTY": "ORANGE", "SHELTER": "NO" }, "geometry": { "type": "Point", "coordinates": [ -81.372246390310025, 28.523690289689235 ] } },
{ "type": "Feature", "properties": { "ROUTE": "3", "DIRECTION": 1, "SEQUENCE": 39, "LAT": 28.525957439999999, "LONG": -81.372284750000006, "STOPID": 4441, "STOPNAME": "DELANEY AVENUE AND E COPELAND DRIVE", "TRAPID": 4441, "NODEID": null, "PATTERN": "INBOUND", "CITY": "ORLANDO", "COUNTY": "ORANGE", "SHELTER": "NO" }, "geometry": { "type": "Point", "coordinates": [ -81.372284749536689, 28.52595743970851 ] } },
{ "type": "Feature", "properties": { "ROUTE": "3", "DIRECTION": 1, "SEQUENCE": 40, "LAT": 28.527424790000001, "LONG": -81.37230821, "STOPID": 4442, "STOPNAME": "DELANEY AVENUE AND BRIERCLIFF DRIVE", "TRAPID": 4442, "NODEID": null, "PATTERN": "INBOUND", "CITY": "ORLANDO", "COUNTY": "ORANGE", "SHELTER": "NO" }, "geometry": { "type": "Point", "coordinates": [ -81.372308210386564, 28.527424789699481 ] } },
{ "type": "Feature", "properties": { "ROUTE": "3", "DIRECTION": 1, "SEQUENCE": 41, "LAT": 28.529618620000001, "LONG": -81.373218269999995, "STOPID": 4443, "STOPNAME": "DELANEY AVENUE AND PHILLIPS PLACE", "TRAPID": 4443, "NODEID": null, "PATTERN": "INBOUND", "CITY": "ORLANDO", "COUNTY": "ORANGE", "SHELTER": "NO" }, "geometry": { "type": "Point", "coordinates": [ -81.373218269511085, 28.529618620327984 ] } },
{ "type": "Feature", "properties": { "ROUTE": "3", "DIRECTION": 1, "SEQUENCE": 42, "LAT": 28.530788789999999, "LONG": -81.374619890000005, "STOPID": 4444, "STOPNAME": "DELANEY AVENUE AND E GORE STREET", "TRAPID": 4444, "NODEID": null, "PATTERN": "INBOUND", "CITY": "ORLANDO", "COUNTY": "ORANGE", "SHELTER": "NO" }, "geometry": { "type": "Point", "coordinates": [ -81.374619889749894, 28.530788789941976 ] } },
{ "type": "Feature", "properties": { "ROUTE": "3", "DIRECTION": 1, "SEQUENCE": 43, "LAT": 28.53335555, "LONG": -81.374670539999997, "STOPID": 4445, "STOPNAME": "DELANEY AVENUE AND AGNES STREET", "TRAPID": 4445, "NODEID": null, "PATTERN": "INBOUND", "CITY": "ORLANDO", "COUNTY": "ORANGE", "SHELTER": "NO" }, "geometry": { "type": "Point", "coordinates": [ -81.374670540074831, 28.533355550179849 ] } },
{ "type": "Feature", "properties": { "ROUTE": "3", "DIRECTION": 1, "SEQUENCE": 44, "LAT": 28.534441860000001, "LONG": -81.374686569999994, "STOPID": 4446, "STOPNAME": "DELANEY AVENUE AND PONCE DE LEON PLACE", "TRAPID": 4446, "NODEID": null, "PATTERN": "INBOUND", "CITY": "ORLANDO", "COUNTY": "ORANGE", "SHELTER": "NO" }, "geometry": { "type": "Point", "coordinates": [ -81.374686570448191, 28.53444186002455 ] } },
{ "type": "Feature", "properties": { "ROUTE": "3", "DIRECTION": 1, "SEQUENCE": 45, "LAT": 28.533790740000001, "LONG": -81.376250639999995, "STOPID": 4714, "STOPNAME": "S LUCERNE CIRCLE E AND S ORANGE AVENUE", "TRAPID": 4714, "NODEID": null, "PATTERN": "INBOUND", "CITY": "ORLANDO", "COUNTY": "ORANGE", "SHELTER": "NO" }, "geometry": { "type": "Point", "coordinates": [ -81.376250639530923, 28.533790740333259 ] } },
{ "type": "Feature", "properties": { "ROUTE": "3", "DIRECTION": 1, "SEQUENCE": 46, "LAT": 28.53812679, "LONG": -81.375766170000006, "STOPID": 4673, "STOPNAME": "S ROSALIND AVENUE AND E SOUTH STREET", "TRAPID": 4673, "NODEID": null, "PATTERN": "INBOUND", "CITY": "ORLANDO", "COUNTY": "ORANGE", "SHELTER": "YES" }, "geometry": { "type": "Point", "coordinates": [ -81.375766170442915, 28.538126789922963 ] } },
{ "type": "Feature", "properties": { "ROUTE": "3", "DIRECTION": 1, "SEQUENCE": 47, "LAT": 28.539526039999998, "LONG": -81.375687080000006, "STOPID": 4263, "STOPNAME": "S ROSALIND AVENUE AND E JACKSON STREET", "TRAPID": 4263, "NODEID": null, "PATTERN": "INBOUND", "CITY": "ORLANDO", "COUNTY": "ORANGE", "SHELTER": "YES" }, "geometry": { "type": "Point", "coordinates": [ -81.375687080107483, 28.539526039876879 ] } },
{ "type": "Feature", "properties": { "ROUTE": "3", "DIRECTION": 1, "SEQUENCE": 48, "LAT": 28.54256256, "LONG": -81.375806740000002, "STOPID": 3939, "STOPNAME": "N ROSALIND AVENUE AND E CENTRAL BOULEVARD", "TRAPID": 3939, "NODEID": null, "PATTERN": "INBOUND", "CITY": "ORLANDO", "COUNTY": "ORANGE", "SHELTER": "NO" }, "geometry": { "type": "Point", "coordinates": [ -81.37580674028888, 28.542562559899402 ] } },
{ "type": "Feature", "properties": { "ROUTE": "3", "DIRECTION": 1, "SEQUENCE": 49, "LAT": 28.54481968, "LONG": -81.3758208, "STOPID": 4666, "STOPNAME": "N ROSALIND AVENUE AND EOLA PARKWAY", "TRAPID": 4666, "NODEID": null, "PATTERN": "INBOUND", "CITY": "ORLANDO", "COUNTY": "ORANGE", "SHELTER": "NO" }, "geometry": { "type": "Point", "coordinates": [ -81.375820800244682, 28.544819680289173 ] } },
{ "type": "Feature", "properties": { "ROUTE": "3", "DIRECTION": 1, "SEQUENCE": 50, "LAT": 28.547588560000001, "LONG": -81.377401379999995, "STOPID": 5733, "STOPNAME": "E LIVINGSTON STREET AND N MAGNOLIA AVENUE", "TRAPID": 5733, "NODEID": null, "PATTERN": "INBOUND", "CITY": "ORLANDO", "COUNTY": "ORANGE", "SHELTER": "NO" }, "geometry": { "type": "Point", "coordinates": [ -81.377401380351515, 28.547588560105705 ] } },
{ "type": "Feature", "properties": { "ROUTE": "3", "DIRECTION": 1, "SEQUENCE": 51, "LAT": 28.548913379999998, "LONG": -81.381272499999994, "STOPID": 6850, "STOPNAME": "LYNX CENTRAL STATION - SUNRAIL", "TRAPID": 6850, "NODEID": "LCS", "PATTERN": "INBOUND", "CITY": "ORLANDO", "COUNTY": "ORANGE", "SHELTER": "NO" }, "geometry": { "type": "Point", "coordinates": [ -81.381272499835276, 28.548913380025326 ] } },
{ "type": "Feature", "properties": { "ROUTE": "3", "DIRECTION": 0, "SEQUENCE": 60, "LAT": 28.495784919999998, "LONG": -81.314224640000006, "STOPID": 4774, "STOPNAME": "DIXIE BELLE DR AND GATLIN AVE TRANSFER CENTER", "TRAPID": 4774, "NODEID": "GADB", "PATTERN": "OUT AM", "CITY": "ORLANDO", "COUNTY": "ORANGE", "SHELTER": "NO" }, "geometry": { "type": "Point", "coordinates": [ -81.314224640366433, 28.495784920002176 ] } },
{ "type": "Feature", "properties": { "ROUTE": "3", "DIRECTION": 0, "SEQUENCE": 61, "LAT": 28.498806510000001, "LONG": -81.312567819999998, "STOPID": 4057, "STOPNAME": "PERSHING AVENUE AND THORNBRIAR LANE", "TRAPID": 4057, "NODEID": null, "PATTERN": "OUT AM", "CITY": "ORLANDO", "COUNTY": "ORANGE", "SHELTER": "YES" }, "geometry": { "type": "Point", "coordinates": [ -81.312567819531949, 28.498806509558335 ] } },
{ "type": "Feature", "properties": { "ROUTE": "3", "DIRECTION": 0, "SEQUENCE": 62, "LAT": 28.498802730000001, "LONG": -81.308271919999996, "STOPID": 4428, "STOPNAME": "PERSHING AVENUE AND S SEMORAN BOULEVARD", "TRAPID": 4428, "NODEID": null, "PATTERN": "OUT AM", "CITY": "ORLANDO", "COUNTY": "ORANGE", "SHELTER": "NO" }, "geometry": { "type": "Point", "coordinates": [ -81.308271920398184, 28.498802729751297 ] } },
{ "type": "Feature", "properties": { "ROUTE": "3", "DIRECTION": 0, "SEQUENCE": 63, "LAT": 28.49883453, "LONG": -81.305840029999999, "STOPID": 3725, "STOPNAME": "PERSHING AVENUE AND COMMANDER DRIVE", "TRAPID": 3725, "NODEID": null, "PATTERN": "OUT AM", "CITY": null, "COUNTY": "ORANGE", "SHELTER": "YES" }, "geometry": { "type": "Point", "coordinates": [ -81.305840030077732, 28.498834530307658 ] } },
{ "type": "Feature", "properties": { "ROUTE": "3", "DIRECTION": 0, "SEQUENCE": 64, "LAT": 28.498833690000001, "LONG": -81.303639189999998, "STOPID": 3726, "STOPNAME": "PERSHING AVENUE AND WILD HORSE ROAD", "TRAPID": 3726, "NODEID": null, "PATTERN": "OUT AM", "CITY": null, "COUNTY": "ORANGE", "SHELTER": "NO" }, "geometry": { "type": "Point", "coordinates": [ -81.303639190269209, 28.49883369022664 ] } },
{ "type": "Feature", "properties": { "ROUTE": "3", "DIRECTION": 0, "SEQUENCE": 65, "LAT": 28.49886261, "LONG": -81.300023809999999, "STOPID": 3727, "STOPNAME": "PERSHING AVENUE AND CATHERINE WHEEL COURT", "TRAPID": 3727, "NODEID": null, "PATTERN": "OUT AM", "CITY": null, "COUNTY": "ORANGE", "SHELTER": "NO" }, "geometry": { "type": "Point", "coordinates": [ -81.300023809730689, 28.498862610265299 ] } },
{ "type": "Feature", "properties": { "ROUTE": "3", "DIRECTION": 0, "SEQUENCE": 66, "LAT": 28.498880700000001, "LONG": -81.296402270000002, "STOPID": 5511, "STOPNAME": "PERSHING AVENUE AND WOODGATE BOULEVARD", "TRAPID": 5511, "NODEID": null, "PATTERN": "OUT AM", "CITY": "ORLANDO", "COUNTY": "ORANGE", "SHELTER": "NO" }, "geometry": { "type": "Point", "coordinates": [ -81.296402269649079, 28.498880699700756 ] } },
{ "type": "Feature", "properties": { "ROUTE": "3", "DIRECTION": 0, "SEQUENCE": 67, "LAT": 28.498915969999999, "LONG": -81.294416560000002, "STOPID": 3728, "STOPNAME": "PERSHING AVENUE AND PERSHING PARK DRIVE", "TRAPID": 3728, "NODEID": null, "PATTERN": "OUT AM", "CITY": null, "COUNTY": "ORANGE", "SHELTER": "YES" }, "geometry": { "type": "Point", "coordinates": [ -81.294416559590815, 28.498915970248774 ] } },
{ "type": "Feature", "properties": { "ROUTE": "3", "DIRECTION": 0, "SEQUENCE": 68, "LAT": 28.498908350000001, "LONG": -81.291474269999995, "STOPID": 3729, "STOPNAME": "PERSHING AVENUE AND GLEN VILLAGE COURT", "TRAPID": 3729, "NODEID": null, "PATTERN": "OUT AM", "CITY": null, "COUNTY": "ORANGE", "SHELTER": "NO" }, "geometry": { "type": "Point", "coordinates": [ -81.291474269686574, 28.498908350113879 ] } },
{ "type": "Feature", "properties": { "ROUTE": "3", "DIRECTION": 0, "SEQUENCE": 69, "LAT": 28.498865940000002, "LONG": -81.287534710000003, "STOPID": 3730, "STOPNAME": "PERSHING AVENUE AND S GOLDENROD ROAD", "TRAPID": 3730, "NODEID": null, "PATTERN": "OUT AM", "CITY": null, "COUNTY": "ORANGE", "SHELTER": "NO" }, "geometry": { "type": "Point", "coordinates": [ -81.287534710281236, 28.498865940166176 ] } },
{ "type": "Feature", "properties": { "ROUTE": "3", "DIRECTION": 0, "SEQUENCE": 70, "LAT": 28.5010367, "LONG": -81.285320290000001, "STOPID": 3731, "STOPNAME": "S GOLDENROD ROAD AND QUAIL POND STREET", "TRAPID": 3731, "NODEID": null, "PATTERN": "OUT AM", "CITY": null, "COUNTY": "ORANGE", "SHELTER": "NO" }, "geometry": { "type": "Point", "coordinates": [ -81.285320290338262, 28.501036700114113 ] } },
{ "type": "Feature", "properties": { "ROUTE": "3", "DIRECTION": 0, "SEQUENCE": 71, "LAT": 28.504654940000002, "LONG": -81.285357520000005, "STOPID": 3732, "STOPNAME": "S GOLDENROD ROAD AND GOVERN BOULEVARD", "TRAPID": 3732, "NODEID": null, "PATTERN": "OUT AM", "CITY": null, "COUNTY": "ORANGE", "SHELTER": "NO" }, "geometry": { "type": "Point", "coordinates": [ -81.285357519942323, 28.50465494026669 ] } },
{ "type": "Feature", "properties": { "ROUTE": "3", "DIRECTION": 0, "SEQUENCE": 72, "LAT": 28.50689118, "LONG": -81.285886899999994, "STOPID": 3733, "STOPNAME": "S GOLDENROD ROAD AND PINE FORK DRIVE", "TRAPID": 3733, "NODEID": null, "PATTERN": "OUT AM", "CITY": null, "COUNTY": "ORANGE", "SHELTER": "NO" }, "geometry": { "type": "Point", "coordinates": [ -81.285886900357383, 28.506891179915371 ] } },
{ "type": "Feature", "properties": { "ROUTE": "3", "DIRECTION": 0, "SEQUENCE": 73, "LAT": 28.513283609999998, "LONG": -81.289430269999997, "STOPID": 3734, "STOPNAME": "S GOLDENROD ROAD AND SUGARBIN STREET", "TRAPID": 3734, "NODEID": null, "PATTERN": "OUT AM", "CITY": null, "COUNTY": "ORANGE", "SHELTER": "NO" }, "geometry": { "type": "Point", "coordinates": [ -81.289430270119851, 28.513283609745343 ] } },
{ "type": "Feature", "properties": { "ROUTE": "3", "DIRECTION": 0, "SEQUENCE": 74, "LAT": 28.514655179999998, "LONG": -81.288240669999993, "STOPID": 3735, "STOPNAME": "CURRY FORD ROAD AND HIDDEN HOLLOW DRIVE", "TRAPID": 3735, "NODEID": null, "PATTERN": "OUT AM", "CITY": null, "COUNTY": "ORANGE", "SHELTER": "YES" }, "geometry": { "type": "Point", "coordinates": [ -81.288240669557183, 28.514655180111806 ] } },
{ "type": "Feature", "properties": { "ROUTE": "3", "DIRECTION": 0, "SEQUENCE": 75, "LAT": 28.511559399999999, "LONG": -81.283010349999998, "STOPID": 3736, "STOPNAME": "CURRY FORD ROAD AND PINE BRANCH DRIVE", "TRAPID": 3736, "NODEID": null, "PATTERN": "OUT AM", "CITY": null, "COUNTY": "ORANGE", "SHELTER": "NO" }, "geometry": { "type": "Point", "coordinates": [ -81.283010349493793, 28.511559400355903 ] } },
{ "type": "Feature", "properties": { "ROUTE": "3", "DIRECTION": 0, "SEQUENCE": 76, "LAT": 28.50998182, "LONG": -81.279981620000001, "STOPID": 3737, "STOPNAME": "CURRY FORD ROAD AND HANSON PARKWAY", "TRAPID": 3737, "NODEID": null, "PATTERN": "OUT AM", "CITY": null, "COUNTY": "ORANGE", "SHELTER": "NO" }, "geometry": { "type": "Point", "coordinates": [ -81.27998161983993, 28.509981820131998 ] } },
{ "type": "Feature", "properties": { "ROUTE": "3", "DIRECTION": 0, "SEQUENCE": 77, "LAT": 28.509846540000002, "LONG": -81.274830170000001, "STOPID": 3738, "STOPNAME": "CURRY FORD ROAD AND AUTUMN RUN PLACE", "TRAPID": 3738, "NODEID": null, "PATTERN": "OUT AM", "CITY": null, "COUNTY": "ORANGE", "SHELTER": "NO" }, "geometry": { "type": "Point", "coordinates": [ -81.274830170151148, 28.509846539783631 ] } },
{ "type": "Feature", "properties": { "ROUTE": "3", "DIRECTION": 0, "SEQUENCE": 78, "LAT": 28.509830860000001, "LONG": -81.269392909999993, "STOPID": 3739, "STOPNAME": "CURRY FORD ROAD AND S CHICKASAW TRAIL", "TRAPID": 3739, "NODEID": "CFCT", "PATTERN": "OUT AM", "CITY": null, "COUNTY": "ORANGE", "SHELTER": "NO" }, "geometry": { "type": "Point", "coordinates": [ -81.269392909950938, 28.509830860130304 ] } },
{ "type": "Feature", "properties": { "ROUTE": "3", "DIRECTION": 0, "SEQUENCE": 79, "LAT": 28.507368769999999, "LONG": -81.269073349999999, "STOPID": 3740, "STOPNAME": "S CHICKASAW TRAIL AND SPARROWHAWK COURT", "TRAPID": 3740, "NODEID": null, "PATTERN": "OUT AM", "CITY": null, "COUNTY": "ORANGE", "SHELTER": "NO" }, "geometry": { "type": "Point", "coordinates": [ -81.269073349882902, 28.507368770450899 ] } },
{ "type": "Feature", "properties": { "ROUTE": "3", "DIRECTION": 0, "SEQUENCE": 80, "LAT": 28.50430935, "LONG": -81.26912188, "STOPID": 3741, "STOPNAME": "S CHICKASAW TRAIL AND MATTITUCK CIRCLE", "TRAPID": 3741, "NODEID": null, "PATTERN": "OUT AM", "CITY": null, "COUNTY": "ORANGE", "SHELTER": "NO" }, "geometry": { "type": "Point", "coordinates": [ -81.269121880400419, 28.50430934959228 ] } },
{ "type": "Feature", "properties": { "ROUTE": "3", "DIRECTION": 0, "SEQUENCE": 81, "LAT": 28.501972819999999, "LONG": -81.269154760000006, "STOPID": 3742, "STOPNAME": "S CHICKASAW TRAIL AND SCARBOROUGH COURT", "TRAPID": 3742, "NODEID": null, "PATTERN": "OUT AM", "CITY": null, "COUNTY": "ORANGE", "SHELTER": "NO" }, "geometry": { "type": "Point", "coordinates": [ -81.269154759740971, 28.501972820134053 ] } },
{ "type": "Feature", "properties": { "ROUTE": "3", "DIRECTION": 0, "SEQUENCE": 82, "LAT": 28.498408489999999, "LONG": -81.269244200000003, "STOPID": 3743, "STOPNAME": "S CHICKASAW TRAIL AND CASCADE ROAD", "TRAPID": 3743, "NODEID": null, "PATTERN": "OUT AM", "CITY": null, "COUNTY": "ORANGE", "SHELTER": "NO" }, "geometry": { "type": "Point", "coordinates": [ -81.269244200386581, 28.498408489556255 ] } },
{ "type": "Feature", "properties": { "ROUTE": "3", "DIRECTION": 0, "SEQUENCE": 83, "LAT": 28.498193579999999, "LONG": -81.272242090000006, "STOPID": 3744, "STOPNAME": "CASCADE ROAD AND SPRING BREEZE DRIVE", "TRAPID": 3744, "NODEID": null, "PATTERN": "OUT AM", "CITY": null, "COUNTY": "ORANGE", "SHELTER": "NO" }, "geometry": { "type": "Point", "coordinates": [ -81.272242090440272, 28.498193580136572 ] } },
{ "type": "Feature", "properties": { "ROUTE": "3", "DIRECTION": 0, "SEQUENCE": 84, "LAT": 28.49865745, "LONG": -81.274554230000007, "STOPID": 3745, "STOPNAME": "CASCADE ROAD AND ANTHONY LANE", "TRAPID": 3745, "NODEID": null, "PATTERN": "OUT AM", "CITY": null, "COUNTY": "ORANGE", "SHELTER": "NO" }, "geometry": { "type": "Point", "coordinates": [ -81.27455423008962, 28.49865744984891 ] } },
{ "type": "Feature", "properties": { "ROUTE": "3", "DIRECTION": 0, "SEQUENCE": 85, "LAT": 28.49604604, "LONG": -81.276427530000007, "STOPID": 3746, "STOPNAME": "ANTHONY LANE AND BRITT DRIVE", "TRAPID": 3746, "NODEID": null, "PATTERN": "OUT AM", "CITY": null, "COUNTY": "ORANGE", "SHELTER": "NO" }, "geometry": { "type": "Point", "coordinates": [ -81.276427529618104, 28.496046040415905 ] } },
{ "type": "Feature", "properties": { "ROUTE": "3", "DIRECTION": 0, "SEQUENCE": 86, "LAT": 28.49216157, "LONG": -81.277399270000004, "STOPID": 3747, "STOPNAME": "ANTHONY LANE AND YOUNT DRIVE", "TRAPID": 3747, "NODEID": null, "PATTERN": "OUT AM", "CITY": null, "COUNTY": "ORANGE", "SHELTER": "NO" }, "geometry": { "type": "Point", "coordinates": [ -81.27739927047817, 28.492161569847838 ] } },
{ "type": "Feature", "properties": { "ROUTE": "3", "DIRECTION": 0, "SEQUENCE": 87, "LAT": 28.492357869999999, "LONG": -81.280079700000002, "STOPID": 3748, "STOPNAME": "SUN VISTA WAY AND CROSSEN DRIVE", "TRAPID": 3748, "NODEID": null, "PATTERN": "OUT AM", "CITY": null, "COUNTY": "ORANGE", "SHELTER": "NO" }, "geometry": { "type": "Point", "coordinates": [ -81.280079699967914, 28.492357869571023 ] } },
{ "type": "Feature", "properties": { "ROUTE": "3", "DIRECTION": 0, "SEQUENCE": 88, "LAT": 28.49258979, "LONG": -81.284678110000002, "STOPID": 3749, "STOPNAME": "SUN VISTA WAY AND SANSEVIERA LANE", "TRAPID": 3749, "NODEID": null, "PATTERN": "OUT AM", "CITY": null, "COUNTY": "ORANGE", "SHELTER": "NO" }, "geometry": { "type": "Point", "coordinates": [ -81.284678110139154, 28.492589790009784 ] } },
{ "type": "Feature", "properties": { "ROUTE": "3", "DIRECTION": 0, "SEQUENCE": 89, "LAT": 28.490123109999999, "LONG": -81.285495609999998, "STOPID": 3792, "STOPNAME": "S GOLDENROD ROAD AND MAI TAI DRIVE", "TRAPID": 3792, "NODEID": null, "PATTERN": "OUT AM", "CITY": null, "COUNTY": "ORANGE", "SHELTER": "NO" }, "geometry": { "type": "Point", "coordinates": [ -81.285495610040812, 28.490123109823198 ] } },
{ "type": "Feature", "properties": { "ROUTE": "3", "DIRECTION": 0, "SEQUENCE": 90, "LAT": 28.488055060000001, "LONG": -81.285500740000003, "STOPID": 3793, "STOPNAME": "S GOLDENROD ROAD AND DUVAL AVENUE", "TRAPID": 3793, "NODEID": null, "PATTERN": "OUT AM", "CITY": null, "COUNTY": "ORANGE", "SHELTER": "NO" }, "geometry": { "type": "Point", "coordinates": [ -81.28550074001636, 28.488055060321958 ] } },
{ "type": "Feature", "properties": { "ROUTE": "3", "DIRECTION": 0, "SEQUENCE": 91, "LAT": 28.485983279999999, "LONG": -81.285516650000005, "STOPID": 3794, "STOPNAME": "S GOLDENROD ROAD AND FORT JEFFERSON BOULEVARD", "TRAPID": 3794, "NODEID": null, "PATTERN": "OUT AM", "CITY": null, "COUNTY": "ORANGE", "SHELTER": "NO" }, "geometry": { "type": "Point", "coordinates": [ -81.285516650433621, 28.485983279794684 ] } },
{ "type": "Feature", "properties": { "ROUTE": "3", "DIRECTION": 0, "SEQUENCE": 92, "LAT": 28.4842415, "LONG": -81.285503059999996, "STOPID": 3795, "STOPNAME": "S GOLDENROD ROAD AND BEATTY DRIVE", "TRAPID": 3795, "NODEID": null, "PATTERN": "OUT AM", "CITY": null, "COUNTY": "ORANGE", "SHELTER": "NO" }, "geometry": { "type": "Point", "coordinates": [ -81.285503060290353, 28.484241500059184 ] } },
{ "type": "Feature", "properties": { "ROUTE": "3", "DIRECTION": 0, "SEQUENCE": 93, "LAT": 28.48056656, "LONG": -81.285462989999999, "STOPID": 3796, "STOPNAME": "OLD GOLDENROD ROAD AND DESOTO AVENUE", "TRAPID": 3796, "NODEID": null, "PATTERN": "OUT AM", "CITY": null, "COUNTY": "ORANGE", "SHELTER": "NO" }, "geometry": { "type": "Point", "coordinates": [ -81.285462989652942, 28.48056656027028 ] } },
{ "type": "Feature", "properties": { "ROUTE": "3", "DIRECTION": 0, "SEQUENCE": 94, "LAT": 28.4783951, "LONG": -81.285449549999996, "STOPID": 6236, "STOPNAME": "OLD GOLDENROD ROAD AND SPEARFISH AVENUE", "TRAPID": 6236, "NODEID": "GOHO", "PATTERN": "OUT AM", "CITY": null, "COUNTY": "ORANGE", "SHELTER": "NO" }, "geometry": { "type": "Point", "coordinates": [ -81.285449549769908, 28.478395100263796 ] } },
{ "type": "Feature", "properties": { "ROUTE": "3", "DIRECTION": 0, "SEQUENCE": 95, "LAT": 28.480106859999999, "LONG": -81.288949090000003, "STOPID": 3798, "STOPNAME": "HOFFNER AVNUE AND PASCO STREET", "TRAPID": 3798, "NODEID": null, "PATTERN": "OUT AM", "CITY": "ORLANDO", "COUNTY": "ORANGE", "SHELTER": "NO" }, "geometry": { "type": "Point", "coordinates": [ -81.288949090372697, 28.480106860184058 ] } },
{ "type": "Feature", "properties": { "ROUTE": "3", "DIRECTION": 0, "SEQUENCE": 96, "LAT": 28.480720099999999, "LONG": -81.29391339, "STOPID": 3799, "STOPNAME": "HOFFNER AVENUE AND VOLUSIA DRIVE", "TRAPID": 3799, "NODEID": null, "PATTERN": "OUT AM", "CITY": null, "COUNTY": "ORANGE", "SHELTER": "NO" }, "geometry": { "type": "Point", "coordinates": [ -81.293913390108557, 28.480720100110094 ] } },
{ "type": "Feature", "properties": { "ROUTE": "3", "DIRECTION": 0, "SEQUENCE": 97, "LAT": 28.48139226, "LONG": -81.297692209999994, "STOPID": 3800, "STOPNAME": "REDDITT ROAD AND HOFFNER AVENUE", "TRAPID": 3800, "NODEID": null, "PATTERN": "OUT AM", "CITY": null, "COUNTY": "ORANGE", "SHELTER": "NO" }, "geometry": { "type": "Point", "coordinates": [ -81.297692209858937, 28.481392259585629 ] } },
{ "type": "Feature", "properties": { "ROUTE": "3", "DIRECTION": 0, "SEQUENCE": 98, "LAT": 28.484115509999999, "LONG": -81.297718070000002, "STOPID": 3801, "STOPNAME": "REDDITT ROAD AND NASSAU AVENUE", "TRAPID": 3801, "NODEID": null, "PATTERN": "OUT AM", "CITY": null, "COUNTY": "ORANGE", "SHELTER": "NO" }, "geometry": { "type": "Point", "coordinates": [ -81.297718070330291, 28.484115510061102 ] } },
{ "type": "Feature", "properties": { "ROUTE": "3", "DIRECTION": 0, "SEQUENCE": 99, "LAT": 28.48692247, "LONG": -81.297731990000003, "STOPID": 3802, "STOPNAME": "REDDITT ROAD AND TIDEWAVE STREET", "TRAPID": 3802, "NODEID": null, "PATTERN": "OUT AM", "CITY": null, "COUNTY": "ORANGE", "SHELTER": "NO" }, "geometry": { "type": "Point", "coordinates": [ -81.297731990271785, 28.486922469593562 ] } },
{ "type": "Feature", "properties": { "ROUTE": "3", "DIRECTION": 0, "SEQUENCE": 100, "LAT": 28.490258799999999, "LONG": -81.293613590000007, "STOPID": 3803, "STOPNAME": "REDDITT ROAD AND EDGEFIELD LANE", "TRAPID": 3803, "NODEID": null, "PATTERN": "OUT AM", "CITY": null, "COUNTY": "ORANGE", "SHELTER": "NO" }, "geometry": { "type": "Point", "coordinates": [ -81.293613590179646, 28.4902587995639 ] } },
{ "type": "Feature", "properties": { "ROUTE": "3", "DIRECTION": 0, "SEQUENCE": 101, "LAT": 28.492293069999999, "LONG": -81.293615310000007, "STOPID": 3804, "STOPNAME": "REDDITT ROAD AND GIBRALTAR ROAD", "TRAPID": 3804, "NODEID": null, "PATTERN": "OUT AM", "CITY": null, "COUNTY": "ORANGE", "SHELTER": "NO" }, "geometry": { "type": "Point", "coordinates": [ -81.293615310213269, 28.492293069857805 ] } },
{ "type": "Feature", "properties": { "ROUTE": "3", "DIRECTION": 0, "SEQUENCE": 102, "LAT": 28.49505169, "LONG": -81.293638860000002, "STOPID": 3805, "STOPNAME": "REDDITT ROAD AND POMPEII ROAD", "TRAPID": 3805, "NODEID": null, "PATTERN": "OUT AM", "CITY": null, "COUNTY": "ORANGE", "SHELTER": "NO" }, "geometry": { "type": "Point", "coordinates": [ -81.293638859871209, 28.49505168988118 ] } },
{ "type": "Feature", "properties": { "ROUTE": "3", "DIRECTION": 0, "SEQUENCE": 103, "LAT": 28.499130990000001, "LONG": -81.294121500000003, "STOPID": 3806, "STOPNAME": "PERSHING AVE AND REDDITT RD", "TRAPID": 3806, "NODEID": null, "PATTERN": "OUT AM", "CITY": null, "COUNTY": "ORANGE", "SHELTER": "NO" }, "geometry": { "type": "Point", "coordinates": [ -81.294121500192389, 28.499130990066636 ] } },
{ "type": "Feature", "properties": { "ROUTE": "3", "DIRECTION": 0, "SEQUENCE": 104, "LAT": 28.499116260000001, "LONG": -81.297066639999997, "STOPID": 5512, "STOPNAME": "PERSHING AVENUE AND LINGO LANE", "TRAPID": 5512, "NODEID": null, "PATTERN": "OUT AM", "CITY": "ORLANDO", "COUNTY": "ORANGE", "SHELTER": "NO" }, "geometry": { "type": "Point", "coordinates": [ -81.297066639520168, 28.499116260417704 ] } },
{ "type": "Feature", "properties": { "ROUTE": "3", "DIRECTION": 0, "SEQUENCE": 105, "LAT": 28.499104979999998, "LONG": -81.299770080000002, "STOPID": 3756, "STOPNAME": "PERSHING  AVE AND LINGO  LN", "TRAPID": 3756, "NODEID": null, "PATTERN": "OUT AM", "CITY": null, "COUNTY": "ORANGE", "SHELTER": "NO" }, "geometry": { "type": "Point", "coordinates": [ -81.29977008030373, 28.499104979759867 ] } },
{ "type": "Feature", "properties": { "ROUTE": "3", "DIRECTION": 0, "SEQUENCE": 106, "LAT": 28.499065529999999, "LONG": -81.303048009999998, "STOPID": 3757, "STOPNAME": "PERSHING AVENUE AND WILD HORSE ROAD", "TRAPID": 3757, "NODEID": null, "PATTERN": "OUT AM", "CITY": null, "COUNTY": "ORANGE", "SHELTER": "NO" }, "geometry": { "type": "Point", "coordinates": [ -81.303048009987023, 28.499065529891741 ] } },
{ "type": "Feature", "properties": { "ROUTE": "3", "DIRECTION": 0, "SEQUENCE": 107, "LAT": 28.49905321, "LONG": -81.305918230000003, "STOPID": 3758, "STOPNAME": "PERSHING AVENUE AND COMMANDER DRIVE", "TRAPID": 3758, "NODEID": null, "PATTERN": "OUT AM", "CITY": null, "COUNTY": "ORANGE", "SHELTER": "NO" }, "geometry": { "type": "Point", "coordinates": [ -81.305918229516436, 28.499053210014122 ] } },
{ "type": "Feature", "properties": { "ROUTE": "3", "DIRECTION": 0, "SEQUENCE": 108, "LAT": 28.499041219999999, "LONG": -81.308085809999994, "STOPID": 5729, "STOPNAME": "PERSHING AVENUE AND COMMANDER DRIVE", "TRAPID": 5729, "NODEID": null, "PATTERN": "OUT AM", "CITY": "ORLANDO", "COUNTY": "ORANGE", "SHELTER": "NO" }, "geometry": { "type": "Point", "coordinates": [ -81.308085809618277, 28.499041220162347 ] } },
{ "type": "Feature", "properties": { "ROUTE": "3", "DIRECTION": 0, "SEQUENCE": 109, "LAT": 28.498421870000001, "LONG": -81.310460250000006, "STOPID": 5797, "STOPNAME": "S SEMORAN BOULEVARD AND PERSHING AVENUE", "TRAPID": 5797, "NODEID": null, "PATTERN": "OUT AM", "CITY": "ORLANDO", "COUNTY": "ORANGE", "SHELTER": "YES" }, "geometry": { "type": "Point", "coordinates": [ -81.310460249760851, 28.49842186963204 ] } },
{ "type": "Feature", "properties": { "ROUTE": "3", "DIRECTION": 0, "SEQUENCE": 110, "LAT": 28.495332650000002, "LONG": -81.311259550000003, "STOPID": 4055, "STOPNAME": "GATLIN AVENUE AND S SEMORAN BOULEVARD", "TRAPID": 4055, "NODEID": null, "PATTERN": "OUT AM", "CITY": "ORLANDO", "COUNTY": "ORANGE", "SHELTER": "NO" }, "geometry": { "type": "Point", "coordinates": [ -81.311259549687065, 28.495332649809558 ] } },
{ "type": "Feature", "properties": { "ROUTE": "3", "DIRECTION": 0, "SEQUENCE": 111, "LAT": 28.495319769999998, "LONG": -81.312911549999995, "STOPID": 4056, "STOPNAME": "GATLIN AVENUE AND DIXIE BELLE DRIVE", "TRAPID": 4056, "NODEID": null, "PATTERN": "OUT AM", "CITY": "ORLANDO", "COUNTY": "ORANGE", "SHELTER": "NO" }, "geometry": { "type": "Point", "coordinates": [ -81.312911550368739, 28.495319769663368 ] } },
{ "type": "Feature", "properties": { "ROUTE": "3", "DIRECTION": 0, "SEQUENCE": 112, "LAT": 28.495784919999998, "LONG": -81.314224640000006, "STOPID": 4774, "STOPNAME": "DIXIE BELLE DR AND GATLIN AVE TRANSFER CENTER", "TRAPID": 4774, "NODEID": "GADB", "PATTERN": "OUT AM", "CITY": "ORLANDO", "COUNTY": "ORANGE", "SHELTER": "NO" }, "geometry": { "type": "Point", "coordinates": [ -81.314224640366433, 28.495784920002176 ] } },
{ "type": "Feature", "properties": { "ROUTE": "3", "DIRECTION": 0, "SEQUENCE": 1, "LAT": 28.548913379999998, "LONG": -81.381272499999994, "STOPID": 6850, "STOPNAME": "LYNX CENTRAL STATION - SUNRAIL", "TRAPID": 6850, "NODEID": "LCS", "PATTERN": "OUTBOUND", "CITY": "ORLANDO", "COUNTY": "ORANGE", "SHELTER": "NO" }, "geometry": { "type": "Point", "coordinates": [ -81.381272499835276, 28.548913380025326 ] } },
{ "type": "Feature", "properties": { "ROUTE": "3", "DIRECTION": 0, "SEQUENCE": 2, "LAT": 28.549307880000001, "LONG": -81.379497599999993, "STOPID": 6334, "STOPNAME": "W AMELIA STREET AND N ORANGE AVENUE", "TRAPID": 6334, "NODEID": null, "PATTERN": "OUTBOUND", "CITY": "ORLANDO", "COUNTY": "ORANGE", "SHELTER": "NO" }, "geometry": { "type": "Point", "coordinates": [ -81.379497599742706, 28.54930788027422 ] } },
{ "type": "Feature", "properties": { "ROUTE": "3", "DIRECTION": 0, "SEQUENCE": 3, "LAT": 28.546976399999998, "LONG": -81.379199200000002, "STOPID": 3969, "STOPNAME": "N ORANGE AVENUE AND W LIVINGSTON STREET", "TRAPID": 3969, "NODEID": null, "PATTERN": "OUTBOUND", "CITY": "ORLANDO", "COUNTY": "ORANGE", "SHELTER": "NO" }, "geometry": { "type": "Point", "coordinates": [ -81.379199199666786, 28.546976399970127 ] } },
{ "type": "Feature", "properties": { "ROUTE": "3", "DIRECTION": 0, "SEQUENCE": 4, "LAT": 28.544445660000001, "LONG": -81.379140840000005, "STOPID": 3971, "STOPNAME": "N ORANGE AVENUE AND W JEFFERSON STREET", "TRAPID": 3971, "NODEID": null, "PATTERN": "OUTBOUND", "CITY": "ORLANDO", "COUNTY": "ORANGE", "SHELTER": "NO" }, "geometry": { "type": "Point", "coordinates": [ -81.379140839757824, 28.544445660446129 ] } },
{ "type": "Feature", "properties": { "ROUTE": "3", "DIRECTION": 0, "SEQUENCE": 5, "LAT": 28.542742910000001, "LONG": -81.379127159999996, "STOPID": 4825, "STOPNAME": "N ORANGE AVENUE AND WALL STREET", "TRAPID": 4825, "NODEID": null, "PATTERN": "OUTBOUND", "CITY": "ORLANDO", "COUNTY": "ORANGE", "SHELTER": "NO" }, "geometry": { "type": "Point", "coordinates": [ -81.379127160292057, 28.542742909853516 ] } },
{ "type": "Feature", "properties": { "ROUTE": "3", "DIRECTION": 0, "SEQUENCE": 6, "LAT": 28.541645590000002, "LONG": -81.379102579999994, "STOPID": 9194, "STOPNAME": "S ORANGE AVENUE AND W PINE STREET", "TRAPID": 9194, "NODEID": null, "PATTERN": "OUTBOUND", "CITY": "ORLANDO", "COUNTY": "ORANGE", "SHELTER": "NO" }, "geometry": { "type": "Point", "coordinates": [ -81.3791025796436, 28.54164559042685 ] } },
{ "type": "Feature", "properties": { "ROUTE": "3", "DIRECTION": 0, "SEQUENCE": 7, "LAT": 28.539653600000001, "LONG": -81.379098170000006, "STOPID": 4713, "STOPNAME": "S ORANGE AVENUE AND E JACKSON STREET", "TRAPID": 4713, "NODEID": null, "PATTERN": "OUTBOUND", "CITY": "ORLANDO", "COUNTY": "ORANGE", "SHELTER": "NO" }, "geometry": { "type": "Point", "coordinates": [ -81.379098170503966, 28.539653599866206 ] } },
{ "type": "Feature", "properties": { "ROUTE": "3", "DIRECTION": 0, "SEQUENCE": 8, "LAT": 28.536992519999998, "LONG": -81.378062130000004, "STOPID": 4313, "STOPNAME": "E ANDERSON STREET AND S ORANGE AVENUE", "TRAPID": 4313, "NODEID": null, "PATTERN": "OUTBOUND", "CITY": "ORLANDO", "COUNTY": "ORANGE", "SHELTER": "NO" }, "geometry": { "type": "Point", "coordinates": [ -81.378062129539927, 28.536992519981098 ] } },
{ "type": "Feature", "properties": { "ROUTE": "3", "DIRECTION": 0, "SEQUENCE": 9, "LAT": 28.536985909999999, "LONG": -81.37678434, "STOPID": 5737, "STOPNAME": "E ANDERSON STREET AND S MAGNOLIA AVENUE", "TRAPID": 5737, "NODEID": null, "PATTERN": "OUTBOUND", "CITY": "ORLANDO", "COUNTY": "ORANGE", "SHELTER": "YES" }, "geometry": { "type": "Point", "coordinates": [ -81.376784340271257, 28.536985909721718 ] } },
{ "type": "Feature", "properties": { "ROUTE": "3", "DIRECTION": 0, "SEQUENCE": 10, "LAT": 28.53579182, "LONG": -81.374808150000007, "STOPID": 4264, "STOPNAME": "DELANEY AVENUE AND N LUCERNE CIRCLE E", "TRAPID": 4264, "NODEID": null, "PATTERN": "OUTBOUND", "CITY": "ORLANDO", "COUNTY": "ORANGE", "SHELTER": "YES" }, "geometry": { "type": "Point", "coordinates": [ -81.374808150049134, 28.535791820238508 ] } },
{ "type": "Feature", "properties": { "ROUTE": "3", "DIRECTION": 0, "SEQUENCE": 11, "LAT": 28.534301639999999, "LONG": -81.374789829999997, "STOPID": 4265, "STOPNAME": "DELANEY AVENUE AND S LUCERNE CIRCLE E", "TRAPID": 4265, "NODEID": null, "PATTERN": "OUTBOUND", "CITY": "ORLANDO", "COUNTY": "ORANGE", "SHELTER": "NO" }, "geometry": { "type": "Point", "coordinates": [ -81.374789829677354, 28.534301640147714 ] } },
{ "type": "Feature", "properties": { "ROUTE": "3", "DIRECTION": 0, "SEQUENCE": 12, "LAT": 28.532798960000001, "LONG": -81.374757590000002, "STOPID": 4266, "STOPNAME": "DELANEY AVENUE AND AGNES COURT", "TRAPID": 4266, "NODEID": null, "PATTERN": "OUTBOUND", "CITY": "ORLANDO", "COUNTY": "ORANGE", "SHELTER": "NO" }, "geometry": { "type": "Point", "coordinates": [ -81.374757590189418, 28.532798960105406 ] } },
{ "type": "Feature", "properties": { "ROUTE": "3", "DIRECTION": 0, "SEQUENCE": 13, "LAT": 28.531340419999999, "LONG": -81.374813590000002, "STOPID": 4267, "STOPNAME": "DELANEY AVENUE AND E GORE STREET", "TRAPID": 4267, "NODEID": null, "PATTERN": "OUTBOUND", "CITY": "ORLANDO", "COUNTY": "ORANGE", "SHELTER": "NO" }, "geometry": { "type": "Point", "coordinates": [ -81.374813589653456, 28.531340419702012 ] } },
{ "type": "Feature", "properties": { "ROUTE": "3", "DIRECTION": 0, "SEQUENCE": 14, "LAT": 28.52949096, "LONG": -81.373228929999996, "STOPID": 4268, "STOPNAME": "DELANEY AVENUE AND PHILLIPS PLACE", "TRAPID": 4268, "NODEID": null, "PATTERN": "OUTBOUND", "CITY": "ORLANDO", "COUNTY": "ORANGE", "SHELTER": "NO" }, "geometry": { "type": "Point", "coordinates": [ -81.373228930187125, 28.52949096027378 ] } },
{ "type": "Feature", "properties": { "ROUTE": "3", "DIRECTION": 0, "SEQUENCE": 15, "LAT": 28.528007349999999, "LONG": -81.372409599999997, "STOPID": 4269, "STOPNAME": "DELANEY AVENUE AND DELANEY PARK DRIVE", "TRAPID": 4269, "NODEID": null, "PATTERN": "OUTBOUND", "CITY": "ORLANDO", "COUNTY": "ORANGE", "SHELTER": "NO" }, "geometry": { "type": "Point", "coordinates": [ -81.372409599882587, 28.528007350451041 ] } },
{ "type": "Feature", "properties": { "ROUTE": "3", "DIRECTION": 0, "SEQUENCE": 16, "LAT": 28.526144630000001, "LONG": -81.372401530000005, "STOPID": 4270, "STOPNAME": "DELANEY AVENUE AND E COPELAND DRIVE", "TRAPID": 4270, "NODEID": null, "PATTERN": "OUTBOUND", "CITY": "ORLANDO", "COUNTY": "ORANGE", "SHELTER": "NO" }, "geometry": { "type": "Point", "coordinates": [ -81.372401530445401, 28.526144629857921 ] } },
{ "type": "Feature", "properties": { "ROUTE": "3", "DIRECTION": 0, "SEQUENCE": 17, "LAT": 28.524310660000001, "LONG": -81.372349319999998, "STOPID": 4271, "STOPNAME": "DELANEY AVENUE AND JASMINE AVENUE", "TRAPID": 4271, "NODEID": null, "PATTERN": "OUTBOUND", "CITY": "ORLANDO", "COUNTY": "ORANGE", "SHELTER": "NO" }, "geometry": { "type": "Point", "coordinates": [ -81.372349320479373, 28.52431066015474 ] } },
{ "type": "Feature", "properties": { "ROUTE": "3", "DIRECTION": 0, "SEQUENCE": 18, "LAT": 28.5225349, "LONG": -81.372335019999994, "STOPID": 4272, "STOPNAME": "DELANEY AVENUE AND WOODLAND STREET", "TRAPID": 4272, "NODEID": null, "PATTERN": "OUTBOUND", "CITY": "ORLANDO", "COUNTY": "ORANGE", "SHELTER": "NO" }, "geometry": { "type": "Point", "coordinates": [ -81.372335019993784, 28.522534899904841 ] } },