{
"type": "FeatureCollection",
"crs": { "type": "name", "properties": { "name": "urn:ogc:def:crs:OGC:1.3:CRS84" } },
                                                                                
"features": [
{ "type": "Feature", "properties": { "TYPE": "University\/College", "ADDRESS": "8325 S Park Cir", "CITY": "Orlando", "ZIP_CODE": 32819, "PHONE": null, "NAME": "University of Phoenix" }, "geometry": { "type": "Point", "coordinates": [ -81.419546261091398, 28.445531610237555 ] } },
{ "type": "Feature", "properties": { "TYPE": "University\/College", "ADDRESS": "8301 S Park Cir", "CITY": "Orlando", "ZIP_CODE": 32819, "PHONE": null, "NAME": "ITT Technical Institute" }, "geometry": { "type": "Point", "coordinates": [ -81.42034976297478, 28.447212297479403 ] } },
{ "type": "Feature", "properties": { "TYPE": "University\/College", "ADDRESS": "2202 W Taft Vineland Rd", "CITY": "Orlando", "ZIP_CODE": 32837, "PHONE": null, "NAME": "Universal Technical Institute" }, "geometry": { "type": "Point", "coordinates": [ -81.407071669777395, 28.420182382101913 ] } },
{ "type": "Feature", "properties": { "TYPE": "University\/College", "ADDRESS": "5200 Vineland Rd", "CITY": "Orlando", "ZIP_CODE": 32811, "PHONE": null, "NAME": "Belhaven University" }, "geometry": { "type": "Point", "coordinates": [ -81.44175666524724, 28.487818989206428 ] } },
{ "type": "Feature", "properties": { "TYPE": "University\/College", "ADDRESS": "4850 Millenia Blvd", "CITY": "Orlando", "ZIP_CODE": 32839, "PHONE": null, "NAME": "Nova Southeastern University" }, "geometry": { "type": "Point", "coordinates": [ -81.441571104897747, 28.481607245589011 ] } },
{ "type": "Feature", "properties": { "TYPE": "University\/College", "ADDRESS": "4525 Vineland Rd", "CITY": "Orlando", "ZIP_CODE": 32811, "PHONE": null, "NAME": "Troy University" }, "geometry": { "type": "Point", "coordinates": [ -81.432191190884765, 28.497424640007658 ] } },
{ "type": "Feature", "properties": { "TYPE": "University\/College", "ADDRESS": "989 N Semoran Blvd", "CITY": "Orlando", "ZIP_CODE": 32807, "PHONE": null, "NAME": "Florida Career College" }, "geometry": { "type": "Point", "coordinates": [ -81.309459662207615, 28.560574976680378 ] } },
{ "type": "Feature", "properties": { "TYPE": "University\/College", "ADDRESS": "7300 Lake Ellenor Dr", "CITY": "Orlando", "ZIP_CODE": 32809, "PHONE": null, "NAME": "University of Central Florida" }, "geometry": { "type": "Point", "coordinates": [ -81.405040025108491, 28.462367961179204 ] } },
{ "type": "Feature", "properties": { "TYPE": "University\/College", "ADDRESS": "1000 Holt Av", "CITY": "Winter Park", "ZIP_CODE": 32789, "PHONE": null, "NAME": "Rollins College" }, "geometry": { "type": "Point", "coordinates": [ -81.349200411688557, 28.591060152613633 ] } },
{ "type": "Feature", "properties": { "TYPE": "University\/College", "ADDRESS": "9200 Southpark Center Lp", "CITY": "Orlando", "ZIP_CODE": 32819, "PHONE": null, "NAME": "Everest University South Orlando" }, "geometry": { "type": "Point", "coordinates": [ -81.42686107958265, 28.434504814505701 ] } },
{ "type": "Feature", "properties": { "TYPE": "University\/College", "ADDRESS": "4000 Central Florida Bv", "CITY": "Orlando", "ZIP_CODE": 32816, "PHONE": null, "NAME": "University of Central Florida" }, "geometry": { "type": "Point", "coordinates": [ -81.200043566635955, 28.602413881833609 ] } },
{ "type": "Feature", "properties": { "TYPE": "University\/College", "ADDRESS": "36 W Pine St", "CITY": "Orlando", "ZIP_CODE": 32801, "PHONE": null, "NAME": "University of Central Florida" }, "geometry": { "type": "Point", "coordinates": [ -81.379850433394168, 28.541071907409449 ] } },
{ "type": "Feature", "properties": { "TYPE": "University\/College", "ADDRESS": "8529 South Park Cr", "CITY": "Orlando", "ZIP_CODE": 32819, "PHONE": null, "NAME": "Embry Riddle Aeronautical University" }, "geometry": { "type": "Point", "coordinates": [ -81.42388740193293, 28.438794909037224 ] } },
{ "type": "Feature", "properties": { "TYPE": "University\/College", "ADDRESS": "6035 S Rio Grande Av", "CITY": "Orlando", "ZIP_CODE": 32809, "PHONE": null, "NAME": "Florida Southern College" }, "geometry": { "type": "Point", "coordinates": [ -81.400081641086544, 28.470606935116709 ] } },
{ "type": "Feature", "properties": { "TYPE": "University\/College", "ADDRESS": "190 S Orange Av", "CITY": "Orlando", "ZIP_CODE": 32801, "PHONE": null, "NAME": "Valencia College" }, "geometry": { "type": "Point", "coordinates": [ -81.379308741390858, 28.540587805660621 ] } },
{ "type": "Feature", "properties": { "TYPE": "University\/College", "ADDRESS": "5600 Lake Underhill Rd", "CITY": "Orlando", "ZIP_CODE": 32807, "PHONE": null, "NAME": "Keiser University" }, "geometry": { "type": "Point", "coordinates": [ -81.311959604552271, 28.538131020400197 ] } },
{ "type": "Feature", "properties": { "TYPE": "University\/College", "ADDRESS": "5421 Diplomat Cr", "CITY": "Orlando", "ZIP_CODE": 32810, "PHONE": null, "NAME": "Florida Metropolitan University" }, "geometry": { "type": "Point", "coordinates": [ -81.387376553020289, 28.611055128107719 ] } },
{ "type": "Feature", "properties": { "TYPE": "University\/College", "ADDRESS": "9907 Universal Bv", "CITY": "Orlando", "ZIP_CODE": 32819, "PHONE": null, "NAME": "University of Central Florida" }, "geometry": { "type": "Point", "coordinates": [ -81.44166708544752, 28.428254597984338 ] } },
{ "type": "Feature", "properties": { "TYPE": "University\/College", "ADDRESS": "12689 Challenger Py", "CITY": "Orlando", "ZIP_CODE": 32826, "PHONE": null, "NAME": "Florida Technical College" }, "geometry": { "type": "Point", "coordinates": [ -81.200083688493194, 28.574045564512417 ] } },
{ "type": "Feature", "properties": { "TYPE": "University\/College", "ADDRESS": "4000 Millenia Bv", "CITY": "Orlando", "ZIP_CODE": 32839, "PHONE": null, "NAME": "Devry University" }, "geometry": { "type": "Point", "coordinates": [ -81.427112375943381, 28.492678606791415 ] } },
{ "type": "Feature", "properties": { "TYPE": "University\/College", "ADDRESS": "6441 E Colonial Dr", "CITY": "Orlando", "ZIP_CODE": 32807, "PHONE": null, "NAME": "Barry University" }, "geometry": { "type": "Point", "coordinates": [ -81.301300022165705, 28.567091796276777 ] } },
{ "type": "Feature", "properties": { "TYPE": "University\/College", "ADDRESS": "701 N Econlockhatchee Tl", "CITY": "Orlando", "ZIP_CODE": 32825, "PHONE": null, "NAME": "Valencia College" }, "geometry": { "type": "Point", "coordinates": [ -81.25049561841999, 28.553624440896964 ] } },
{ "type": "Feature", "properties": { "TYPE": "University\/College", "ADDRESS": "212 S Denning Dr", "CITY": "Winter Park", "ZIP_CODE": 32879, "PHONE": null, "NAME": "Valencia College" }, "geometry": { "type": "Point", "coordinates": [ -81.360276237196103, 28.597457409805603 ] } },
{ "type": "Feature", "properties": { "TYPE": "University\/College", "ADDRESS": "2411 Sand Lake Rd", "CITY": "Orlando", "ZIP_CODE": 32809, "PHONE": null, "NAME": "Florida Metropolitan University" }, "geometry": { "type": "Point", "coordinates": [ -81.414576818427832, 28.451688771651003 ] } },
{ "type": "Feature", "properties": { "TYPE": "University\/College", "ADDRESS": "1800 S Kirkman Rd", "CITY": "Orlando", "ZIP_CODE": 32811, "PHONE": null, "NAME": "Valencia College" }, "geometry": { "type": "Point", "coordinates": [ -81.464760801722079, 28.521276283840027 ] } },
{ "type": "Feature", "properties": { "TYPE": "University\/College", "ADDRESS": "8503 Daetwyler Dr", "CITY": "Orlando", "ZIP_CODE": 32827, "PHONE": null, "NAME": "Valencia College" }, "geometry": { "type": "Point", "coordinates": [ -81.338410323405256, 28.442288386448286 ] } },
{ "type": "Feature", "properties": { "TYPE": "University\/College", "ADDRESS": "1800 Pembrook Dr", "CITY": "Orlando", "ZIP_CODE": 32810, "PHONE": null, "NAME": "Devry University" }, "geometry": { "type": "Point", "coordinates": [ -81.401780323797226, 28.631945207480932 ] } },
{ "type": "Feature", "properties": { "TYPE": "University\/College", "ADDRESS": "2000 N Alafaya Tl", "CITY": "Orlando", "ZIP_CODE": 32826, "PHONE": null, "NAME": "Strayer University" }, "geometry": { "type": "Point", "coordinates": [ -81.208691629388099, 28.572621941521323 ] } },
{ "type": "Feature", "properties": { "TYPE": "University\/College", "ADDRESS": "3165 McCrory PL", "CITY": "Orlando", "ZIP_CODE": 32803, "PHONE": null, "NAME": "Florida Institute of Technology" }, "geometry": { "type": "Point", "coordinates": [ -81.343198575611055, 28.558855981441688 ] } },
{ "type": "Feature", "properties": { "TYPE": "University\/College", "ADDRESS": "3450 N Forsyth Rd", "CITY": "Winter Park", "ZIP_CODE": 32792, "PHONE": null, "NAME": "Full Sail University" }, "geometry": { "type": "Point", "coordinates": [ -81.301160167767108, 28.596489185028158 ] } },
{ "type": "Feature", "properties": { "TYPE": "University\/College", "ADDRESS": "1650 Sand Lake Rd", "CITY": "Orlando", "ZIP_CODE": 32809, "PHONE": null, "NAME": "Barry University" }, "geometry": { "type": "Point", "coordinates": [ -81.399054065219843, 28.449797189930145 ] } },
{ "type": "Feature", "properties": { "TYPE": "University\/College", "ADDRESS": "3444 McCrory Pl", "CITY": "Orlando", "ZIP_CODE": 32803, "PHONE": null, "NAME": "Concorde Career Institute" }, "geometry": { "type": "Point", "coordinates": [ -81.340404011786305, 28.559854205800107 ] } },
{ "type": "Feature", "properties": { "TYPE": "University\/College", "ADDRESS": "301 W Amelia St", "CITY": "Orlando", "ZIP_CODE": 32801, "PHONE": null, "NAME": "Orange Technical College" }, "geometry": { "type": "Point", "coordinates": [ -81.38380380130225, 28.550364539875343 ] } },
{ "type": "Feature", "properties": { "TYPE": "University\/College", "ADDRESS": "250 E Colonial Dr", "CITY": "Orlando", "ZIP_CODE": 32801, "PHONE": null, "NAME": "Florida State University" }, "geometry": { "type": "Point", "coordinates": [ -81.374039923391535, 28.55293704392021 ] } },
{ "type": "Feature", "properties": { "TYPE": "University\/College", "ADDRESS": "201 Beggs Ave", "CITY": "Orlando", "ZIP_CODE": 32801, "PHONE": null, "NAME": "Florida A&M University" }, "geometry": { "type": "Point", "coordinates": [ -81.383387123333549, 28.544866000529542 ] } },
{ "type": "Feature", "properties": { "TYPE": "University\/College", "ADDRESS": "2600 Technology Dr", "CITY": "Orlando", "ZIP_CODE": 32804, "PHONE": null, "NAME": "Columbia College" }, "geometry": { "type": "Point", "coordinates": [ -81.412680515890102, 28.555184903948479 ] } },
{ "type": "Feature", "properties": { "TYPE": "University\/College", "ADDRESS": "2900 W Oak Ridge Rd", "CITY": "Orlando", "ZIP_CODE": 32809, "PHONE": null, "NAME": "Orange Technical College" }, "geometry": { "type": "Point", "coordinates": [ -81.416143792867402, 28.471674659842613 ] } },
{ "type": "Feature", "properties": { "TYPE": "University\/College", "ADDRESS": "6039 Rio Grande Ave", "CITY": "Orlando", "ZIP_CODE": 32809, "PHONE": null, "NAME": "International Academy of Design & Tech" }, "geometry": { "type": "Point", "coordinates": [ -81.400364814019937, 28.469302551798851 ] } }
]
}
