{
"type": "FeatureCollection",
"crs": { "type": "name", "properties": { "name": "urn:ogc:def:crs:OGC:1.3:CRS84" } },
                                                                                
"features": [
{ "type": "Feature", "properties": { "NUMBER_": 7, "NAME": "Grand Av Primary Learning", "ADDRESS": "800 Grand Ave", "CITY": "Orlando", "ZIP_CODE": 32805, "PHONE": "(407) 245-1750", "CONTACT": "Yira Rodriguez" }, "geometry": { "type": "Point", "coordinates": [ -81.390385124659687, 28.525873141028804 ] } },
{ "type": "Feature", "properties": { "NUMBER_": 13, "NAME": "Orlando Tech", "ADDRESS": "301 W Amelia St", "CITY": "Orlando", "ZIP_CODE": 32801, "PHONE": "(407) 317-3243", "CONTACT": "Toinette Stenson" }, "geometry": { "type": "Point", "coordinates": [ -81.383681234417878, 28.550330328381396 ] } },
{ "type": "Feature", "properties": { "NUMBER_": 17, "NAME": "Taft Community Center", "ADDRESS": "9504 S Orange Ave", "CITY": "Orlando", "ZIP_CODE": 32824, "PHONE": "(407) 254-9276", "CONTACT": "Aida Ayala" }, "geometry": { "type": "Point", "coordinates": [ -81.37010412520759, 28.428365177950578 ] } },
{ "type": "Feature", "properties": { "NUMBER_": 9, "NAME": "John H Bridges Center", "ADDRESS": "445 W 13th St", "CITY": "Apopka", "ZIP_CODE": 32703, "PHONE": "(407) 254-9421", "CONTACT": "Mercedes Grullon" }, "geometry": { "type": "Point", "coordinates": [ -81.520116031793833, 28.663032907465279 ] } },
{ "type": "Feature", "properties": { "NUMBER_": 14, "NAME": "Pine Hills Comm Center", "ADDRESS": "6408 Jennings Rd", "CITY": "Orlando", "ZIP_CODE": 32808, "PHONE": "(407) 254-9112", "CONTACT": "Tambra Jackson" }, "geometry": { "type": "Point", "coordinates": [ -81.469790343828052, 28.566266762930276 ] } },
{ "type": "Feature", "properties": { "NUMBER_": 18, "NAME": "Tangelo Park Elementary", "ADDRESS": "5115 Anzio St", "CITY": "Orlando", "ZIP_CODE": 32819, "PHONE": "(407) 352-4322", "CONTACT": "Yira Rodriguez" }, "geometry": { "type": "Point", "coordinates": [ -81.448875677666678, 28.457115309131787 ] } },
{ "type": "Feature", "properties": { "NUMBER_": 1, "NAME": "Aloma Elementary", "ADDRESS": "2949 Scarlet Rd", "CITY": "Winter Park", "ZIP_CODE": 32792, "PHONE": "(407) 672-3100", "CONTACT": "Nesreen Hafaz" }, "geometry": { "type": "Point", "coordinates": [ -81.308477377529925, 28.599120213476905 ] } },
{ "type": "Feature", "properties": { "NUMBER_": 8, "NAME": "Hal P Marston Center", "ADDRESS": "3933 W D Judge Dr", "CITY": "Orlando", "ZIP_CODE": 32808, "PHONE": "(407) 836-8455", "CONTACT": "Dina Mathews" }, "geometry": { "type": "Point", "coordinates": [ -81.42749706176285, 28.561476312639819 ] } },
{ "type": "Feature", "properties": { "NUMBER_": 10, "NAME": "Lake Weston Elementary", "ADDRESS": "5500 Milan Dr", "CITY": "Orlando", "ZIP_CODE": 32810, "PHONE": "(407) 445-5394", "CONTACT": "Vivian Jones" }, "geometry": { "type": "Point", "coordinates": [ -81.412185880386019, 28.612338854705346 ] } },
{ "type": "Feature", "properties": { "NUMBER_": 16, "NAME": "Southwood", "ADDRESS": "6225 Brookgreen Av", "CITY": "Orlando", "ZIP_CODE": 32839, "PHONE": "(407) 254-6768", "CONTACT": "Sunitha Koorathota" }, "geometry": { "type": "Point", "coordinates": [ -81.430813216147328, 28.466770483083252 ] } },
{ "type": "Feature", "properties": { "NUMBER_": 2, "NAME": "Bithlo Community Center", "ADDRESS": "18501 Washington Av", "CITY": "Orlando", "ZIP_CODE": 32820, "PHONE": "(407) 254-1928", "CONTACT": "Ebtehal Kandil" }, "geometry": { "type": "Point", "coordinates": [ -81.102111690114313, 28.559512614391821 ] } },
{ "type": "Feature", "properties": { "NUMBER_": 4, "NAME": "Denton Johnson Center", "ADDRESS": "400 Ruffel St", "CITY": "Eatonville", "ZIP_CODE": 32751, "PHONE": "(407) 975-7422", "CONTACT": "Vivian Jones" }, "geometry": { "type": "Point", "coordinates": [ -81.37870853122152, 28.614100490268296 ] } },
{ "type": "Feature", "properties": { "NUMBER_": 6, "NAME": "Engelwood Elementary", "ADDRESS": "900 Engel Dr", "CITY": "Orlando", "ZIP_CODE": 32807, "PHONE": "(407) 207-7357", "CONTACT": "Nesreen Hafaz" }, "geometry": { "type": "Point", "coordinates": [ -81.301729068516067, 28.53107132439462 ] } },
{ "type": "Feature", "properties": { "NUMBER_": 19, "NAME": "Washington Shores", "ADDRESS": "1001 S Goldwyn Ave", "CITY": "Orlando", "ZIP_CODE": 32805, "PHONE": "(407) 254-9450", "CONTACT": "Teresa Williams" }, "geometry": { "type": "Point", "coordinates": [ -81.417502982060753, 28.52920083490341 ] } },
{ "type": "Feature", "properties": { "NUMBER_": 11, "NAME": "Lila Mitchell Center", "ADDRESS": "5151 Raleigh St", "CITY": "Orlando", "ZIP_CODE": 32811, "PHONE": "(407) 254-9494", "CONTACT": "Wilna Francois" }, "geometry": { "type": "Point", "coordinates": [ -81.447550489391034, 28.528294066645909 ] } },
{ "type": "Feature", "properties": { "NUMBER_": 15, "NAME": "South Orlando YMCA", "ADDRESS": "814 W Oak Ridge Rd", "CITY": "Orlando", "ZIP_CODE": 32809, "PHONE": "(407) 254-1011", "CONTACT": "Lesley Rosario" }, "geometry": { "type": "Point", "coordinates": [ -81.388810737965912, 28.471122389290247 ] } },
{ "type": "Feature", "properties": { "NUMBER_": 5, "NAME": "East Orange Center", "ADDRESS": "12050 E Colonial Dr", "CITY": "Orlando", "ZIP_CODE": 32826, "PHONE": "(407) 254-9713", "CONTACT": "Anabel Sepulveda" }, "geometry": { "type": "Point", "coordinates": [ -81.201838452503338, 28.563102851974566 ] } },
{ "type": "Feature", "properties": { "NUMBER_": 12, "NAME": "Maxey Elementary", "ADDRESS": "1100 E Maple St", "CITY": "Winter Garden", "ZIP_CODE": 34787, "PHONE": "(407) 656-5329", "CONTACT": "Myra Jackson" }, "geometry": { "type": "Point", "coordinates": [ -81.568066917306922, 28.561067098506594 ] } },
{ "type": "Feature", "properties": { "NUMBER_": 3, "NAME": "Callahan Center", "ADDRESS": "101 N Parramore St", "CITY": "Orlando", "ZIP_CODE": 32805, "PHONE": "(407) 245-0910", "CONTACT": "Toinett Stenson" }, "geometry": { "type": "Point", "coordinates": [ -81.388089909299566, 28.544346535822079 ] } }
]
}
